airport_id,name,city,country,iata_faa,iaco,latitude,longitude,altitude,zone,dst,city_state,avg_able_landings,avg_able_takeoffs,total_landings,total_takeoffs,avg_taxi_in,avg_taxi_out,longest_taxi_in,longest_taxi_out,lng_tx_in_date,lng_tx_out_date
4355,Lehigh Valley International,Allentown,United States,ABE,KABE,40.652083,-75.440806,393,-5,A,"Allentown/Bethlehem/Easton, PA",118,119,121,121,4.194915254237288,12.403361344537815,7.0,44.0,"Sun, Dec  1, 2002","Wed, Dec 25, 2002"
3718,Abilene Regional,Abilene,United States,ABI,KABI,32.411319,-99.681897,1791,-6,A,"Abilene, TX",203,204,203,205,4.773399014778324,10.808823529411766,23.0,50.0,"Wed, Dec  4, 2002","Tue, Dec 31, 2002"
4019,Albuquerque International Sunport,Albuquerque,United States,ABQ,KABQ,35.0402222,-106.6091944,5355,-7,A,"Albuquerque, NM",2850,2859,2874,2876,4.272982456140351,9.894718433018543,37.0,165.0,"Fri, Dec 20, 2002","Mon, Dec 30, 2002"
3700,Waco Regional,Waco,United States,ACT,KACT,31.611289,-97.230519,516,-6,A,"Waco, TX",206,205,208,208,4.208737864077674,9.965853658536588,13.0,42.0,"Mon, Dec 23, 2002","Sun, Dec 29, 2002"
3531,Kodiak,Kodiak,United States,ADQ,PADQ,57.749967,-152.493856,78,-9,A,"Kodiak, AK",57,57,60,60,2.6842105263157894,5.263157894736844,5.0,24.0,"Mon, Dec  9, 2002","Sun, Dec  8, 2002"
3794,King Salmon,King Salmon,United States,AKN,PAKN,58.676778,-156.649278,68,-9,A,"King Salmon, AK",13,13,13,13,3.8461538461538463,3.923076923076923,7.0,6.0,"Sun, Dec  1, 2002","Thu, Dec 12, 2002"
3864,Albany International,Albany,United States,ALB,KALB,42.748267,-73.801692,285,-5,A,"Albany, NY",1112,1122,1167,1168,4.09982014388489,13.390374331550797,62.0,100.0,"Tue, Dec 31, 2002","Thu, Dec  5, 2002"
3840,Rick Husband Amarillo International,Amarillo,United States,AMA,KAMA,35.219369,-101.705931,3607,-6,A,"Amarillo, TX",530,537,549,550,4.116981132075468,9.912476722532599,11.0,45.0,"Sun, Dec 22, 2002","Mon, Dec 23, 2002"
3774,Ted Stevens Anchorage International,Anchorage,United States,ANC,PANC,61.174361,-149.996361,152,-9,A,"Anchorage, AK",1443,1463,1500,1497,4.931392931392912,13.645933014354076,39.0,76.0,"Mon, Dec  2, 2002","Thu, Dec 26, 2002"
3682,Hartsfield Jackson Atlanta International,Atlanta,United States,ATL,KATL,33.636719,-84.428067,1026,-5,A,"Atlanta, GA",18418,18510,18796,18831,8.886632641980672,18.323933009184266,1440.0,223.0,"Tue, Dec 17, 2002","Mon, Dec  2, 2002"
3673,Austin Bergstrom International,Austin,United States,AUS,KAUS,30.194528,-97.669889,542,-6,A,"Austin, TX",3136,3141,3185,3184,5.2732780612245005,11.326965934415798,31.0,134.0,"Mon, Dec 30, 2002","Fri, Dec 13, 2002"
4286,Wilkes Barre Scranton International,Scranton,United States,AVP,KAVP,41.338478,-75.723403,962,-5,A,"Scranton/Wilkes-Barre, PA",88,89,90,90,3.5454545454545454,10.314606741573032,7.0,35.0,"Sun, Dec 15, 2002","Thu, Dec 12, 2002"
4039,Kalamazoo,Kalamazoo,United States,AZO,KAZO,42.234875,-85.552058,874,-5,A,"Kalamazoo, MI",165,162,174,174,3.703030303030303,12.012345679012352,8.0,84.0,"Fri, Dec 27, 2002","Wed, Dec 25, 2002"
3825,Bradley International,Windsor Locks,United States,BDL,KBDL,41.938889,-72.683222,173,-5,A,"Hartford, CT",2574,2585,2674,2673,5.399766899766912,15.68317214700194,32.0,181.0,"Sat, Dec 21, 2002","Sun, Dec  8, 2002"
3599,Bethel,Bethel,United States,BET,PABE,60.779778,-161.838,121,-9,A,"Bethel, AK",109,109,114,114,3.1376146788990837,6.073394495412844,6.0,12.0,"Sat, Dec 14, 2002","Sat, Dec  7, 2002"
3463,Bangor International,Bangor,United States,BGR,KBGR,44.807444,-68.828139,192,-5,A,"Bangor, ME",212,209,224,223,4.075471698113212,11.014354066985641,11.0,35.0,"Tue, Dec 31, 2002","Sat, Dec 28, 2002"
3811,Birmingham International,Birmingham,United States,BHM,KBHM,33.562942,-86.75355,644,-6,A,"Birmingham, AL",1414,1408,1428,1428,3.5523338048090536,10.339488636363638,28.0,72.0,"Wed, Dec 25, 2002","Fri, Dec 13, 2002"
4021,Billings Logan International Airport,Billings,United States,BIL,KBIL,45.80921,-108.537654,3652,-7,A,"Billings, MT",251,250,252,251,3.5617529880478096,12.156,13.0,48.0,"Wed, Dec 11, 2002","Tue, Dec  3, 2002"
4083,Bismarck Municipal Airport,Bismarck,United States,BIS,KBIS,46.775842,-100.757931,1661,-6,A,"Bismarck/Mandan, ND",123,123,123,123,3.5447154471544717,9.999999999999993,8.0,58.0,"Tue, Dec 17, 2002","Thu, Dec 26, 2002"
3690,Nashville International,Nashville,United States,BNA,KBNA,36.124472,-86.678194,599,-6,A,"Nashville, TN",3951,3944,3991,3988,4.93824348266264,10.768509127789043,45.0,186.0,"Mon, Dec  2, 2002","Wed, Dec  4, 2002"
3495,Boise Air Terminal,Boise,United States,BOI,KBOI,43.564361,-116.222861,2871,-7,A,"Boise, ID",906,911,926,927,3.4172185430463577,9.727771679473122,20.0,70.0,"Thu, Dec 26, 2002","Sat, Dec 21, 2002"
3448,General Edward Lawrence Logan International,Boston,United States,BOS,KBOS,42.364347,-71.005181,19,-5,A,"Boston, MA",8325,8352,8730,8731,7.390630630630625,18.296216475095783,105.0,163.0,"Wed, Dec 25, 2002","Thu, Dec 19, 2002"
3571,Wiley Post Will Rogers Memorial,Barrow,United States,BRW,PABR,71.285446,-156.766003,44,-9,A,"Barrow, AK",57,59,59,59,3.6666666666666665,5.8135593220339,7.0,23.0,"Tue, Dec 17, 2002","Wed, Dec 18, 2002"
3846,Baton Rouge Metro-Ryan Field,Baton Rouge,United States,BTR,KBTR,30.533167,-91.149639,70,-6,A,"Baton Rouge, LA",249,249,255,255,4.855421686746987,11.875502008032129,43.0,48.0,"Wed, Dec  4, 2002","Mon, Dec  9, 2002"
3711,Burlington International,Burlington,United States,BTV,KBTV,44.471861,-73.153278,335,-5,A,"Burlington, VT",276,275,278,278,3.5,13.981818181818182,11.0,64.0,"Wed, Dec 11, 2002","Mon, Dec  2, 2002"
3820,Buffalo Niagara International,Buffalo,United States,BUF,KBUF,42.940525,-78.732167,724,-5,A,"Buffalo, NY",1181,1183,1204,1200,4.324301439458085,14.613693998309376,32.0,139.0,"Wed, Dec 25, 2002","Mon, Dec 16, 2002"
3644,Bob Hope,Burbank,United States,BUR,KBUR,34.200667,-118.358667,778,-8,A,"Burbank, CA",2157,2158,2170,2169,2.690310616597124,10.35171455050974,40.0,54.0,"Fri, Dec 20, 2002","Wed, Dec 18, 2002"
3849,Baltimore Washington International,Baltimore,United States,BWI,KBWI,39.175361,-76.668333,146,-5,A,"Baltimore, MD",6827,6821,7032,7029,5.428299399443368,13.53012754728045,214.0,299.0,"Thu, Dec  5, 2002","Thu, Dec  5, 2002"
4020,Gallatin Field,Bozeman,United States,BZN,KBZN,45.777643,-111.160151,4500,-7,A,"Bozeman, MT",150,150,151,150,4.786666666666664,11.879999999999999,28.0,39.0,"Fri, Dec 20, 2002","Tue, Dec  3, 2002"
3561,Columbia Metropolitan,Colombia,United States,CAE,KCAE,33.938833,-81.119528,236,-5,A,"Columbia, SC",89,88,89,88,4.7528089887640474,15.0,13.0,39.0,"Mon, Dec  2, 2002","Wed, Dec 11, 2002"
3610,Merle K. Mudhole Smith,Cordova,United States,CDV,PACV,60.491778,-145.477556,48,-9,A,"Cordova, AK",56,56,60,60,2.732142857142857,5.5,6.0,17.0,"Wed, Dec 18, 2002","Fri, Dec 13, 2002"
3578,Lovell Field,Chattanooga,United States,CHA,KCHA,35.035278,-85.203808,683,-5,A,"Chattanooga, TN",58,58,58,58,4.120689655172414,14.241379310344827,9.0,73.0,"Thu, Dec  5, 2002","Wed, Dec 18, 2002"
3806,Charleston AFB International,Charleston,United States,CHS,KCHS,32.898647,-80.040528,45,-5,A,"Charleston, SC",339,339,345,344,6.522123893805312,12.404129793510325,47.0,84.0,"Thu, Dec  5, 2002","Wed, Dec  4, 2002"
4043,Cedar Rapids,Cedar Rapids,United States,CID,KCID,41.884694,-91.710806,869,-6,A,"Cedar Rapids/Iowa City, IA",377,376,383,384,4.238726790450927,10.438829787234043,25.0,95.0,"Thu, Dec 19, 2002","Fri, Dec 13, 2002"
3486,Cleveland Hopkins International,Cleveland,United States,CLE,KCLE,41.411689,-81.849794,791,-5,A,"Cleveland, OH",3623,3625,3694,3695,5.441622964394151,17.40468965517248,27.0,151.0,"Mon, Dec  2, 2002","Tue, Dec 17, 2002"
3715,Easterwood Field,College Station,United States,CLL,KCLL,30.588583,-96.363833,321,-6,A,"College Station/Bryan, TX",146,145,149,149,5.52054794520548,9.848275862068968,13.0,32.0,"Fri, Dec 27, 2002","Sun, Dec 29, 2002"
3876,Charlotte Douglas International,Charlotte,United States,CLT,KCLT,35.214,-80.943139,748,-5,A,"Charlotte, NC",7717,7741,7947,7940,5.353246080082946,18.048184989019468,48.0,269.0,"Sun, Dec  8, 2002","Wed, Dec  4, 2002"
3759,Port Columbus International,Columbus,United States,CMH,KCMH,39.997972,-82.891889,815,-5,A,"Columbus, OH",2593,2582,2631,2629,4.540686463555725,13.87800154918667,43.0,128.0,"Mon, Dec 16, 2002","Tue, Dec 17, 2002"
4049,Champaign,Champaign,United States,CMI,KCMI,40.03925,-88.278056,754,-6,A,"Champaign/Urbana, IL",131,132,141,142,3.687022900763359,12.348484848484848,13.0,78.0,"Mon, Dec 30, 2002","Wed, Dec 18, 2002"
3819,City Of Colorado Springs Municipal,Colorado Springs,United States,COS,KCOS,38.805805,-104.700778,6187,-7,A,"Colorado Springs, CO",622,623,630,627,6.390675241157555,14.775280898876407,27.0,86.0,"Tue, Dec  3, 2002","Tue, Dec 17, 2002"
3744,Corpus Christi International,Corpus Christi,United States,CRP,KCRP,27.770361,-97.501222,44,-6,A,"Corpus Christi, TX",331,337,342,343,3.3504531722054387,8.67062314540059,14.0,120.0,"Mon, Dec 23, 2002","Sat, Dec 28, 2002"
3488,Cincinnati Northern Kentucky International,Cincinnati,United States,CVG,KCVG,39.048836,-84.667822,896,-5,A,"Cincinnati, OH",4988,4993,5109,5111,6.70449077786688,19.1496094532345,57.0,188.0,"Wed, Dec  4, 2002","Wed, Dec  4, 2002"
3950,Daytona Beach International,Daytona Beach,United States,DAB,KDAB,29.179917,-81.058056,34,-5,A,"Daytona Beach, FL",152,152,155,154,4.0394736842105265,13.31578947368421,8.0,66.0,"Sat, Dec 14, 2002","Wed, Dec  4, 2002"
3502,Dallas Love Field,Dallas,United States,DAL,KDAL,32.847111,-96.851778,487,-6,A,"Dallas, TX",3372,3382,3540,3534,2.9967378410438896,7.947368421052634,24.0,65.0,"Mon, Dec 30, 2002","Mon, Dec 30, 2002"
3627,James M. Cox Dayton International,Dayton,United States,DAY,KDAY,39.902375,-84.219375,1009,-5,A,"Dayton, OH",509,507,511,510,5.925343811394893,19.163708086785004,59.0,173.0,"Wed, Dec 18, 2002","Mon, Dec 30, 2002"
4388,Dubuque Regional,Dubuque IA,United States,DBQ,KDBQ,42.402,-90.709472,1076,-6,A,"Dubuque, IA",82,83,87,88,3.768292682926829,11.180722891566264,10.0,46.0,"Sat, Dec  7, 2002","Wed, Dec  4, 2002"
3520,Ronald Reagan Washington National,Washington,United States,DCA,KDCA,38.852083,-77.037722,15,-5,A,"Washington, DC",5792,5776,6005,6005,4.555075966850839,14.479743767313014,89.0,222.0,"Thu, Dec  5, 2002","Mon, Dec  2, 2002"
3751,Denver International,Denver,United States,DEN,KDEN,39.861656,-104.673178,5431,-7,A,"Denver, CO",9797,9774,9850,9824,6.933040726753097,14.408942091262537,41.0,106.0,"Sat, Dec  7, 2002","Tue, Dec  3, 2002"
3670,Dallas Fort Worth International,Dallas-fort Worth,United States,DFW,KDFW,32.896828,-97.037997,607,-6,A,"Dallas/Fort Worth, TX",22914,23053,23368,23369,10.509295627127454,16.924782024031682,88.0,159.0,"Mon, Dec 30, 2002","Sun, Dec  8, 2002"
3460,Dillingham,Dillingham,United States,DLG,PADL,59.044667,-158.5055,74,-9,A,"Dillingham, AK",12,12,13,13,2.8333333333333335,5.5,4.0,10.0,"Tue, Dec 10, 2002","Thu, Dec 19, 2002"
3598,Duluth International,Duluth,United States,DLH,KDLH,46.842091,-92.193649,1428,-6,A,"Duluth, MN",108,109,109,110,5.361111111111111,10.1651376146789,11.0,25.0,"Sun, Dec 22, 2002","Wed, Dec 18, 2002"
3729,Des Moines International,Des Moines,United States,DSM,KDSM,41.533972,-93.663083,958,-6,A,"Des Moines, IA",605,605,616,617,4.361983471074375,11.140495867768594,18.0,70.0,"Mon, Dec  9, 2002","Tue, Dec 10, 2002"
3645,Detroit Metro Wayne County,Detroit,United States,DTW,KDTW,42.212444,-83.353389,645,-5,A,"Detroit, MI",11111,11163,11372,11390,9.480784807848076,20.821015855952766,128.0,283.0,"Mon, Dec  2, 2002","Mon, Dec  2, 2002"
3860,Unalaska,Unalaska,United States,DUT,PADU,53.900139,-166.5435,22,-9,A,"Unalaska, AK",45,45,54,54,2.3111111111111104,4.177777777777779,4.0,10.0,"Sun, Dec 15, 2002","Tue, Dec 17, 2002"
4250,Eagle County Regional,Vail,United States,EGE,KEGE,39.642556,-106.917694,6540,-7,A,"Eagle, CO",152,150,152,150,5.046052631578948,19.953333333333337,12.0,165.0,"Mon, Dec 16, 2002","Tue, Dec 31, 2002"
3559,El Paso International,El Paso,United States,ELP,KELP,31.80725,-106.377583,3958,-7,A,"El Paso, TX",1674,1676,1693,1694,3.147550776583037,9.88066825775658,38.0,125.0,"Sun, Dec  1, 2002","Tue, Dec 24, 2002"
4099,Mahlon Sweet Field,Eugene,United States,EUG,KEUG,44.124583,-123.211972,374,-8,A,"Eugene, OR",93,93,93,93,2.559139784946236,10.225806451612899,5.0,35.0,"Mon, Dec 23, 2002","Fri, Dec 13, 2002"
4018,Evansville Regional,Evansville,United States,EVV,KEVV,38.036997,-87.532364,418,-6,A,"Evansville, IN",133,131,140,140,3.699248120300752,11.488549618320612,19.0,54.0,"Wed, Dec  4, 2002","Fri, Dec 20, 2002"
3494,Newark Liberty International,Newark,United States,EWR,KEWR,40.6925,-74.168667,18,-5,A,"Newark, NJ",8047,8055,8245,8250,9.651547160432447,25.789075108628175,240.0,328.0,"Thu, Dec  5, 2002","Thu, Dec  5, 2002"
3832,Fairbanks International,Fairbanks,United States,FAI,PAFA,64.815114,-147.856267,434,-9,A,"Fairbanks, AK",386,386,391,391,3.658031088082902,10.31347150259068,23.0,49.0,"Fri, Dec 13, 2002","Sat, Dec 21, 2002"
4292,Hector International Airport,Fargo,United States,FAR,KFAR,46.92065,-96.8157639,902,-6,A,"Fargo, ND",228,228,229,228,4.973684210526316,11.605263157894735,35.0,40.0,"Thu, Dec 19, 2002","Wed, Dec 18, 2002"
3687,Fresno Yosemite International,Fresno,United States,FAT,KFAT,36.776194,-119.71814,336,-8,A,"Fresno, CA",282,284,291,294,4.503546099290779,10.1443661971831,15.0,36.0,"Thu, Dec 12, 2002","Thu, Dec 12, 2002"
4127,Glacier Park International,Kalispell,United States,FCA,KFCA,48.310472,-114.256,2977,-7,A,"Kalispell, MT",123,124,124,124,4.601626016260164,13.653225806451612,8.0,46.0,"Sun, Dec 15, 2002","Tue, Dec  3, 2002"
3533,Fort Lauderdale Hollywood International,Fort Lauderdale,United States,FLL,KFLL,26.072583,-80.15275,9,-5,A,"Fort Lauderdale, FL",4121,4127,4168,4171,5.1341907304052326,16.12842258299006,59.0,159.0,"Wed, Dec 11, 2002","Thu, Dec  5, 2002"
4089,Bishop International,Flint,United States,FNT,KFNT,42.965424,-83.743629,782,-5,A,"Flint, MI",109,109,112,111,4.2110091743119265,14.36697247706422,8.0,72.0,"Sat, Dec 21, 2002","Mon, Dec  2, 2002"
4009,Sioux Falls,Sioux Falls,United States,FSD,KFSD,43.582014,-96.741914,1429,-6,A,"Sioux Falls, SD",166,167,167,168,5.2951807228915655,13.706586826347305,11.0,37.0,"Sun, Dec 15, 2002","Wed, Dec  4, 2002"
3437,Fort Smith Regional,Fort Smith,United States,FSM,KFSM,35.336583,-94.367444,469,-6,A,"Fort Smith, AR",233,231,236,235,4.841201716738199,10.333333333333337,16.0,45.0,"Sun, Dec 22, 2002","Sat, Dec 14, 2002"
4041,Fort Wayne,Fort Wayne,United States,FWA,KFWA,40.978472,-85.195139,815,-5,A,"Fort Wayne, IN",200,200,209,209,3.775,11.329999999999998,22.0,83.0,"Wed, Dec 25, 2002","Thu, Dec 26, 2002"
3467,Spokane International,Spokane,United States,GEG,KGEG,47.619861,-117.533833,2376,-8,A,"Spokane, WA",985,988,995,995,4.071065989847725,11.343117408906883,14.0,58.0,"Sun, Dec 22, 2002","Sun, Dec 29, 2002"
3442,Grand Forks International,Grand Forks,United States,GFK,KGFK,47.949256,-97.176111,845,-6,A,"Grand Forks, ND",86,85,87,86,4.639534883720932,10.529411764705879,16.0,43.0,"Tue, Dec  3, 2002","Fri, Dec 20, 2002"
3465,East Texas Regional,Longview,United States,GGG,KGGG,32.384014,-94.711486,365,-6,A,"Longview, TX",115,114,117,117,4.878260869565217,9.31578947368421,11.0,42.0,"Wed, Dec 11, 2002","Mon, Dec 23, 2002"
4038,Gulfport-Biloxi,Gulfport,United States,GPT,KGPT,30.407278,-89.070111,28,-6,A,"Gulfport/Biloxi, MS",101,102,101,102,4.287128712871289,10.274509803921564,13.0,58.0,"Sat, Dec  7, 2002","Wed, Dec  4, 2002"
3653,Austin Straubel International,Green Bay,United States,GRB,KGRB,44.485072,-88.129589,695,-6,A,"Green Bay, WI",365,359,377,375,3.5726027397260274,11.43454038997214,11.0,108.0,"Tue, Dec 31, 2002","Tue, Dec 17, 2002"
3685,Gerald R. Ford International,Grand Rapids,United States,GRR,KGRR,42.880833,-85.522806,794,-5,A,"Grand Rapids, MI",761,761,768,768,3.806833114323259,13.73587385019711,19.0,126.0,"Thu, Dec 26, 2002","Wed, Dec 18, 2002"
4008,Piedmont Triad,Greensboro,United States,GSO,KGSO,36.09775,-79.937306,925,-5,A,"Greensboro/High Point, NC",676,676,706,705,4.674556213017753,16.332840236686383,16.0,82.0,"Fri, Dec 27, 2002","Fri, Dec 20, 2002"
4034,Greenville-Spartanburg International,Greenville,United States,GSP,KGSP,34.895556,-82.218889,964,-5,A,"Greer, SC",382,380,402,403,3.9607329842931933,14.328947368421055,25.0,243.0,"Sun, Dec  1, 2002","Mon, Dec  2, 2002"
3880,Great Falls International,Great Falls,United States,GTF,KGTF,47.482,-111.370689,3677,-7,A,"Great Falls, MT",156,157,158,157,4.544871794871795,9.859872611464969,9.0,37.0,"Wed, Dec 25, 2002","Sun, Dec 29, 2002"
7051,Gunnison - Crested Butte,Gunnison,United States,GUC,KGUC,38.533889,-106.933056,7678,-7,A,"Gunnison, CO",23,23,24,24,5.304347826086956,13.304347826086957,35.0,33.0,"Sat, Dec 21, 2002","Sat, Dec 21, 2002"
4339,Yampa Valley,Hayden,United States,HDN,KHDN,40.481181,-107.21766,6602,-7,A,"Hayden, CO",101,101,103,102,4.544554455445543,19.000000000000004,17.0,63.0,"Sat, Dec 28, 2002","Tue, Dec 31, 2002"
3504,Helena Regional,Helena,United States,HLN,KHLN,46.606806,-111.98275,3877,-7,A,"Helena, MT",87,86,92,91,2.839080459770116,10.13953488372093,15.0,39.0,"Mon, Dec 23, 2002","Tue, Dec  3, 2002"
3728,Honolulu International,Honolulu,United States,HNL,PHNL,21.318681,-157.922428,13,-10,N,"Honolulu, HI",951,951,951,951,5.169295478443747,16.733964248159825,19.0,53.0,"Sun, Dec 15, 2002","Tue, Dec 17, 2002"
3566,William P. Hobby,Houston,United States,HOU,KHOU,29.645419,-95.278889,46,-6,A,"Houston, TX",4379,4405,4543,4540,4.267184288650372,8.959364358683322,50.0,80.0,"Mon, Dec 30, 2002","Mon, Dec 30, 2002"
3589,Westchester County,White Plains,United States,HPN,KHPN,41.066959,-73.707575,439,-5,A,"White Plains, NY",334,337,376,378,6.82634730538922,16.341246290801188,76.0,142.0,"Thu, Dec  5, 2002","Tue, Dec 31, 2002"
3560,Valley International,Harlingen,United States,HRL,KHRL,26.2285,-97.654389,36,-6,A,"Harlingen/San Benito, TX",331,334,342,342,2.4743202416918417,6.589820359281436,10.0,26.0,"Sun, Dec 15, 2002","Thu, Dec  5, 2002"
4113,Huntsville International Airport-Carl T. Jones Field,Huntsville,United States,HSV,KHSV,34.6371944,-86.7750556,629,-6,A,"Huntsville, AL",283,280,290,287,4.703180212014138,12.514285714285718,10.0,100.0,"Mon, Dec 16, 2002","Mon, Dec  9, 2002"
3714,Washington Dulles International,Washington,United States,IAD,KIAD,38.944533,-77.455811,313,-5,A,"Washington, DC",3522,3518,3609,3608,6.553946621237935,17.93320068220574,71.0,221.0,"Sat, Dec 28, 2002","Wed, Dec 25, 2002"
3550,George Bush Intercontinental Houston,Houston,United States,IAH,KIAH,29.984433,-95.341442,97,-6,A,"Houston, TX",9689,9725,9792,9781,6.929920528434307,19.448226221079725,56.0,148.0,"Mon, Dec 30, 2002","Mon, Dec 30, 2002"
3457,Wichita Mid Continent,Wichita,United States,ICT,KICT,37.649944,-97.433056,1333,-6,A,"Wichita, KS",419,420,426,424,4.584725536992845,12.79761904761905,12.0,49.0,"Thu, Dec 26, 2002","Thu, Dec 26, 2002"
3845,Wilmington International,Wilmington,United States,ILM,KILM,34.270615,-77.902569,32,-5,A,"Wilmington, NC",121,121,124,124,4.396694214876033,11.223140495867769,10.0,50.0,"Sat, Dec  7, 2002","Sun, Dec  8, 2002"
3585,Indianapolis International,Indianapolis,United States,IND,KIND,39.717331,-86.294383,797,-5,A,"Indianapolis, IN",2602,2604,2634,2634,8.38893159108379,14.838709677419354,82.0,128.0,"Wed, Dec 25, 2002","Sun, Dec  8, 2002"
3857,Long Island MacArthur,Islip,United States,ISP,KISP,40.79525,-73.100222,99,-5,A,"Islip, NY",883,887,916,915,3.9784824462061144,9.417136414881632,47.0,45.0,"Thu, Dec  5, 2002","Thu, Dec  5, 2002"
4027,Jackson Hole Airport,Jacksn Hole,United States,JAC,KJAC,43.60733333,-110.73775,6451,-7,A,"Jackson, WY",145,144,154,151,4.172413793103449,23.826388888888882,24.0,135.0,"Sun, Dec 22, 2002","Sat, Dec 21, 2002"
3580,Jackson Evers International,Jackson,United States,JAN,KJAN,32.311167,-90.075889,346,-6,A,"Jackson/Vicksburg, MS",637,639,650,649,4.200941915227631,9.821596244131445,65.0,85.0,"Mon, Dec 23, 2002","Mon, Dec  9, 2002"
3712,Jacksonville International,Jacksonville,United States,JAX,KJAX,30.494056,-81.687861,30,-5,A,"Jacksonville, FL",1866,1869,1885,1883,4.942658092175782,11.804708400214022,37.0,103.0,"Tue, Dec 31, 2002","Fri, Dec 13, 2002"
3797,John F. Kennedy International,New York,United States,JFK,KJFK,40.639751,-73.778925,13,-5,A,"New York, NY",4062,4088,4247,4242,10.425406203840465,25.505136986301373,322.0,448.0,"Wed, Dec 25, 2002","Wed, Dec 25, 2002"
3492,Juneau International,Juneau,United States,JNU,PAJN,58.354972,-134.576278,21,-9,A,"Juneau, AK",254,260,304,304,4.271653543307091,12.75,12.0,41.0,"Mon, Dec 30, 2002","Sat, Dec  7, 2002"
3514,Kona International At Keahole,Kona,United States,KOA,PHKO,19.738767,-156.045631,47,-10,N,"Kona, HI",158,158,158,158,3.5,11.892405063291136,17.0,34.0,"Fri, Dec 13, 2002","Sat, Dec 14, 2002"
3808,Ketchikan International,Ketchikan,United States,KTN,PAKT,55.355556,-131.71375,88,-9,A,"Ketchikan, AK",177,178,184,185,4.8926553672316375,11.747191011235955,11.0,28.0,"Sun, Dec  1, 2002","Fri, Dec 27, 2002"
3544,Capital City,Lansing,United States,LAN,KLAN,42.7787,-84.587357,861,-5,A,"Lansing, MI",227,228,232,232,4.176211453744493,9.964912280701762,13.0,76.0,"Sat, Dec 28, 2002","Wed, Dec 25, 2002"
3877,McCarran International,Las Vegas,United States,LAS,KLAS,36.080056,-115.15225,2141,-8,A,"Las Vegas, NV",10695,10682,10775,10768,4.821879382889199,12.99971915371655,92.0,107.0,"Sat, Dec 14, 2002","Tue, Dec 17, 2002"
4256,Lawton-Fort Sill Regional Airport,Lawton,United States,LAW,KLAW,34.5677144,-98.4166367,1110,-6,A,"Lawton/Fort Sill, OK",179,178,180,180,3.910614525139665,12.185393258426966,13.0,60.0,"Sun, Dec 29, 2002","Mon, Dec 23, 2002"
3484,Los Angeles International,Los Angeles,United States,LAX,KLAX,33.942536,-118.408075,126,-8,A,"Los Angeles, CA",14916,14943,15086,15088,7.327567712523467,14.290102389078479,93.0,188.0,"Sun, Dec  1, 2002","Mon, Dec  2, 2002"
3829,Lubbock Preston Smith International,Lubbock,United States,LBB,KLBB,33.663639,-101.822778,3282,-6,A,"Lubbock, TX",653,655,658,658,3.0980091883614116,8.32366412213741,29.0,32.0,"Sat, Dec 21, 2002","Tue, Dec  3, 2002"
4017,Blue Grass,Lexington KY,United States,LEX,KLEX,38.0365,-84.605889,979,-5,A,"Lexington, KY",117,114,118,117,5.367521367521367,15.175438596491237,23.0,122.0,"Thu, Dec 26, 2002","Thu, Dec  5, 2002"
3493,Lafayette Regional,Lafayette,United States,LFT,KLFT,30.205278,-91.987611,43,-6,A,"Lafayette, LA",10,10,10,10,4.2,9.5,5.0,13.0,"Wed, Dec  4, 2002","Mon, Dec  2, 2002"
3697,LaGuardia Airport,New York,United States,LGA,KLGA,40.777245,-73.872608,22,-5,A,"New York, NY",7425,7460,7817,7808,8.269225589225586,22.60495978552277,99.0,163.0,"Thu, Dec  5, 2002","Sun, Dec  8, 2002"
3582,Long Beach,Long Beach,United States,LGB,KLGB,33.817722,-118.151611,60,-8,A,"Long Beach, CA",261,261,266,265,5.333333333333335,13.873563218390805,25.0,47.0,"Thu, Dec 26, 2002","Mon, Dec 16, 2002"
3602,Lihue,Lihue,United States,LIH,PHLI,21.975983,-159.338958,153,-10,N,"Lihue, HI",102,102,102,102,5.176470588235292,8.254901960784307,8.0,24.0,"Sun, Dec  8, 2002","Mon, Dec 30, 2002"
3660,Adams Field,Little Rock,United States,LIT,KLIT,34.729444,-92.224306,262,-6,A,"Little Rock, AR",1109,1109,1128,1131,4.3480613165013535,9.74301172227231,16.0,74.0,"Fri, Dec  6, 2002","Mon, Dec 30, 2002"
3691,Laredo International,Laredo,United States,LRD,KLRD,27.54375,-99.461556,508,-6,A,"Laredo, TX",131,130,131,131,4.725190839694654,9.869230769230775,13.0,28.0,"Thu, Dec 26, 2002","Mon, Dec 23, 2002"
4044,LaCrosse Municipal,LaCrosse,United States,LSE,KLSE,43.878986,-91.256711,654,-6,A,"La Crosse, WI",176,174,184,183,3.2386363636363638,10.402298850574716,9.0,51.0,"Fri, Dec 20, 2002","Wed, Dec 18, 2002"
3652,Midland International,Midland,United States,MAF,KMAF,31.942528,-102.201914,2871,-6,A,"Midland/Odessa, TX",565,567,575,577,2.9628318584070796,7.7178130511463845,10.0,32.0,"Mon, Dec 23, 2002","Fri, Dec 27, 2002"
4128,MBS International,Saginaw,United States,MBS,KMBS,43.532913,-84.079647,668,-5,A,"Saginaw/Bay City/Midland, MI",114,116,117,118,4.114035087719296,10.500000000000004,20.0,37.0,"Mon, Dec 16, 2002","Mon, Dec 30, 2002"
3458,Kansas City International,Kansas City,United States,MCI,KMCI,39.297606,-94.713905,1026,-6,A,"Kansas City, MO",4691,4698,4754,4759,4.386911106373922,11.135376756066412,36.0,256.0,"Fri, Dec 27, 2002","Wed, Dec 18, 2002"
3878,Orlando International,Orlando,United States,MCO,KMCO,28.429394,-81.308994,96,-5,A,"Orlando, FL",6630,6643,6711,6720,4.790045248868772,12.748908625620963,37.0,172.0,"Fri, Dec 13, 2002","Mon, Dec  2, 2002"
3542,Harrisburg International,Harrisburg,United States,MDT,KMDT,40.193494,-76.763403,310,-5,A,"Harrisburg, PA",458,457,470,470,4.1288209606987,12.901531728665208,17.0,71.0,"Fri, Dec  6, 2002","Wed, Dec 25, 2002"
3747,Chicago Midway International,Chicago,United States,MDW,KMDW,41.785972,-87.752417,620,-6,A,"Chicago, IL",4434,4455,4512,4512,5.594271538114577,11.84399551066217,87.0,166.0,"Mon, Dec  2, 2002","Mon, Dec 30, 2002"
3473,Memphis International,Memphis,United States,MEM,KMEM,35.042417,-89.976667,341,-6,A,"Memphis, TN",4149,4159,4208,4214,5.32176428054953,15.036787689348401,23.0,170.0,"Sat, Dec  7, 2002","Fri, Dec 13, 2002"
3826,McAllen Miller International,Mcallen,United States,MFE,KMFE,26.175833,-98.238611,107,-6,A,"Mission/McAllen/Edinburg, TX",263,263,264,264,3.653992395437262,10.239543726235745,9.0,41.0,"Thu, Dec 12, 2002","Tue, Dec  3, 2002"
4101,Rogue Valley International Medford,Medford,United States,MFR,KMFR,42.374228,-122.8735,1335,-8,A,"Medford, OR",82,86,90,90,2.6707317073170724,10.569767441860465,15.0,46.0,"Mon, Dec  2, 2002","Sat, Dec 14, 2002"
4011,Manchester Regional Airport,Manchester NH,United States,MHT,KMHT,42.932556,-71.435667,266,-5,A,"Manchester, NH",1209,1231,1300,1301,5.434243176178659,14.218521527213648,64.0,220.0,"Sat, Dec 21, 2002","Fri, Dec 20, 2002"
3576,Miami International,Miami,United States,MIA,KMIA,25.79325,-80.290556,8,-5,A,"Miami, FL",4907,4903,4941,4939,8.162217240676574,19.959616561289003,73.0,161.0,"Mon, Dec 23, 2002","Wed, Dec 11, 2002"
3717,General Mitchell International,Milwaukee,United States,MKE,KMKE,42.947222,-87.896583,723,-6,A,"Milwaukee, WI",1227,1224,1251,1251,5.186634066829663,13.916666666666666,33.0,78.0,"Sun, Dec  1, 2002","Mon, Dec  2, 2002"
3671,Melbourne International,Melbourne,United States,MLB,KMLB,28.102753,-80.645258,33,-5,A,"Melbourne, FL",92,93,93,93,4.293478260869568,11.913978494623656,8.0,23.0,"Sun, Dec 15, 2002","Tue, Dec 10, 2002"
3782,Mobile Regional,Mobile,United States,MOB,KMOB,30.691231,-88.242814,219,-6,A,"Mobile, AL",167,165,169,167,4.40718562874252,11.442424242424245,12.0,68.0,"Fri, Dec  6, 2002","Wed, Dec  4, 2002"
3498,Minot International,Minot,United States,MOT,KMOT,48.259378,-101.280333,1716,-6,A,"Minot, ND",91,92,93,93,5.164835164835167,11.01086956521739,10.0,33.0,"Thu, Dec 19, 2002","Tue, Dec 17, 2002"
6838,Sawyer International Airport,Marquette,United States,MQT,KMQT,46.353611,-87.395278,1221,-5,A,"Marquette, MI",25,25,26,26,5.4,14.96,9.0,50.0,"Mon, Dec  2, 2002","Sun, Dec 15, 2002"
3948,Monterey Peninsula,Monterey,United States,MRY,KMRY,36.587,-121.842944,257,-8,A,"Monterey, CA",165,161,168,168,4.145454545454544,10.155279503105593,8.0,55.0,"Thu, Dec 12, 2002","Fri, Dec 20, 2002"
3459,Dane County Regional-Truax Field,Madison,United States,MSN,KMSN,43.139858,-89.337514,887,-6,A,"Madison, WI",465,466,479,479,3.879569892473118,12.821888412017167,15.0,84.0,"Sun, Dec 29, 2002","Mon, Dec  2, 2002"
4216,Missoula International,Missoula,United States,MSO,KMSO,46.916306,-114.090556,3205,-7,A,"Missoula, MT",162,164,166,165,4.444444444444445,14.262195121951219,12.0,92.0,"Sun, Dec 22, 2002","Sat, Dec 21, 2002"
3858,Minneapolis St. Paul International,Minneapolis,United States,MSP,KMSP,44.881956,-93.221767,841,-6,A,"Minneapolis, MN",11696,11747,11847,11859,6.215543775649774,18.46931131352691,68.0,165.0,"Fri, Dec 20, 2002","Wed, Dec 18, 2002"
3861,Louis Armstrong New Orleans International,New Orleans,United States,MSY,KMSY,29.993389,-90.258028,4,-6,A,"New Orleans, LA",4022,4029,4062,4067,4.052461461959211,9.743608835939453,28.0,87.0,"Tue, Dec 10, 2002","Tue, Dec 10, 2002"
6880,Montrose Regional Airport,Montrose CO,United States,MTJ,KMTJ,38.509794,-107.894242,5759,-7,A,"Montrose/Delta, CO",40,40,40,40,4.15,13.025,9.0,27.0,"Sat, Dec 21, 2002","Sat, Dec 21, 2002"
3515,Myrtle Beach International,Myrtle Beach,United States,MYR,KMYR,33.67975,-78.928333,25,-5,A,"Myrtle Beach, SC",147,147,150,150,3.693877551020408,10.85714285714286,7.0,47.0,"Tue, Dec 31, 2002","Fri, Dec 13, 2002"
3453,Metropolitan Oakland International,Oakland,United States,OAK,KOAK,37.721278,-122.220722,9,-8,A,"Oakland, CA",5194,5185,5228,5227,4.843665768194086,11.439151398264196,64.0,80.0,"Sat, Dec 14, 2002","Fri, Dec 20, 2002"
3456,Kahului,Kahului,United States,OGG,PHOG,20.89865,-156.430458,54,-10,N,"Kahului, HI",332,333,333,333,4.722891566265061,11.771771771771759,36.0,31.0,"Sat, Dec 28, 2002","Fri, Dec 20, 2002"
3863,Will Rogers World,Oklahoma City,United States,OKC,KOKC,35.393089,-97.600733,1295,-6,A,"Oklahoma City, OK",1643,1645,1668,1667,4.07668898356665,10.445592705167165,50.0,181.0,"Mon, Dec 23, 2002","Mon, Dec  2, 2002"
3454,Eppley Airfield,Omaha,United States,OMA,KOMA,41.303167,-95.894069,984,-6,A,"Omaha, NE",1480,1479,1488,1489,3.468918918918918,10.757944557133204,39.0,110.0,"Wed, Dec  4, 2002","Mon, Dec  2, 2002"
3615,Nome,Nome,United States,OME,PAOM,64.512203,-165.445247,37,-9,A,"Nome, AK",86,87,88,88,3.3372093023255816,7.183908045977011,11.0,36.0,"Tue, Dec  3, 2002","Thu, Dec 12, 2002"
3734,Ontario International,Ontario,United States,ONT,KONT,34.056,-117.601194,944,-8,A,"Ontario, CA",2698,2699,2716,2715,4.129725722757608,8.911078177102633,18.0,53.0,"Sat, Dec 14, 2002","Wed, Dec 18, 2002"
3830,Chicago O'Hare International,Chicago,United States,ORD,KORD,41.978603,-87.904842,668,-6,A,"Chicago, IL",26371,26469,26990,26986,7.7640969246521285,17.9505837016888,78.0,245.0,"Mon, Dec  2, 2002","Wed, Dec 18, 2002"
3611,Norfolk International,Norfolk,United States,ORF,KORF,36.894611,-76.201222,26,-5,A,"Norfolk, VA",1345,1350,1367,1366,4.029739776951674,11.923703703703712,65.0,88.0,"Wed, Dec 25, 2002","Thu, Dec  5, 2002"
3693,Ralph Wien Memorial,Kotzebue,United States,OTZ,PAOT,66.884678,-162.59855,11,-9,A,"Kotzebue, AK",85,85,88,88,4.082352941176469,5.423529411764705,8.0,15.0,"Fri, Dec  6, 2002","Wed, Dec  4, 2002"
3722,Palm Beach International,West Palm Beach,United States,PBI,KPBI,26.683161,-80.095589,19,-5,A,"West Palm Beach/Palm Beach, FL",1932,1938,1963,1962,4.74120082815734,13.439112487100104,41.0,62.0,"Sat, Dec 21, 2002","Mon, Dec 30, 2002"
3720,Portland International,Portland,United States,PDX,KPDX,45.588722,-122.5975,30,-8,A,"Portland, OR",4035,4034,4069,4065,4.239900867410161,10.435299950421411,47.0,126.0,"Mon, Dec  2, 2002","Tue, Dec 24, 2002"
3752,Philadelphia International,Philadelphia,United States,PHL,KPHL,39.871944,-75.241139,36,-5,A,"Philadelphia, PA",8380,8342,8650,8605,7.710978520286387,21.8345720450731,123.0,276.0,"Thu, Dec  5, 2002","Thu, Dec  5, 2002"
3462,Phoenix Sky Harbor International,Phoenix,United States,PHX,KPHX,33.434278,-112.011583,1135,-7,N,"Phoenix, AZ",14246,14285,14435,14425,6.160676681173661,15.541267063353159,1440.0,249.0,"Sun, Dec 22, 2002","Mon, Dec  2, 2002"
4046,Peoria Regional,Peoria,United States,PIA,KPIA,40.664203,-89.693258,660,-6,A,"Peoria, IL",113,113,117,117,2.7168141592920345,11.592920353982304,8.0,38.0,"Tue, Dec 10, 2002","Tue, Dec  3, 2002"
3570,Pittsburgh International,Pittsburgh (pennsylva),United States,PIT,KPIT,40.491467,-80.232872,1204,-5,A,"Pittsburgh, PA",5425,5478,5529,5559,6.914838709677417,17.527564804673144,40.0,139.0,"Mon, Dec  2, 2002","Wed, Dec 11, 2002"
3564,Pensacola Regional,Pensacola,United States,PNS,KPNS,30.473425,-87.186611,121,-6,A,"Pensacola, FL",314,312,315,313,4.3789808917197455,12.02884615384615,14.0,60.0,"Wed, Dec 11, 2002","Wed, Dec  4, 2002"
6133,Tri Cities Airport,Pasco,United States,PSC,PSC,46.2647,-119.119,410,-8,A,"Pasco/Kennewick/Richland, WA",56,57,57,57,4.732142857142856,11.070175438596493,9.0,27.0,"Fri, Dec 27, 2002","Sun, Dec 29, 2002"
4147,Petersburg James A. Johnson,Petersburg,United States,PSG,PAPG,56.801667,-132.945278,105,-9,A,"Petersburg, AK",45,52,60,60,2.755555555555556,5.980769230769231,4.0,29.0,"Fri, Dec  6, 2002","Mon, Dec 23, 2002"
3839,Palm Springs International,Palm Springs,United States,PSP,KPSP,33.829667,-116.506694,477,-8,A,"Palm Springs, CA",601,606,606,609,4.816971713810314,9.833333333333323,17.0,38.0,"Sat, Dec  7, 2002","Thu, Dec 26, 2002"
3641,Theodore Francis Green State,Providence,United States,PVD,KPVD,41.732581,-71.420383,55,-5,A,"Providence, RI",2186,2187,2234,2235,4.5530649588289185,12.73296753543666,43.0,134.0,"Wed, Dec 25, 2002","Fri, Dec  6, 2002"
3862,Portland International Jetport,Portland,United States,PWM,KPWM,43.646161,-70.309281,77,-5,A,"Portland, ME",472,477,505,505,4.336864406779663,11.691823899371073,18.0,70.0,"Wed, Dec 25, 2002","Thu, Dec 19, 2002"
4087,Rapid City Regional Airport,Rapid City,United States,RAP,KRAP,44.045278,-103.057222,3204,-7,A,"Rapid City, SD",73,73,73,73,4.698630136986301,10.493150684931507,16.0,33.0,"Mon, Dec  9, 2002","Tue, Dec  3, 2002"
3626,Raleigh Durham International,Raleigh-durham,United States,RDU,KRDU,35.877639,-78.787472,435,-5,A,"Raleigh/Durham, NC",3489,3485,3645,3646,4.879335053023781,13.113342898134858,49.0,158.0,"Wed, Dec 25, 2002","Wed, Dec  4, 2002"
3608,Richmond International,Richmond,United States,RIC,KRIC,37.505167,-77.319667,167,-5,A,"Richmond, VA",993,990,1013,1012,5.175226586102726,13.918181818181818,23.0,123.0,"Mon, Dec  2, 2002","Thu, Dec  5, 2002"
3807,Reno Tahoe International,Reno,United States,RNO,KRNO,39.499108,-119.768108,4415,-8,A,"Reno, NV",1944,1945,1966,1964,4.1733539094650185,10.09305912596401,23.0,80.0,"Sun, Dec 22, 2002","Fri, Dec 20, 2002"
3622,Greater Rochester International,Rochester,United States,ROC,KROC,43.118866,-77.672389,559,-5,A,"Rochester, NY",675,675,691,691,6.454814814814817,16.768888888888885,15.0,100.0,"Fri, Dec  6, 2002","Mon, Dec  2, 2002"
4048,Rochester,Rochester,United States,RST,KRST,43.908283,-92.500014,1317,-6,A,"Rochester, MN",184,182,187,186,3.6793478260869565,10.615384615384615,7.0,58.0,"Fri, Dec  6, 2002","Mon, Dec 30, 2002"
3793,Southwest Florida International,Fort Myers,United States,RSW,KRSW,26.536167,-81.755167,30,-5,A,"Fort Myers, FL",1196,1191,1201,1197,4.147157190635452,14.263643996641484,29.0,101.0,"Wed, Dec 25, 2002","Tue, Dec 17, 2002"
3731,San Diego International,San Diego,United States,SAN,KSAN,32.733556,-117.189667,17,-8,A,"San Diego, CA",6082,6078,6133,6131,3.5110161131206827,12.585389930898305,33.0,74.0,"Thu, Dec 26, 2002","Mon, Dec 16, 2002"
3621,San Antonio International,San Antonio,United States,SAT,KSAT,29.533694,-98.469778,809,-6,A,"San Antonio, TX",3067,3070,3121,3120,3.5839582654059345,9.955374592833884,33.0,62.0,"Sun, Dec 29, 2002","Wed, Dec 11, 2002"
3613,Savannah Hilton Head International,Savannah,United States,SAV,KSAV,32.127583,-81.202139,51,-5,A,"Savannah, GA",320,320,329,328,5.599999999999997,13.121875,22.0,85.0,"Fri, Dec 13, 2002","Wed, Dec  4, 2002"
3949,Santa Barbara Municipal,Santa Barbara,United States,SBA,KSBA,34.426211,-119.840372,10,-8,A,"Santa Barbara, CA",283,282,286,289,4.540636042402825,9.166666666666671,15.0,40.0,"Sat, Dec 21, 2002","Sun, Dec  8, 2002"
4359,South Bend Regional,South Bend,United States,SBN,KSBN,41.708661,-86.31725,799,-5,A,"South Bend, IN",3,3,4,4,3.3333333333333335,8.333333333333334,5.0,12.0,"Sat, Dec  7, 2002","Sat, Dec  7, 2002"
5768,San Luis County Regional Airport,San Luis Obispo,United States,SBP,KSBP,35.2368,-120.642,212,-8,A,"San Luis Obispo, CA",178,183,181,183,4.589887640449437,12.475409836065577,12.0,50.0,"Wed, Dec 18, 2002","Sat, Dec  7, 2002"
3620,Deadhorse,Deadhorse,United States,SCC,PASC,70.19475,-148.465167,64,-9,A,"Deadhorse, AK",28,28,30,30,3.2857142857142856,5.5,5.0,16.0,"Fri, Dec 27, 2002","Thu, Dec 12, 2002"
4014,Louisville International Airport,Louisville,United States,SDF,KSDF,38.1740858,-85.7364989,501,-5,A,"Louisville, KY",1288,1282,1305,1301,4.978260869565212,11.856474258970355,56.0,96.0,"Sat, Dec 21, 2002","Thu, Dec  5, 2002"
3577,Seattle Tacoma International,Seattle,United States,SEA,KSEA,47.449,-122.309306,433,-8,A,"Seattle, WA",7848,7890,7957,7959,5.87487257900102,14.018757921419523,42.0,105.0,"Mon, Dec 23, 2002","Wed, Dec 18, 2002"
3469,San Francisco International,San Francisco,United States,SFO,KSFO,37.618972,-122.374889,13,-8,A,"San Francisco, CA",7864,7915,7961,7991,5.965920651068142,17.30423246999372,49.0,194.0,"Mon, Dec 23, 2002","Mon, Dec  2, 2002"
4348,Springfield Branson National,Springfield,United States,SGF,KSGF,37.245667,-93.388639,1268,-6,A,"Springfield, MO",236,236,240,242,5.796610169491525,14.398305084745763,22.0,73.0,"Sun, Dec 29, 2002","Thu, Dec 26, 2002"
3609,Shreveport Regional,Shreveport,United States,SHV,KSHV,32.446629,-93.8256,258,-6,A,"Shreveport, LA",373,368,380,380,5.324396782841819,10.592391304347823,16.0,50.0,"Fri, Dec 27, 2002","Mon, Dec  2, 2002"
3856,Sitka Rocky Gutierrez,Sitka,United States,SIT,PASI,57.047138,-135.361611,21,-9,A,"Sitka, AK",85,92,93,92,4.741176470588234,10.858695652173912,8.0,37.0,"Tue, Dec 17, 2002","Tue, Dec 24, 2002"
3748,Norman Y. Mineta San Jose International,San Jose,United States,SJC,KSJC,37.3626,-121.929022,62,-8,A,"San Jose, CA",4868,4877,4913,4916,4.5406737880033,12.022964937461575,66.0,139.0,"Sun, Dec 29, 2002","Mon, Dec  2, 2002"
3708,San Angelo Regional-Mathis Field,San Angelo,United States,SJT,KSJT,31.35775,-100.496306,1919,-6,A,"San Angelo, TX",179,179,179,179,3.9776536312849142,11.32402234636872,11.0,34.0,"Sun, Dec 22, 2002","Wed, Dec 25, 2002"
3536,Salt Lake City International,Salt Lake City,United States,SLC,KSLC,40.788389,-111.977772,4227,-7,A,"Salt Lake City, UT",5736,5739,5786,5792,5.571827057182711,16.81355636870531,48.0,68.0,"Tue, Dec 17, 2002","Fri, Dec 20, 2002"
3817,Sacramento International,Sacramento,United States,SMF,KSMF,38.695417,-121.590778,27,-8,A,"Sacramento, CA",3218,3215,3230,3230,4.117153511497813,9.98289269051324,25.0,109.0,"Tue, Dec 24, 2002","Mon, Dec  2, 2002"
3867,John Wayne Airport Orange County,Santa Ana,United States,SNA,KSNA,33.675667,-117.868222,56,-8,A,"Santa Ana, CA",3580,3579,3628,3622,6.7860335195530705,13.834031852472766,59.0,168.0,"Fri, Dec 20, 2002","Wed, Dec 18, 2002"
3680,Sheppard AFB Wichita Falls Municipal,Wichita Falls,United States,SPS,KSPS,33.988797,-98.491894,1019,-6,A,"Wichita Falls, TX",178,176,179,179,6.325842696629214,11.193181818181817,16.0,44.0,"Mon, Dec 16, 2002","Sun, Dec  1, 2002"
4067,Sarasota Bradenton International,Sarasota,United States,SRQ,KSRQ,27.395444,-82.554389,30,-5,A,"Sarasota/Bradenton, FL",271,271,276,274,4.627306273062732,12.623616236162363,15.0,79.0,"Fri, Dec 13, 2002","Sun, Dec  1, 2002"
3678,Lambert St. Louis International,St. Louis,United States,STL,KSTL,38.748697,-90.370028,618,-6,A,"St. Louis, MO",9427,9457,9648,9656,6.3400869841943495,19.188220365866545,67.0,330.0,"Tue, Dec 24, 2002","Tue, Dec 24, 2002"
3661,Stewart International,Newburgh,United States,SWF,KSWF,41.504094,-74.104839,491,-5,A,"Newburgh/Poughkeepsie, NY",141,141,144,144,4.666666666666666,15.609929078014185,10.0,100.0,"Fri, Dec 20, 2002","Mon, Dec 30, 2002"
3745,Syracuse Hancock International,Syracuse,United States,SYR,KSYR,43.111187,-76.106311,421,-5,A,"Syracuse, NY",700,699,714,713,4.984285714285716,19.032904148783956,30.0,192.0,"Tue, Dec 24, 2002","Mon, Dec  2, 2002"
3698,Tallahassee Regional,Tallahassee,United States,TLH,KTLH,30.396528,-84.350333,81,-5,A,"Tallahassee, FL",140,141,142,142,4.400000000000001,12.29078014184397,17.0,29.0,"Mon, Dec  9, 2002","Tue, Dec 10, 2002"
4040,Toledo,Toledo,United States,TOL,KTOL,41.586806,-83.807833,684,-5,A,"Toledo, OH",147,147,148,148,2.857142857142858,14.197278911564625,8.0,60.0,"Wed, Dec 25, 2002","Fri, Dec 20, 2002"
3646,Tampa International,Tampa,United States,TPA,KTPA,27.975472,-82.53325,26,-5,A,"Tampa, FL",5090,5089,5136,5133,4.362278978389003,11.651011986637851,51.0,149.0,"Tue, Dec 31, 2002","Wed, Dec 25, 2002"
3855,Tulsa International,Tulsa,United States,TUL,KTUL,36.198389,-95.888111,677,-6,A,"Tulsa, OK",1592,1595,1628,1628,3.8486180904522613,12.097178683385584,80.0,151.0,"Mon, Dec 23, 2002","Tue, Dec 24, 2002"
3636,Tucson International,Tucson,United States,TUS,KTUS,32.116083,-110.941028,2643,-7,N,"Tucson, AZ",1292,1294,1295,1298,3.931888544891641,10.360123647604333,22.0,62.0,"Tue, Dec  3, 2002","Tue, Dec  3, 2002"
4023,Cherry Capital Airport,Traverse City,United States,TVC,KTVC,44.741445,-85.582235,624,-5,A,"Traverse City, MI",64,65,65,66,2.25,13.923076923076925,7.0,116.0,"Mon, Dec  2, 2002","Mon, Dec  2, 2002"
3770,Texarkana Regional-Webb Field,Texarkana,United States,TXK,KTXK,33.453722,-93.991028,390,-6,A,"Texarkana, AR",89,87,91,91,4.842696629213482,10.459770114942527,30.0,18.0,"Thu, Dec 12, 2002","Thu, Dec 12, 2002"
3848,Tyler Pounds Regional,Tyler,United States,TYR,KTYR,32.354139,-95.402386,544,-6,A,"Tyler, TX",230,230,235,237,5.1521739130434785,9.791304347826092,11.0,22.0,"Sun, Dec  8, 2002","Wed, Dec  4, 2002"
3676,McGhee Tyson,Knoxville,United States,TYS,KTYS,35.810972,-83.994028,981,-5,A,"Knoxville, TN",288,285,295,294,4.003472222222221,13.757894736842106,16.0,58.0,"Thu, Dec 12, 2002","Sat, Dec 14, 2002"
3873,Eglin AFB,Valparaiso,United States,VPS,KVPS,30.48325,-86.5254,87,-6,A,"Valparaiso, FL",188,187,189,188,9.271276595744684,12.983957219251339,16.0,117.0,"Sun, Dec  1, 2002","Fri, Dec 13, 2002"
5969,Wrangell Airport,Wrangell,United States,WRG,PAWG,56.4843,-132.37,44,-9,A,"Wrangell, AK",49,53,60,60,2.979591836734694,5.584905660377357,5.0,31.0,"Sun, Dec 29, 2002","Thu, Dec 26, 2002"
4356,NW Arkansas Regional,Bentonville,United States,XNA,KXNA,36.2818694,-94.3068111,1287,-6,A,"Fayetteville, AR",346,347,363,364,4.575144508670525,12.158501440922187,30.0,111.0,"Fri, Dec  6, 2002","Tue, Dec 17, 2002"
6803,Yakutat,Yakutat,United States,YAK,PAYA,59.3012,-139.3937,33,-9,A,"Yakutat, AK",53,56,60,60,3.5660377358490565,5.7678571428571415,6.0,15.0,"Thu, Dec 19, 2002","Fri, Dec 13, 2002"
