airport_id,name,city,country,iata_faa,iaco,latitude,longitude,altitude,zone,dst,city_state,avg_able_landings,avg_able_takeoffs,total_landings,total_takeoffs,avg_taxi_in,avg_taxi_out,longest_taxi_in,longest_taxi_out,lng_tx_in_date,lng_tx_out_date
4355,Lehigh Valley International,Allentown,United States,ABE,KABE,40.652083,-75.440806,393,-5,A,"Allentown/Bethlehem/Easton, PA",384,386,402,404,4.75260416666667,13.655440414507773,15.0,55.0,"Fri, Mar 28, 2008","Sat, Mar 29, 2008"
3718,Abilene Regional,Abilene,United States,ABI,KABI,32.411319,-99.681897,1791,-6,A,"Abilene, TX",205,203,212,213,3.4878048780487805,10.068965517241368,17.0,150.0,"Wed, Mar  5, 2008","Thu, Mar  6, 2008"
4019,Albuquerque International Sunport,Albuquerque,United States,ABQ,KABQ,35.0402222,-106.6091944,5355,-7,A,"Albuquerque, NM",3442,3442,3479,3479,5.132771644392774,11.028471818710019,43.0,122.0,"Fri, Mar 14, 2008","Mon, Mar 17, 2008"
5715,Southwest Georgia Regional Airport,Albany,United States,ABY,KABY,31.5355,-84.1945,197,-5,A,"Albany, GA",109,109,110,110,3.8623853211009176,7.660550458715596,6.0,16.0,"Tue, Mar  4, 2008","Tue, Mar  4, 2008"
3700,Waco Regional,Waco,United States,ACT,KACT,31.611289,-97.230519,516,-6,A,"Waco, TX",160,159,177,176,4.231250000000001,9.301886792452835,19.0,27.0,"Mon, Mar  3, 2008","Mon, Mar 31, 2008"
4384,Arcata,Arcata CA,United States,ACV,KACV,40.978111,-124.108611,221,-8,A,"Arcata/Eureka, CA",291,290,294,294,4.378006872852236,10.337931034482764,10.0,39.0,"Thu, Mar  6, 2008","Thu, Mar 13, 2008"
3524,Atlantic City International,Atlantic City,United States,ACY,KACY,39.457583,-74.577167,75,-5,A,"Atlantic City, NJ",27,29,27,29,3.185185185185185,10.172413793103448,4.0,16.0,"Sun, Mar  2, 2008","Fri, Mar 14, 2008"
5959,Adak Airport,Adak Island,United States,ADK,PADK,51.878,-176.646,18,-10,A,"Adak Island, AK",7,7,9,9,5.571428571428571,7.428571428571429,8.0,14.0,"Thu, Mar 20, 2008","Thu, Mar  6, 2008"
3531,Kodiak,Kodiak,United States,ADQ,PADQ,57.749967,-152.493856,78,-9,A,"Kodiak, AK",62,62,62,62,3.2419354838709675,6.629032258064516,11.0,44.0,"Sun, Mar 23, 2008","Sat, Mar 22, 2008"
3852,Alexandria International,Alexandria,United States,AEX,KAEX,31.3274,-92.549833,89,-6,A,"Alexandria, LA",199,197,209,209,3.542713567839196,11.6751269035533,9.0,50.0,"Wed, Mar 12, 2008","Mon, Mar  3, 2008"
3658,Augusta Regional At Bush Field,Bush Field,United States,AGS,KAGS,33.369944,-81.9645,144,-5,A,"Augusta, GA",172,172,176,175,3.1860465116279078,10.662790697674415,8.0,58.0,"Tue, Mar 11, 2008","Sat, Mar 15, 2008"
3864,Albany International,Albany,United States,ALB,KALB,42.748267,-73.801692,285,-5,A,"Albany, NY",1159,1157,1179,1178,4.206212251941332,14.579083837510797,42.0,128.0,"Fri, Mar 28, 2008","Fri, Mar 28, 2008"
5718,Waterloo Regional Airport,Waterloo,United States,ALO,KALO,42.5571,-92.4003,873,-6,A,"Waterloo, IA",18,19,26,26,3.888888888888889,15.263157894736842,7.0,34.0,"Thu, Mar  6, 2008","Fri, Mar 21, 2008"
3840,Rick Husband Amarillo International,Amarillo,United States,AMA,KAMA,35.219369,-101.705931,3607,-6,A,"Amarillo, TX",604,609,628,630,4.549668874172184,9.40229885057472,28.0,64.0,"Sat, Mar 29, 2008","Thu, Mar  6, 2008"
3774,Ted Stevens Anchorage International,Anchorage,United States,ANC,PANC,61.174361,-149.996361,152,-9,A,"Anchorage, AK",1411,1416,1426,1427,4.5939050318922785,13.083333333333329,24.0,45.0,"Mon, Mar 31, 2008","Wed, Mar 12, 2008"
7001,Aspen/Pitkin County-Sardy Field,Aspen,United States,ASE,KASE,39.2232,-106.869,7820,-7,A,"Aspen, CO",696,696,748,759,3.9295977011494245,14.573275862068963,28.0,148.0,"Sat, Mar 29, 2008","Sun, Mar  2, 2008"
3682,Hartsfield Jackson Atlanta International,Atlanta,United States,ATL,KATL,33.636719,-84.428067,1026,-5,A,"Atlanta, GA",35169,35380,36089,36098,10.68520572094744,19.791577162238458,176.0,182.0,"Mon, Mar  3, 2008","Mon, Mar 31, 2008"
4047,Appleton,Appleton,United States,ATW,KATW,44.257526,-88.507576,680,-6,A,"Appleton, WI",486,485,517,515,4.417695473251032,14.313402061855674,26.0,89.0,"Mon, Mar 31, 2008","Mon, Mar 31, 2008"
3673,Austin Bergstrom International,Austin,United States,AUS,KAUS,30.194528,-97.669889,542,-6,A,"Austin, TX",4338,4350,4462,4459,5.39557399723374,12.565057471264375,71.0,147.0,"Tue, Mar 18, 2008","Tue, Mar 18, 2008"
4007,Asheville Regional Airport,Asheville,United States,AVL,KAVL,35.436194,-82.541806,2165,-5,A,"Asheville, NC",284,281,291,289,3.338028169014085,15.384341637010676,12.0,87.0,"Sun, Mar 23, 2008","Mon, Mar 31, 2008"
4286,Wilkes Barre Scranton International,Scranton,United States,AVP,KAVP,41.338478,-75.723403,962,-5,A,"Scranton/Wilkes-Barre, PA",194,195,206,205,3.7268041237113403,13.528205128205128,12.0,44.0,"Fri, Mar  7, 2008","Tue, Mar  4, 2008"
4039,Kalamazoo,Kalamazoo,United States,AZO,KAZO,42.234875,-85.552058,874,-5,A,"Kalamazoo, MI",317,320,360,361,4.063091482649842,15.106250000000003,15.0,69.0,"Thu, Mar 27, 2008","Tue, Mar  4, 2008"
3825,Bradley International,Windsor Locks,United States,BDL,KBDL,41.938889,-72.683222,173,-5,A,"Hartford, CT",2591,2582,2643,2644,5.6275569278271,14.82881487219211,66.0,89.0,"Sat, Mar  8, 2008","Thu, Mar 20, 2008"
3599,Bethel,Bethel,United States,BET,PABE,60.779778,-161.838,121,-9,A,"Bethel, AK",85,85,88,88,2.9529411764705884,6.694117647058824,9.0,23.0,"Fri, Mar 21, 2008","Wed, Mar 19, 2008"
3558,Meadows Field,Bakersfield,United States,BFL,KBFL,35.433598,-119.05677,507,-8,A,"Bakersfield, CA",422,421,424,424,4.549763033175358,10.926365795724466,19.0,30.0,"Mon, Mar 10, 2008","Sun, Mar 23, 2008"
4129,Greater Binghamton-Edwin A. Link Field,Binghamton,United States,BGM,KBGM,42.208689,-75.979839,1636,-5,A,"Binghamton, NY",59,58,62,62,5.40677966101695,20.017241379310345,12.0,47.0,"Sat, Mar  1, 2008","Tue, Mar 18, 2008"
3463,Bangor International,Bangor,United States,BGR,KBGR,44.807444,-68.828139,192,-5,A,"Bangor, ME",205,203,213,213,5.160975609756098,22.74384236453202,15.0,111.0,"Sun, Mar 30, 2008","Fri, Mar  7, 2008"
3811,Birmingham International,Birmingham,United States,BHM,KBHM,33.562942,-86.75355,644,-6,A,"Birmingham, AL",2032,2027,2067,2065,3.625984251968506,12.59250123334978,42.0,118.0,"Sat, Mar 15, 2008","Tue, Mar  4, 2008"
4021,Billings Logan International Airport,Billings,United States,BIL,KBIL,45.80921,-108.537654,3652,-7,A,"Billings, MT",338,337,340,338,3.964497041420119,11.931750741839766,61.0,32.0,"Mon, Mar 10, 2008","Mon, Mar  3, 2008"
4083,Bismarck Municipal Airport,Bismarck,United States,BIS,KBIS,46.775842,-100.757931,1661,-6,A,"Bismarck/Mandan, ND",205,203,209,209,4.0682926829268355,11.719211822660098,16.0,100.0,"Sat, Mar  1, 2008","Fri, Mar 21, 2008"
3777,Bellingham International,Bellingham,United States,BLI,KBLI,48.792694,-122.537528,170,-8,A,"Bellingham, WA",31,31,32,31,4.774193548387097,13.290322580645162,7.0,24.0,"Thu, Mar  6, 2008","Sat, Mar 22, 2008"
4037,Central Illinois Regional,Bloomington,United States,BMI,KBMI,40.477111,-88.915917,871,-6,A,"Bloomington/Normal, IL",402,404,424,424,3.7661691542288556,13.202970297029708,17.0,95.0,"Sat, Mar 29, 2008","Mon, Mar 17, 2008"
3690,Nashville International,Nashville,United States,BNA,KBNA,36.124472,-86.678194,599,-6,A,"Nashville, TN",4880,4883,4993,4990,5.937909836065572,12.699979520786403,33.0,99.0,"Tue, Mar 11, 2008","Thu, Mar 27, 2008"
3495,Boise Air Terminal,Boise,United States,BOI,KBOI,43.564361,-116.222861,2871,-7,A,"Boise, ID",1498,1502,1512,1512,3.887850467289721,10.547936085219678,45.0,51.0,"Wed, Mar 19, 2008","Sat, Mar 29, 2008"
3448,General Edward Lawrence Logan International,Boston,United States,BOS,KBOS,42.364347,-71.005181,19,-5,A,"Boston, MA",10110,10112,10401,10395,6.891394658753707,20.12331882911394,56.0,158.0,"Mon, Mar 10, 2008","Wed, Mar  5, 2008"
3612,Southeast Texas Regional,Beaumont,United States,BPT,KBPT,29.950833,-94.020694,15,-6,A,"Beaumont/Port Arthur, TX",29,29,31,31,6.137931034482759,10.068965517241383,10.0,24.0,"Tue, Mar  4, 2008","Fri, Mar 21, 2008"
5725,Brunswick Golden Isles Airport,Brunswick,United States,BQK,KBQK,31.2588,-81.4665,26,-5,A,"Brunswick, GA",88,88,88,88,3.25,11.306818181818185,5.0,149.0,"Sat, Mar  8, 2008","Sat, Mar 15, 2008"
3738,Brownsville South Padre Island International,Brownsville,United States,BRO,KBRO,25.906833,-97.425861,22,-6,A,"Brownsville, TX",124,124,127,127,5.249999999999998,11.32258064516129,10.0,38.0,"Sat, Mar 22, 2008","Sun, Mar  9, 2008"
3571,Wiley Post Will Rogers Memorial,Barrow,United States,BRW,PABR,71.285446,-156.766003,44,-9,A,"Barrow, AK",62,62,62,62,4.193548387096774,4.951612903225807,9.0,13.0,"Wed, Mar 19, 2008","Wed, Mar 12, 2008"
4022,Bert Mooney Airport,Butte,United States,BTM,KBTM,45.954806,-112.497472,5550,-7,A,"Butte, MT",54,55,57,57,4.277777777777778,12.50909090909091,12.0,23.0,"Wed, Mar 12, 2008","Sat, Mar 15, 2008"
3846,Baton Rouge Metro-Ryan Field,Baton Rouge,United States,BTR,KBTR,30.533167,-91.149639,70,-6,A,"Baton Rouge, LA",736,734,783,784,4.523097826086955,11.460490463215264,32.0,178.0,"Tue, Mar 11, 2008","Tue, Mar  4, 2008"
3711,Burlington International,Burlington,United States,BTV,KBTV,44.471861,-73.153278,335,-5,A,"Burlington, VT",547,546,564,565,4.63985374771481,21.32051282051283,36.0,109.0,"Mon, Mar 31, 2008","Wed, Mar 19, 2008"
3820,Buffalo Niagara International,Buffalo,United States,BUF,KBUF,42.940525,-78.732167,724,-5,A,"Buffalo, NY",2064,2068,2142,2142,4.897771317829453,15.117988394584154,85.0,145.0,"Sat, Mar  8, 2008","Sat, Mar 15, 2008"
3644,Bob Hope,Burbank,United States,BUR,KBUR,34.200667,-118.358667,778,-8,A,"Burbank, CA",2673,2672,2712,2711,2.8492330714552954,11.658308383233532,28.0,72.0,"Thu, Mar  6, 2008","Sun, Mar  2, 2008"
3849,Baltimore Washington International,Baltimore,United States,BWI,KBWI,39.175361,-76.668333,146,-5,A,"Baltimore, MD",8766,8761,8858,8860,5.092630618297946,12.211733820340127,66.0,113.0,"Wed, Mar  5, 2008","Sun, Mar 30, 2008"
4020,Gallatin Field,Bozeman,United States,BZN,KBZN,45.777643,-111.160151,4500,-7,A,"Bozeman, MT",437,438,441,444,4.594965675057206,16.559360730593603,23.0,106.0,"Sat, Mar 29, 2008","Mon, Mar 31, 2008"
3561,Columbia Metropolitan,Colombia,United States,CAE,KCAE,33.938833,-81.119528,236,-5,A,"Columbia, SC",950,942,988,986,4.374736842105273,14.169851380042466,33.0,96.0,"Wed, Mar  5, 2008","Sat, Mar 15, 2008"
4112,Akron Canton Regional Airport,Akron,United States,CAK,KCAK,40.9160833,-81.4421944,1228,-5,A,"Akron, OH",713,714,766,768,4.826086956521736,15.777310924369749,14.0,120.0,"Thu, Mar 20, 2008","Tue, Mar 11, 2008"
3824,Cedar City Regional,Cedar City,United States,CDC,KCDC,37.700967,-113.098847,5622,-7,A,"Cedar City, UT",57,57,57,57,3.912280701754386,12.964912280701755,6.0,24.0,"Wed, Mar  5, 2008","Thu, Mar  6, 2008"
3610,Merle K. Mudhole Smith,Cordova,United States,CDV,PACV,60.491778,-145.477556,48,-9,A,"Cordova, AK",60,60,62,62,3.216666666666667,7.750000000000001,6.0,24.0,"Fri, Mar 28, 2008","Thu, Mar  6, 2008"
5727,Del Norte County Airport,Crescent City,United States,CEC,KCEC,41.7802,-124.237,57,-8,A,"Crescent City, CA",86,86,88,88,3.813953488372093,12.267441860465116,16.0,24.0,"Thu, Mar 27, 2008","Fri, Mar  7, 2008"
3578,Lovell Field,Chattanooga,United States,CHA,KCHA,35.035278,-85.203808,683,-5,A,"Chattanooga, TN",323,328,338,340,4.297213622291017,11.951219512195118,19.0,112.0,"Wed, Mar 19, 2008","Tue, Mar 25, 2008"
4015,Charlottesville-Albemarle,Charlottesville VA,United States,CHO,KCHO,38.138639,-78.452861,639,-5,A,"Charlottesville, VA",82,82,83,83,2.8902439024390243,10.024390243902438,5.0,37.0,"Fri, Mar 14, 2008","Sun, Mar 30, 2008"
3806,Charleston AFB International,Charleston,United States,CHS,KCHS,32.898647,-80.040528,45,-5,A,"Charleston, SC",1213,1217,1262,1261,8.155812036273707,17.29745275267051,25.0,107.0,"Wed, Mar 19, 2008","Thu, Mar 20, 2008"
3710,Chico Municipal,Chico,United States,CIC,KCIC,39.795383,-121.858422,238,-8,A,"Chico, CA",117,117,119,119,3.9145299145299157,10.726495726495726,10.0,41.0,"Sun, Mar  9, 2008","Wed, Mar 19, 2008"
4043,Cedar Rapids,Cedar Rapids,United States,CID,KCID,41.884694,-91.710806,869,-6,A,"Cedar Rapids/Iowa City, IA",651,650,687,687,5.557603686635948,14.707692307692307,34.0,99.0,"Sun, Mar  2, 2008","Thu, Mar 27, 2008"
4088,McClellan-Palomar Airport,Carlsbad,United States,CLD,KCRQ,33.0742,-117.1648,328,-8,A,"Carlsbad, CA",190,190,192,192,4.068421052631582,10.152631578947366,8.0,23.0,"Mon, Mar 17, 2008","Fri, Mar 14, 2008"
3486,Cleveland Hopkins International,Cleveland,United States,CLE,KCLE,41.411689,-81.849794,791,-5,A,"Cleveland, OH",5508,5536,5981,5980,7.11401597676107,18.81665462427753,53.0,248.0,"Tue, Mar  4, 2008","Tue, Mar  4, 2008"
3715,Easterwood Field,College Station,United States,CLL,KCLL,30.588583,-96.363833,321,-6,A,"College Station/Bryan, TX",108,108,115,115,4.898148148148145,9.88888888888889,12.0,28.0,"Sun, Mar 30, 2008","Fri, Mar  7, 2008"
3876,Charlotte Douglas International,Charlotte,United States,CLT,KCLT,35.214,-80.943139,748,-5,A,"Charlotte, NC",10355,10406,10594,10593,6.688556253017868,19.185566019604156,61.0,166.0,"Sat, Mar  8, 2008","Wed, Mar 19, 2008"
3759,Port Columbus International,Columbus,United States,CMH,KCMH,39.997972,-82.891889,815,-5,A,"Columbus, OH",2923,2920,3129,3128,5.116318850496052,15.070205479452085,53.0,218.0,"Sat, Mar  8, 2008","Sat, Mar 15, 2008"
4049,Champaign,Champaign,United States,CMI,KCMI,40.03925,-88.278056,754,-6,A,"Champaign/Urbana, IL",231,230,242,243,3.995670995670999,15.373913043478261,10.0,77.0,"Mon, Mar 24, 2008","Tue, Mar 25, 2008"
5732,Houghton County Memorial Airport,Hancock,United States,CMX,KCMX,47.1684,-88.4891,1095,-5,A,"Hancock/Houghton, MI",27,27,31,31,6.703703703703703,16.59259259259259,13.0,51.0,"Wed, Mar 12, 2008","Tue, Mar 18, 2008"
4344,Yellowstone Regional,Cody,United States,COD,KCOD,44.520194,-109.023806,5102,-7,A,"Cody, WY",92,92,93,93,3.739130434782609,12.41304347826087,10.0,55.0,"Sun, Mar  9, 2008","Mon, Mar 31, 2008"
3819,City Of Colorado Springs Municipal,Colorado Springs,United States,COS,KCOS,38.805805,-104.700778,6187,-7,A,"Colorado Springs, CO",1446,1450,1503,1509,6.62309820193638,17.780000000000015,36.0,184.0,"Sun, Mar 16, 2008","Fri, Mar 14, 2008"
3872,Natrona County International,Casper,United States,CPR,KCPR,42.908,-106.464417,5347,-7,A,"Casper, WY",262,262,265,267,3.606870229007633,12.961832061068701,13.0,53.0,"Fri, Mar 14, 2008","Sun, Mar  2, 2008"
3744,Corpus Christi International,Corpus Christi,United States,CRP,KCRP,27.770361,-97.501222,44,-6,A,"Corpus Christi, TX",337,339,352,352,3.836795252225519,9.407079646017701,28.0,25.0,"Tue, Mar  4, 2008","Fri, Mar 14, 2008"
4285,Yeager,Charleston,United States,CRW,KCRW,38.373147,-81.593189,981,-5,A,"Charleston/Dunbar, WV",244,244,251,252,3.4139344262295084,11.561475409836065,11.0,55.0,"Tue, Mar 11, 2008","Sat, Mar  8, 2008"
4255,Columbus Metropolitan Airport,Columbus,United States,CSG,KCSG,32.5163333,-84.9388611,397,-5,A,"Columbus, GA",114,115,119,119,3.0789473684210527,10.895652173913046,5.0,110.0,"Mon, Mar  3, 2008","Sat, Mar 29, 2008"
3488,Cincinnati Northern Kentucky International,Cincinnati,United States,CVG,KCVG,39.048836,-84.667822,896,-5,A,"Cincinnati, OH",7828,7883,8189,8180,4.6470362800204255,18.005454776100454,171.0,175.0,"Sun, Mar 23, 2008","Fri, Mar  7, 2008"
4045,Central Wisconsin,Wassau,United States,CWA,KCWA,44.772726,-89.646635,840,-6,A,"Mosinee, WI",109,105,117,118,3.871559633027523,12.161904761904765,11.0,34.0,"Mon, Mar 17, 2008","Thu, Mar 13, 2008"
3950,Daytona Beach International,Daytona Beach,United States,DAB,KDAB,29.179917,-81.058056,34,-5,A,"Daytona Beach, FL",413,410,426,426,4.176755447941891,14.278048780487804,23.0,115.0,"Mon, Mar  3, 2008","Mon, Mar 31, 2008"
3502,Dallas Love Field,Dallas,United States,DAL,KDAL,32.847111,-96.851778,487,-6,A,"Dallas, TX",4544,4576,4734,4734,3.7691461267605635,10.398819930069939,32.0,123.0,"Tue, Mar 18, 2008","Thu, Mar  6, 2008"
3627,James M. Cox Dayton International,Dayton,United States,DAY,KDAY,39.902375,-84.219375,1009,-5,A,"Dayton, OH",1253,1254,1325,1324,5.597765363128482,16.026315789473692,34.0,170.0,"Thu, Mar  6, 2008","Sat, Mar 15, 2008"
4388,Dubuque Regional,Dubuque IA,United States,DBQ,KDBQ,42.402,-90.709472,1076,-6,A,"Dubuque, IA",107,107,118,119,3.7289719626168223,14.261682242990656,11.0,102.0,"Tue, Mar 11, 2008","Fri, Mar  7, 2008"
3520,Ronald Reagan Washington National,Washington,United States,DCA,KDCA,38.852083,-77.037722,15,-5,A,"Washington, DC",7123,7120,7401,7398,5.042678646637644,17.607303370786465,72.0,167.0,"Sat, Mar  8, 2008","Wed, Mar 19, 2008"
3751,Denver International,Denver,United States,DEN,KDEN,39.861656,-104.673178,5431,-7,A,"Denver, CO",20253,20260,20604,20587,8.213449859280137,16.664067127344456,100.0,160.0,"Sat, Mar  8, 2008","Mon, Mar 31, 2008"
3670,Dallas Fort Worth International,Dallas-fort Worth,United States,DFW,KDFW,32.896828,-97.037997,607,-6,A,"Dallas/Fort Worth, TX",21631,21823,23486,23479,11.009014839813286,17.702607340878874,201.0,340.0,"Thu, Mar  6, 2008","Thu, Mar  6, 2008"
3739,Dothan Regional,Dothan,United States,DHN,KDHN,31.321339,-85.449628,401,-6,A,"Dothan, AL",117,116,118,118,3.264957264957265,9.810344827586203,6.0,30.0,"Sat, Mar  8, 2008","Fri, Mar 28, 2008"
3598,Duluth International,Duluth,United States,DLH,KDLH,46.842091,-92.193649,1428,-6,A,"Duluth, MN",170,169,171,171,5.805882352941182,15.08284023668639,18.0,71.0,"Mon, Mar 10, 2008","Tue, Mar 18, 2008"
3713,Durango La Plata County,Durango,United States,DRO,KDRO,37.151516,-107.75377,6685,-7,A,"Durango, CO",323,324,332,332,4.687306501547989,12.07407407407407,15.0,93.0,"Sun, Mar 30, 2008","Thu, Mar 20, 2008"
3729,Des Moines International,Des Moines,United States,DSM,KDSM,41.533972,-93.663083,958,-6,A,"Des Moines, IA",1353,1356,1418,1418,4.5084996304508484,14.251474926253687,19.0,133.0,"Sun, Mar  2, 2008","Mon, Mar  3, 2008"
3645,Detroit Metro Wayne County,Detroit,United States,DTW,KDTW,42.212444,-83.353389,645,-5,A,"Detroit, MI",13862,13934,14329,14332,11.342519117010536,21.699224917467955,184.0,198.0,"Tue, Mar 25, 2008","Tue, Mar  4, 2008"
4250,Eagle County Regional,Vail,United States,EGE,KEGE,39.642556,-106.917694,6540,-7,A,"Eagle, CO",533,539,560,560,4.6848030018761655,21.75510204081633,24.0,148.0,"Sun, Mar  9, 2008","Thu, Mar 13, 2008"
5736,Elko Regional Airport,Elko,United States,EKO,KEKO,40.8249,-115.792,5140,-8,A,"Elko, NV",148,149,150,150,5.101351351351348,12.140939597315437,9.0,30.0,"Sun, Mar  2, 2008","Sat, Mar 15, 2008"
3946,Elmira Corning Regional,Elmira,United States,ELM,KELM,42.159889,-76.891611,954,-5,A,"Elmira/Corning, NY",110,110,114,114,4.9,15.872727272727273,11.0,60.0,"Mon, Mar 17, 2008","Mon, Mar 31, 2008"
3559,El Paso International,El Paso,United States,ELP,KELP,31.80725,-106.377583,3958,-7,A,"El Paso, TX",1717,1716,1746,1747,3.630751310425162,10.856060606060618,57.0,80.0,"Tue, Mar 18, 2008","Tue, Mar 25, 2008"
4276,Erie International-Tom Ridge Field,Erie,United States,ERI,KERI,42.082022,-80.176217,733,-5,A,"Erie, PA",106,105,119,119,5.566037735849057,15.514285714285714,20.0,69.0,"Sun, Mar 23, 2008","Fri, Mar 28, 2008"
4099,Mahlon Sweet Field,Eugene,United States,EUG,KEUG,44.124583,-123.211972,374,-8,A,"Eugene, OR",551,552,556,557,3.6261343012704175,11.731884057971016,15.0,63.0,"Wed, Mar  5, 2008","Wed, Mar 19, 2008"
4018,Evansville Regional,Evansville,United States,EVV,KEVV,38.036997,-87.532364,418,-6,A,"Evansville, IN",433,428,457,457,4.939953810623561,12.808411214953267,17.0,76.0,"Wed, Mar 19, 2008","Tue, Mar 25, 2008"
3730,Craven County Regional,New Bern,United States,EWN,KEWN,35.072972,-77.042944,18,-5,A,"New Bern/Morehead/Beaufort, NC",91,90,93,93,3.197802197802198,8.177777777777775,13.0,38.0,"Fri, Mar  7, 2008","Tue, Mar  4, 2008"
3494,Newark Liberty International,Newark,United States,EWR,KEWR,40.6925,-74.168667,18,-5,A,"Newark, NJ",12021,12079,12580,12582,9.634639381083067,26.860998427022082,74.0,135.0,"Fri, Mar  7, 2008","Thu, Mar 27, 2008"
3875,Key West International,Key West,United States,EYW,KEYW,24.556111,-81.759556,3,-5,A,"Key West, FL",106,106,106,106,3.0943396226415096,9.537735849056604,10.0,79.0,"Mon, Mar  3, 2008","Mon, Mar 31, 2008"
3832,Fairbanks International,Fairbanks,United States,FAI,PAFA,64.815114,-147.856267,434,-9,A,"Fairbanks, AK",378,376,383,383,2.6269841269841274,10.74734042553191,17.0,30.0,"Sat, Mar  1, 2008","Mon, Mar 10, 2008"
4292,Hector International Airport,Fargo,United States,FAR,KFAR,46.92065,-96.8157639,902,-6,A,"Fargo, ND",388,389,401,401,4.927835051546391,15.203084832904889,17.0,135.0,"Tue, Mar 18, 2008","Fri, Mar 21, 2008"
3687,Fresno Yosemite International,Fresno,United States,FAT,KFAT,36.776194,-119.71814,336,-8,A,"Fresno, CA",1294,1291,1304,1302,4.701700154559504,10.543764523625107,26.0,51.0,"Wed, Mar 19, 2008","Wed, Mar 26, 2008"
5738,Fayetteville Regional-Grannis Field,Fayetteville,United States,FAY,KFAY,34.9912,-78.8803,189,-5,A,"Fayetteville, NC",177,177,180,180,4.005649717514124,8.870056497175142,21.0,51.0,"Tue, Mar  4, 2008","Tue, Mar  4, 2008"
4127,Glacier Park International,Kalispell,United States,FCA,KFCA,48.310472,-114.256,2977,-7,A,"Kalispell, MT",242,241,243,244,4.140495867768596,14.759336099585065,8.0,45.0,"Sun, Mar 30, 2008","Tue, Mar 18, 2008"
4261,Flagstaff Pulliam Airport,Flagstaff,United States,FLG,KFLG,35.140318,-111.6692392,7015,-7,N,"Flagstaff, AZ",143,143,150,150,6.741258741258739,14.209790209790208,25.0,48.0,"Mon, Mar 17, 2008","Mon, Mar 24, 2008"
3533,Fort Lauderdale Hollywood International,Fort Lauderdale,United States,FLL,KFLL,26.072583,-80.15275,9,-5,A,"Fort Lauderdale, FL",6777,6814,6881,6881,5.693374649549949,22.030818902260037,139.0,157.0,"Thu, Mar  6, 2008","Sun, Mar 23, 2008"
3879,Florence Regional,Florence,United States,FLO,KFLO,34.185361,-79.723889,146,-5,A,"Florence, SC",53,53,53,53,4.49056603773585,6.886792452830188,9.0,17.0,"Tue, Mar  4, 2008","Tue, Mar  4, 2008"
4089,Bishop International,Flint,United States,FNT,KFNT,42.965424,-83.743629,782,-5,A,"Flint, MI",874,875,892,891,4.9279176201373,13.301714285714281,37.0,117.0,"Fri, Mar 14, 2008","Mon, Mar 31, 2008"
4009,Sioux Falls,Sioux Falls,United States,FSD,KFSD,43.582014,-96.741914,1429,-6,A,"Sioux Falls, SD",439,443,457,458,5.061503416856494,15.07223476297968,48.0,160.0,"Fri, Mar 21, 2008","Mon, Mar 31, 2008"
3437,Fort Smith Regional,Fort Smith,United States,FSM,KFSM,35.336583,-94.367444,469,-6,A,"Fort Smith, AR",223,223,238,238,4.035874439461885,9.533632286995518,15.0,40.0,"Mon, Mar 31, 2008","Mon, Mar 31, 2008"
4041,Fort Wayne,Fort Wayne,United States,FWA,KFWA,40.978472,-85.195139,815,-5,A,"Fort Wayne, IN",482,484,513,514,3.954356846473029,14.768595041322314,21.0,93.0,"Tue, Mar  4, 2008","Sun, Mar  2, 2008"
4296,Gillette-Campbell County Airport,Gillette,United States,GCC,KGCC,44.3489167,-105.5393611,4365,-7,A,"Gillette, WY",6,5,6,5,4.0,15.0,6.0,21.0,"Sun, Mar 30, 2008","Mon, Mar 31, 2008"
3467,Spokane International,Spokane,United States,GEG,KGEG,47.619861,-117.533833,2376,-8,A,"Spokane, WA",1415,1415,1419,1418,4.47773851590108,12.436042402826844,38.0,88.0,"Sun, Mar 30, 2008","Fri, Mar 21, 2008"
3442,Grand Forks International,Grand Forks,United States,GFK,KGFK,47.949256,-97.176111,845,-6,A,"Grand Forks, ND",116,116,119,119,3.646551724137931,12.543103448275861,7.0,75.0,"Fri, Mar 21, 2008","Fri, Mar 21, 2008"
3465,East Texas Regional,Longview,United States,GGG,KGGG,32.384014,-94.711486,365,-6,A,"Longview, TX",82,83,92,93,4.926829268292685,10.674698795180722,8.0,47.0,"Thu, Mar 20, 2008","Thu, Mar 27, 2008"
4063,Grand Junction Regional,Grand Junction,United States,GJT,KGJT,39.122413,-108.526735,4858,-7,A,"Grand Junction, CO",386,389,410,396,3.974093264248704,11.089974293059115,26.0,57.0,"Sun, Mar 23, 2008","Sun, Mar  2, 2008"
3472,Gainesville Regional,Gainesville,United States,GNV,KGNV,29.690056,-82.271778,152,-5,A,"Gainesville, FL",171,171,176,176,3.309941520467836,7.853801169590644,17.0,87.0,"Wed, Mar  5, 2008","Sat, Mar 29, 2008"
4038,Gulfport-Biloxi,Gulfport,United States,GPT,KGPT,30.407278,-89.070111,28,-6,A,"Gulfport/Biloxi, MS",723,720,742,742,4.905947441217162,11.615277777777782,24.0,100.0,"Fri, Mar  7, 2008","Wed, Mar 19, 2008"
3653,Austin Straubel International,Green Bay,United States,GRB,KGRB,44.485072,-88.129589,695,-6,A,"Green Bay, WI",671,667,700,699,4.034277198211626,13.043478260869557,18.0,92.0,"Mon, Mar 24, 2008","Mon, Mar 17, 2008"
3775,Robert Gray AAF,Killeen,United States,GRK,KGRK,31.06725,-97.828917,1015,-6,A,"Killeen, TX",321,323,352,353,3.6137071651090342,9.417956656346746,26.0,55.0,"Mon, Mar 31, 2008","Tue, Mar 11, 2008"
3685,Gerald R. Ford International,Grand Rapids,United States,GRR,KGRR,42.880833,-85.522806,794,-5,A,"Grand Rapids, MI",1334,1340,1414,1412,4.350074962518744,14.282835820895523,33.0,109.0,"Thu, Mar 27, 2008","Mon, Mar 17, 2008"
4008,Piedmont Triad,Greensboro,United States,GSO,KGSO,36.09775,-79.937306,925,-5,A,"Greensboro/High Point, NC",1194,1189,1245,1244,4.6164154103852555,16.462573591253165,36.0,115.0,"Tue, Mar  4, 2008","Wed, Mar 19, 2008"
4034,Greenville-Spartanburg International,Greenville,United States,GSP,KGSP,34.895556,-82.218889,964,-5,A,"Greer, SC",974,974,1027,1028,4.151950718685834,14.309034907597532,77.0,93.0,"Fri, Mar 14, 2008","Tue, Mar  4, 2008"
3880,Great Falls International,Great Falls,United States,GTF,KGTF,47.482,-111.370689,3677,-7,A,"Great Falls, MT",152,151,153,154,4.361842105263161,11.52980132450331,8.0,40.0,"Thu, Mar 20, 2008","Sat, Mar 29, 2008"
4273,Golden Triangle Regional Airport,Columbus Mississippi,United States,GTR,KGTR,33.450333,-88.591361,264,-6,A,"Columbus, MS",78,77,80,80,3.6025641025641026,11.272727272727273,6.0,76.0,"Sat, Mar  8, 2008","Mon, Mar 31, 2008"
7051,Gunnison - Crested Butte,Gunnison,United States,GUC,KGUC,38.533889,-106.933056,7678,-7,A,"Gunnison, CO",87,88,92,95,4.011494252873561,17.056818181818183,7.0,130.0,"Sun, Mar  2, 2008","Wed, Mar 12, 2008"
4339,Yampa Valley,Hayden,United States,HDN,KHDN,40.481181,-107.21766,6602,-7,A,"Hayden, CO",408,413,424,428,4.022058823529413,17.53995157384985,12.0,131.0,"Sat, Mar 15, 2008","Thu, Mar 27, 2008"
7002,Hilton Head,Hilton Head,United States,HHH,KHHH,32.216,-80.752,10,-5,U,"Hilton Head, SC",81,83,85,85,3.6296296296296298,12.168674698795181,24.0,33.0,"Sun, Mar  2, 2008","Sun, Mar  9, 2008"
3504,Helena Regional,Helena,United States,HLN,KHLN,46.606806,-111.98275,3877,-7,A,"Helena, MT",144,143,148,145,3.4583333333333335,13.986013986013987,6.0,44.0,"Sun, Mar  9, 2008","Sun, Mar  2, 2008"
3728,Honolulu International,Honolulu,United States,HNL,PHNL,21.318681,-157.922428,13,-10,N,"Honolulu, HI",4047,4051,4075,4076,5.1131702495675775,12.858059738336205,25.0,74.0,"Mon, Mar 17, 2008","Sun, Mar  2, 2008"
3566,William P. Hobby,Houston,United States,HOU,KHOU,29.645419,-95.278889,46,-6,A,"Houston, TX",4659,4688,4768,4768,5.581240609572872,9.387585324232088,70.0,123.0,"Tue, Mar 18, 2008","Fri, Mar  7, 2008"
3589,Westchester County,White Plains,United States,HPN,KHPN,41.066959,-73.707575,439,-5,A,"White Plains, NY",893,896,928,928,6.385218365061588,16.001116071428577,38.0,108.0,"Sun, Mar  9, 2008","Tue, Mar 25, 2008"
3560,Valley International,Harlingen,United States,HRL,KHRL,26.2285,-97.654389,36,-6,A,"Harlingen/San Benito, TX",346,348,351,351,2.4335260115606943,7.037356321839081,16.0,33.0,"Mon, Mar 10, 2008","Sun, Mar  9, 2008"
4113,Huntsville International Airport-Carl T. Jones Field,Huntsville,United States,HSV,KHSV,34.6371944,-86.7750556,629,-6,A,"Huntsville, AL",885,883,922,922,5.141242937853108,14.331823329558324,26.0,132.0,"Sun, Mar  9, 2008","Wed, Mar 19, 2008"
3714,Washington Dulles International,Washington,United States,IAD,KIAD,38.944533,-77.455811,313,-5,A,"Washington, DC",6732,6750,6886,6892,6.994949494949495,18.378962962962913,43.0,155.0,"Thu, Mar 13, 2008","Fri, Mar  7, 2008"
3550,George Bush Intercontinental Houston,Houston,United States,IAH,KIAH,29.984433,-95.341442,97,-6,A,"Houston, TX",15953,16025,16460,16464,8.674481288785904,19.0647113884555,64.0,168.0,"Tue, Mar 18, 2008","Mon, Mar 10, 2008"
3457,Wichita Mid Continent,Wichita,United States,ICT,KICT,37.649944,-97.433056,1333,-6,A,"Wichita, KS",1188,1189,1252,1252,4.727272727272724,12.382674516400334,44.0,108.0,"Tue, Mar 18, 2008","Fri, Mar 21, 2008"
4100,Idaho Falls Regional,Idaho Falls,United States,IDA,KIDA,43.514556,-112.07075,4744,-7,A,"Idaho Falls, ID",275,274,284,284,4.170909090909091,14.686131386861314,20.0,56.0,"Mon, Mar 24, 2008","Mon, Mar 10, 2008"
3845,Wilmington International,Wilmington,United States,ILM,KILM,34.270615,-77.902569,32,-5,A,"Wilmington, NC",245,245,252,252,4.06530612244898,10.195918367346938,12.0,63.0,"Wed, Mar 19, 2008","Sat, Mar  8, 2008"
3585,Indianapolis International,Indianapolis,United States,IND,KIND,39.717331,-86.294383,797,-5,A,"Indianapolis, IN",3679,3681,3764,3764,9.723837999456366,16.60608530290687,80.0,241.0,"Sat, Mar 15, 2008","Mon, Mar 31, 2008"
3689,Imperial County,Imperial,United States,IPL,KIPL,32.834219,-115.578744,-54,-8,A,"El Centro, CA",109,109,109,110,4.03669724770642,10.55045871559633,8.0,34.0,"Tue, Mar 11, 2008","Tue, Mar  4, 2008"
3857,Long Island MacArthur,Islip,United States,ISP,KISP,40.79525,-73.100222,99,-5,A,"Islip, NY",924,924,925,925,4.070346320346322,8.719696969696969,20.0,36.0,"Sat, Mar 29, 2008","Thu, Mar 20, 2008"
3415,Hilo International,Hilo,United States,ITO,PHTO,19.721375,-155.048469,38,-10,N,"Hilo, HI",532,532,532,532,4.592105263157895,7.9981203007518795,12.0,16.0,"Sun, Mar  2, 2008","Fri, Mar 21, 2008"
7120,Inyokern Airport,Inyokern,United States,IYK,KIYK,35.658889,-117.829444,2455,-8,A,"Inyokern, CA",82,82,87,87,4.378048780487805,12.536585365853659,10.0,22.0,"Sun, Mar  9, 2008","Fri, Mar 28, 2008"
4027,Jackson Hole Airport,Jacksn Hole,United States,JAC,KJAC,43.60733333,-110.73775,6451,-7,A,"Jackson, WY",328,327,334,335,3.658536585365854,18.883792048929667,27.0,77.0,"Sat, Mar  8, 2008","Tue, Mar 25, 2008"
3580,Jackson Evers International,Jackson,United States,JAN,KJAN,32.311167,-90.075889,346,-6,A,"Jackson/Vicksburg, MS",1034,1040,1076,1076,4.43423597678917,10.492307692307682,27.0,73.0,"Sun, Mar 16, 2008","Sun, Mar 30, 2008"
3712,Jacksonville International,Jacksonville,United States,JAX,KJAX,30.494056,-81.687861,30,-5,A,"Jacksonville, FL",3014,3008,3070,3067,5.497345719973457,13.498670212765957,43.0,100.0,"Sun, Mar  2, 2008","Mon, Mar 31, 2008"
3797,John F. Kennedy International,New York,United States,JFK,KJFK,40.639751,-73.778925,13,-5,A,"New York, NY",10056,10110,10349,10356,9.3799721559268,32.10089020771507,87.0,148.0,"Mon, Mar 17, 2008","Sat, Mar  8, 2008"
3492,Juneau International,Juneau,United States,JNU,PAJN,58.354972,-134.576278,21,-9,A,"Juneau, AK",309,309,310,310,3.825242718446602,13.73462783171521,16.0,56.0,"Tue, Mar 18, 2008","Sat, Mar  1, 2008"
3514,Kona International At Keahole,Kona,United States,KOA,PHKO,19.738767,-156.045631,47,-10,N,"Kona, HI",912,909,912,912,4.325657894736846,9.664466446644662,17.0,46.0,"Sat, Mar 15, 2008","Mon, Mar 31, 2008"
3808,Ketchikan International,Ketchikan,United States,KTN,PAKT,55.355556,-131.71375,88,-9,A,"Ketchikan, AK",185,186,186,186,4.389189189189187,11.919354838709681,13.0,40.0,"Sun, Mar 30, 2008","Sun, Mar 16, 2008"
3544,Capital City,Lansing,United States,LAN,KLAN,42.7787,-84.587357,861,-5,A,"Lansing, MI",336,336,354,353,4.360119047619047,15.244047619047619,13.0,138.0,"Wed, Mar 12, 2008","Mon, Mar 31, 2008"
3877,McCarran International,Las Vegas,United States,LAS,KLAS,36.080056,-115.15225,2141,-8,A,"Las Vegas, NV",15213,15211,15381,15377,6.5915992900808655,16.222207612911685,71.0,94.0,"Mon, Mar 17, 2008","Sun, Mar  9, 2008"
4256,Lawton-Fort Sill Regional Airport,Lawton,United States,LAW,KLAW,34.5677144,-98.4166367,1110,-6,A,"Lawton/Fort Sill, OK",217,215,234,232,3.608294930875576,9.809302325581399,9.0,59.0,"Tue, Mar 11, 2008","Wed, Mar 19, 2008"
3484,Los Angeles International,Los Angeles,United States,LAX,KLAX,33.942536,-118.408075,126,-8,A,"Los Angeles, CA",18444,18492,18771,18769,9.238505747126418,15.52568678347391,130.0,134.0,"Fri, Mar 28, 2008","Thu, Mar 13, 2008"
3829,Lubbock Preston Smith International,Lubbock,United States,LBB,KLBB,33.663639,-101.822778,3282,-6,A,"Lubbock, TX",740,742,769,768,3.9770270270270314,8.76549865229109,60.0,42.0,"Sun, Mar 30, 2008","Mon, Mar 24, 2008"
3513,Lake Charles Regional,Lake Charles,United States,LCH,KLCH,30.126112,-93.223335,15,-6,A,"Lake Charles, LA",86,86,93,93,4.72093023255814,17.279069767441854,19.0,101.0,"Tue, Mar 18, 2008","Sun, Mar 30, 2008"
4017,Blue Grass,Lexington KY,United States,LEX,KLEX,38.0365,-84.605889,979,-5,A,"Lexington, KY",803,799,851,850,4.985056039850559,14.61201501877347,44.0,116.0,"Thu, Mar 27, 2008","Fri, Mar  7, 2008"
3493,Lafayette Regional,Lafayette,United States,LFT,KLFT,30.205278,-91.987611,43,-6,A,"Lafayette, LA",400,399,421,422,5.275,12.887218045112784,12.0,110.0,"Mon, Mar 24, 2008","Thu, Mar  6, 2008"
3697,LaGuardia Airport,New York,United States,LGA,KLGA,40.777245,-73.872608,22,-5,A,"New York, NY",9867,9930,10507,10501,8.701733049559202,29.18288016112791,143.0,169.0,"Thu, Mar 20, 2008","Tue, Mar  4, 2008"
3582,Long Beach,Long Beach,United States,LGB,KLGB,33.817722,-118.151611,60,-8,A,"Long Beach, CA",1266,1266,1278,1275,5.536334913112158,14.768562401263823,60.0,73.0,"Sun, Mar  9, 2008","Sun, Mar  9, 2008"
3602,Lihue,Lihue,United States,LIH,PHLI,21.975983,-159.338958,153,-10,N,"Lihue, HI",870,867,874,874,5.170114942528739,7.898500576701267,16.0,41.0,"Sat, Mar  1, 2008","Mon, Mar 31, 2008"
3660,Adams Field,Little Rock,United States,LIT,KLIT,34.729444,-92.224306,262,-6,A,"Little Rock, AR",1244,1256,1324,1323,4.502411575562711,12.035031847133748,19.0,154.0,"Sat, Mar  1, 2008","Tue, Mar  4, 2008"
3543,Lincoln,Lincoln,United States,LNK,KLNK,40.850971,-96.75925,1219,-6,A,"Lincoln, NE",237,235,245,247,4.109704641350212,12.846808510638297,12.0,98.0,"Tue, Mar 25, 2008","Tue, Mar 18, 2008"
3691,Laredo International,Laredo,United States,LRD,KLRD,27.54375,-99.461556,508,-6,A,"Laredo, TX",166,166,176,175,3.3734939759036138,10.078313253012045,9.0,75.0,"Mon, Mar 24, 2008","Mon, Mar 31, 2008"
4044,LaCrosse Municipal,LaCrosse,United States,LSE,KLSE,43.878986,-91.256711,654,-6,A,"La Crosse, WI",146,145,155,155,3.3356164383561646,12.77241379310345,9.0,95.0,"Sun, Mar  2, 2008","Tue, Mar 18, 2008"
3945,Lewiston Nez Perce County,Lewiston,United States,LWS,KLWS,46.3745,-117.015389,1442,-8,A,"Lewiston, ID",53,53,53,53,5.320754716981131,12.471698113207546,9.0,34.0,"Fri, Mar 14, 2008","Sun, Mar  9, 2008"
5753,Lynchburg Regional-Preston Glenn Field,Lynchburg,United States,LYH,KLYH,37.3267,-79.2004,938,-5,A,"Lynchburg, VA",53,52,53,53,3.3207547169811322,8.096153846153847,8.0,25.0,"Sun, Mar  2, 2008","Fri, Mar 14, 2008"
3652,Midland International,Midland,United States,MAF,KMAF,31.942528,-102.201914,2871,-6,A,"Midland/Odessa, TX",607,607,627,627,3.6771004942339367,8.510708401976945,36.0,34.0,"Mon, Mar 17, 2008","Wed, Mar 26, 2008"
4128,MBS International,Saginaw,United States,MBS,KMBS,43.532913,-84.079647,668,-5,A,"Saginaw/Bay City/Midland, MI",161,159,178,177,4.428571428571429,15.622641509433961,11.0,102.0,"Sun, Mar  9, 2008","Sun, Mar  2, 2008"
3458,Kansas City International,Kansas City,United States,MCI,KMCI,39.297606,-94.713905,1026,-6,A,"Kansas City, MO",5401,5404,5524,5524,5.354378818737268,12.028497409326404,47.0,133.0,"Sun, Mar  9, 2008","Sun, Mar 30, 2008"
3754,Middle Georgia Regional,Macon,United States,MCN,KMCN,32.69285,-83.649211,354,-5,A,"Macon, GA",69,69,71,71,3.739130434782609,11.623188405797102,7.0,51.0,"Thu, Mar 27, 2008","Fri, Mar  7, 2008"
3878,Orlando International,Orlando,United States,MCO,KMCO,28.429394,-81.308994,96,-5,A,"Orlando, FL",12033,12044,12146,12152,7.046538685282154,14.697110594486906,74.0,171.0,"Fri, Mar  7, 2008","Fri, Mar  7, 2008"
3542,Harrisburg International,Harrisburg,United States,MDT,KMDT,40.193494,-76.763403,310,-5,A,"Harrisburg, PA",711,708,726,727,4.7609001406469735,14.103107344632768,64.0,85.0,"Mon, Mar 31, 2008","Sat, Mar 15, 2008"
3747,Chicago Midway International,Chicago,United States,MDW,KMDW,41.785972,-87.752417,620,-6,A,"Chicago, IL",7695,7728,7808,7808,5.3044834307992295,11.610377846790927,62.0,59.0,"Sat, Mar 15, 2008","Wed, Mar  5, 2008"
4335,Key Field,Meridian,United States,MEI,KMEI,32.332624,-88.751868,297,-6,A,"Meridian, MS",56,56,57,57,3.9642857142857144,11.196428571428571,7.0,54.0,"Fri, Mar  7, 2008","Tue, Mar  4, 2008"
3473,Memphis International,Memphis,United States,MEM,KMEM,35.042417,-89.976667,341,-6,A,"Memphis, TN",6977,7031,7288,7290,7.6798050738139585,20.211634191437927,58.0,226.0,"Fri, Mar  7, 2008","Fri, Mar  7, 2008"
3826,McAllen Miller International,Mcallen,United States,MFE,KMFE,26.175833,-98.238611,107,-6,A,"Mission/McAllen/Edinburg, TX",343,343,357,357,4.186588921282801,11.154518950437321,20.0,114.0,"Mon, Mar 31, 2008","Mon, Mar  3, 2008"
4101,Rogue Valley International Medford,Medford,United States,MFR,KMFR,42.374228,-122.8735,1335,-8,A,"Medford, OR",532,530,536,536,3.8665413533834587,11.252830188679239,9.0,64.0,"Tue, Mar  4, 2008","Sat, Mar 29, 2008"
4115,Montgomery Regional Airport ,MONTGOMERY,United States,MGM,KMGM,32.3006389,-86.3939722,221,-6,A,"Montgomery, AL",321,319,331,330,3.538940809968846,11.44514106583072,33.0,51.0,"Sun, Mar 16, 2008","Fri, Mar 14, 2008"
4011,Manchester Regional Airport,Manchester NH,United States,MHT,KMHT,42.932556,-71.435667,266,-5,A,"Manchester, NH",1613,1606,1641,1641,4.486050836949785,14.016189290161902,29.0,101.0,"Sat, Mar  8, 2008","Fri, Mar 28, 2008"
3576,Miami International,Miami,United States,MIA,KMIA,25.79325,-80.290556,8,-5,A,"Miami, FL",5644,5658,5753,5746,7.805988660524448,18.11258395192654,72.0,191.0,"Wed, Mar 26, 2008","Tue, Mar  4, 2008"
3717,General Mitchell International,Milwaukee,United States,MKE,KMKE,42.947222,-87.896583,723,-6,A,"Milwaukee, WI",3184,3200,3374,3385,5.431218592964813,16.324375000000018,65.0,189.0,"Sat, Mar 22, 2008","Sat, Mar  8, 2008"
3671,Melbourne International,Melbourne,United States,MLB,KMLB,28.102753,-80.645258,33,-5,A,"Melbourne, FL",176,176,182,182,4.488636363636362,11.744318181818187,9.0,38.0,"Sat, Mar 15, 2008","Sat, Mar 29, 2008"
4072,Quad City International,Moline,United States,MLI,KMLI,41.448528,-90.507539,590,-6,A,"Moline, IL",685,680,716,715,4.000000000000005,13.479411764705882,24.0,184.0,"Fri, Mar  7, 2008","Tue, Mar  4, 2008"
3732,Monroe Regional,Monroe,United States,MLU,KMLU,32.510864,-92.037689,79,-6,A,"Monroe, LA",217,218,232,233,3.889400921658986,9.321100917431188,8.0,40.0,"Mon, Mar  3, 2008","Thu, Mar  6, 2008"
3782,Mobile Regional,Mobile,United States,MOB,KMOB,30.691231,-88.242814,219,-6,A,"Mobile, AL",511,508,534,534,3.802348336594912,11.35826771653543,25.0,106.0,"Mon, Mar 24, 2008","Sat, Mar 29, 2008"
3816,Modesto City County Harry Sham,Modesto,United States,MOD,KMOD,37.625817,-120.954422,97,-8,A,"Modesto, CA",250,250,254,254,3.124,10.816,7.0,25.0,"Mon, Mar 10, 2008","Thu, Mar 13, 2008"
3498,Minot International,Minot,United States,MOT,KMOT,48.259378,-101.280333,1716,-6,A,"Minot, ND",92,92,93,93,5.836956521739132,12.641304347826088,10.0,52.0,"Sat, Mar 15, 2008","Sun, Mar  9, 2008"
6838,Sawyer International Airport,Marquette,United States,MQT,KMQT,46.353611,-87.395278,1221,-5,A,"Marquette, MI",77,83,83,83,5.389610389610388,13.759036144578314,19.0,45.0,"Sun, Mar  9, 2008","Tue, Mar 18, 2008"
3948,Monterey Peninsula,Monterey,United States,MRY,KMRY,36.587,-121.842944,257,-8,A,"Monterey, CA",683,682,690,695,3.4172767203513907,9.659824046920829,15.0,35.0,"Tue, Mar  4, 2008","Fri, Mar 14, 2008"
3459,Dane County Regional-Truax Field,Madison,United States,MSN,KMSN,43.139858,-89.337514,887,-6,A,"Madison, WI",1100,1096,1159,1162,4.3727272727272775,15.150547445255468,36.0,135.0,"Sun, Mar 16, 2008","Fri, Mar 21, 2008"
4216,Missoula International,Missoula,United States,MSO,KMSO,46.916306,-114.090556,3205,-7,A,"Missoula, MT",238,239,242,241,5.126050420168068,13.765690376569038,84.0,38.0,"Tue, Mar 25, 2008","Mon, Mar 31, 2008"
3858,Minneapolis St. Paul International,Minneapolis,United States,MSP,KMSP,44.881956,-93.221767,841,-6,A,"Minneapolis, MN",11374,11422,11647,11645,8.464919992966374,20.649010681141743,73.0,119.0,"Sat, Mar 22, 2008","Mon, Mar 31, 2008"
3861,Louis Armstrong New Orleans International,New Orleans,United States,MSY,KMSY,29.993389,-90.258028,4,-6,A,"New Orleans, LA",3532,3540,3587,3588,4.264439411098549,11.10084745762713,42.0,140.0,"Thu, Mar 20, 2008","Mon, Mar 31, 2008"
6880,Montrose Regional Airport,Montrose CO,United States,MTJ,KMTJ,38.509794,-107.894242,5759,-7,A,"Montrose/Delta, CO",294,295,296,298,4.704081632653056,14.08813559322034,65.0,68.0,"Sat, Mar 15, 2008","Sat, Mar  1, 2008"
3515,Myrtle Beach International,Myrtle Beach,United States,MYR,KMYR,33.67975,-78.928333,25,-5,A,"Myrtle Beach, SC",438,435,447,447,4.013698630136986,12.979310344827587,15.0,72.0,"Fri, Mar  7, 2008","Wed, Mar 19, 2008"
4386,Albert J. Ellis,Jacksonville NC,United States,OAJ,KOAJ,34.829164,-77.612139,94,-5,A,"Jacksonville/Camp Lejeune, NC",102,102,104,104,2.8039215686274517,8.372549019607844,5.0,30.0,"Tue, Mar  4, 2008","Sun, Mar 30, 2008"
3453,Metropolitan Oakland International,Oakland,United States,OAK,KOAK,37.721278,-122.220722,9,-8,A,"Oakland, CA",5629,5632,5729,5728,5.77082963226152,9.944069602272736,47.0,71.0,"Sun, Mar  2, 2008","Sat, Mar  8, 2008"
3456,Kahului,Kahului,United States,OGG,PHOG,20.89865,-156.430458,54,-10,N,"Kahului, HI",1439,1437,1454,1454,5.437804030576791,8.67849686847599,34.0,40.0,"Fri, Mar  7, 2008","Sat, Mar  8, 2008"
3863,Will Rogers World,Oklahoma City,United States,OKC,KOKC,35.393089,-97.600733,1295,-6,A,"Oklahoma City, OK",2269,2269,2331,2330,4.598501542529743,11.716615249008349,54.0,86.0,"Tue, Mar 18, 2008","Thu, Mar 27, 2008"
3454,Eppley Airfield,Omaha,United States,OMA,KOMA,41.303167,-95.894069,984,-6,A,"Omaha, NE",2209,2206,2279,2280,4.30330466274333,13.027198549410699,36.0,125.0,"Tue, Mar  4, 2008","Tue, Mar 18, 2008"
3615,Nome,Nome,United States,OME,PAOM,64.512203,-165.445247,37,-9,A,"Nome, AK",92,92,94,94,3.858695652173913,6.000000000000003,8.0,17.0,"Sun, Mar  2, 2008","Sun, Mar  9, 2008"
3734,Ontario International,Ontario,United States,ONT,KONT,34.056,-117.601194,944,-8,A,"Ontario, CA",3451,3456,3497,3493,4.6485076789336475,10.88020833333334,42.0,64.0,"Mon, Mar 31, 2008","Sat, Mar 15, 2008"
3830,Chicago O'Hare International,Chicago,United States,ORD,KORD,41.978603,-87.904842,668,-6,A,"Chicago, IL",28332,28474,30085,30091,9.023683467457268,18.597703167802067,97.0,171.0,"Thu, Mar 20, 2008","Fri, Mar 21, 2008"
3611,Norfolk International,Norfolk,United States,ORF,KORF,36.894611,-76.201222,26,-5,A,"Norfolk, VA",1313,1305,1336,1338,4.0517897943640495,12.275862068965498,25.0,95.0,"Mon, Mar 10, 2008","Sun, Mar 30, 2008"
3693,Ralph Wien Memorial,Kotzebue,United States,OTZ,PAOT,66.884678,-162.59855,11,-9,A,"Kotzebue, AK",92,93,93,93,4.684782608695653,6.67741935483871,9.0,68.0,"Wed, Mar 12, 2008","Mon, Mar 31, 2008"
6961,Oxnard - Ventura County,Oxnard,United States,OXR,KOXR,34.200833,-119.207222,15,-8,A,"Oxnard/Ventura, CA",111,111,114,114,3.7027027027027026,11.711711711711711,7.0,31.0,"Sun, Mar 30, 2008","Tue, Mar 25, 2008"
3722,Palm Beach International,West Palm Beach,United States,PBI,KPBI,26.683161,-80.095589,19,-5,A,"West Palm Beach/Palm Beach, FL",3020,3029,3062,3060,4.893377483443711,15.50511720039616,48.0,196.0,"Sun, Mar 16, 2008","Sat, Mar  8, 2008"
3720,Portland International,Portland,United States,PDX,KPDX,45.588722,-122.5975,30,-8,A,"Portland, OR",4802,4812,4849,4849,3.9662640566430682,11.458852867830455,22.0,65.0,"Tue, Mar  4, 2008","Tue, Mar 18, 2008"
4073,Panama City Bay County International,Panama City,United States,PFN,KPFN,30.212083,-85.682806,20,-6,A,"Panama City, FL",330,328,343,343,3.3848484848484848,10.375000000000009,15.0,49.0,"Thu, Mar 27, 2008","Sat, Mar 15, 2008"
3633,Newport News Williamsburg International,Newport News,United States,PHF,KPHF,37.131894,-76.492989,43,-5,A,"Newport News/Williamsburg, VA",548,547,552,552,4.718978102189781,11.16819012797074,27.0,101.0,"Sat, Mar  8, 2008","Sun, Mar 30, 2008"
3752,Philadelphia International,Philadelphia,United States,PHL,KPHL,39.871944,-75.241139,36,-5,A,"Philadelphia, PA",8457,8485,8649,8650,6.945961925032515,21.36122569239834,67.0,142.0,"Sat, Mar  8, 2008","Mon, Mar  3, 2008"
3462,Phoenix Sky Harbor International,Phoenix,United States,PHX,KPHX,33.434278,-112.011583,1135,-7,N,"Phoenix, AZ",17609,17699,17864,17857,7.23204043386904,14.833719419176278,71.0,112.0,"Sat, Mar 29, 2008","Fri, Mar 21, 2008"
4046,Peoria Regional,Peoria,United States,PIA,KPIA,40.664203,-89.693258,660,-6,A,"Peoria, IL",466,463,493,492,4.227467811158799,14.688984881209503,28.0,78.0,"Mon, Mar  3, 2008","Fri, Mar  7, 2008"
5760,Pocatello Regional Airport,Pocatello,United States,PIH,KPIH,42.9098,-112.596,4452,-7,A,"Pocatello, ID",154,154,155,155,3.5779220779220777,11.441558441558442,6.0,40.0,"Mon, Mar  3, 2008","Sat, Mar  8, 2008"
3570,Pittsburgh International,Pittsburgh (pennsylva),United States,PIT,KPIT,40.491467,-80.232872,1204,-5,A,"Pittsburgh, PA",3650,3646,3731,3731,6.886575342465751,16.29731212287438,66.0,186.0,"Sat, Mar  8, 2008","Mon, Mar 31, 2008"
3756,Palmdale Regional Usaf Plt 42,Palmdale,United States,PMD,KPMD,34.629391,-118.08456,2543,-8,A,"Palmdale, CA",55,56,57,57,4.981818181818181,12.392857142857142,14.0,43.0,"Mon, Mar  3, 2008","Sat, Mar  8, 2008"
3564,Pensacola Regional,Pensacola,United States,PNS,KPNS,30.473425,-87.186611,121,-6,A,"Pensacola, FL",772,776,801,803,4.358808290155438,10.856958762886585,18.0,83.0,"Mon, Mar 17, 2008","Wed, Mar  5, 2008"
6133,Tri Cities Airport,Pasco,United States,PSC,PSC,46.2647,-119.119,410,-8,A,"Pasco/Kennewick/Richland, WA",228,227,232,232,4.451754385964915,11.986784140969164,12.0,37.0,"Fri, Mar 28, 2008","Sun, Mar  2, 2008"
4147,Petersburg James A. Johnson,Petersburg,United States,PSG,PAPG,56.801667,-132.945278,105,-9,A,"Petersburg, AK",61,61,62,62,3.3442622950819674,9.278688524590164,6.0,32.0,"Sat, Mar  1, 2008","Tue, Mar  4, 2008"
3839,Palm Springs International,Palm Springs,United States,PSP,KPSP,33.829667,-116.506694,477,-8,A,"Palm Springs, CA",1390,1391,1413,1410,5.156115107913669,13.149532710280374,18.0,70.0,"Sat, Mar  1, 2008","Sun, Mar  9, 2008"
3641,Theodore Francis Green State,Providence,United States,PVD,KPVD,41.732581,-71.420383,55,-5,A,"Providence, RI",1971,1976,2012,2013,4.4185692541856865,13.081477732793534,48.0,124.0,"Mon, Mar 31, 2008","Sun, Mar  2, 2008"
3862,Portland International Jetport,Portland,United States,PWM,KPWM,43.646161,-70.309281,77,-5,A,"Portland, ME",561,559,576,575,3.680926916221033,17.46332737030412,17.0,136.0,"Fri, Mar 21, 2008","Thu, Mar 20, 2008"
4087,Rapid City Regional Airport,Rapid City,United States,RAP,KRAP,44.045278,-103.057222,3204,-7,A,"Rapid City, SD",310,310,316,317,4.403225806451614,12.754838709677417,13.0,58.0,"Fri, Mar 14, 2008","Mon, Mar 17, 2008"
4098,Redding Municipal,Redding,United States,RDD,KRDD,40.509,-122.293389,504,-8,A,"Redding, CA",154,154,155,155,4.240259740259741,11.2012987012987,11.0,88.0,"Sat, Mar  1, 2008","Thu, Mar 13, 2008"
4103,Roberts Field,Redmond-Bend,United States,RDM,KRDM,44.254066,-121.149964,3077,-8,A,"Bend/Redmond, OR",303,304,306,305,3.6369636963696363,12.809210526315795,8.0,47.0,"Fri, Mar  7, 2008","Wed, Mar 26, 2008"
3626,Raleigh Durham International,Raleigh-durham,United States,RDU,KRDU,35.877639,-78.787472,435,-5,A,"Raleigh/Durham, NC",4975,4981,5083,5085,4.697889447236188,13.57257578799439,62.0,120.0,"Sat, Mar 15, 2008","Mon, Mar  3, 2008"
4028,Chicago Rockford International Airport ,Rockford,United States,RFD,KRFD,42.1953611,-89.0972222,742,-6,A,"Rockford, IL",57,57,57,57,3.473684210526316,18.964912280701753,5.0,50.0,"Sat, Mar  8, 2008","Fri, Mar 21, 2008"
3608,Richmond International,Richmond,United States,RIC,KRIC,37.505167,-77.319667,167,-5,A,"Richmond, VA",1616,1618,1681,1680,5.264232673267335,15.015451174289247,89.0,146.0,"Sat, Mar 15, 2008","Fri, Mar  7, 2008"
5766,Rock Springs Sweetwater County Airport,Rock Springs,United States,RKS,KRKS,41.5942,-109.065,6760,-7,A,"Rock Springs, WY",4,3,4,3,4.0,25.0,6.0,52.0,"Mon, Mar 31, 2008","Mon, Mar 31, 2008"
3807,Reno Tahoe International,Reno,United States,RNO,KRNO,39.499108,-119.768108,4415,-8,A,"Reno, NV",2263,2273,2283,2289,4.520106053910744,11.145622525296966,32.0,93.0,"Fri, Mar 21, 2008","Tue, Mar 25, 2008"
4016,Roanoke Regional,Roanoke VA,United States,ROA,KROA,37.325472,-79.975417,1175,-5,A,"Roanoke, VA",284,286,294,295,4.90140845070423,14.839160839160838,11.0,115.0,"Tue, Mar  4, 2008","Thu, Mar 20, 2008"
3622,Greater Rochester International,Rochester,United States,ROC,KROC,43.118866,-77.672389,559,-5,A,"Rochester, NY",1294,1287,1358,1358,6.167697063369391,18.69075369075367,24.0,159.0,"Mon, Mar 10, 2008","Thu, Mar 27, 2008"
3736,Roswell International Air Center,Roswell,United States,ROW,KROW,33.301556,-104.530556,3671,-7,A,"Roswell, NM",59,59,62,62,4.067796610169492,10.305084745762715,10.0,119.0,"Mon, Mar 17, 2008","Mon, Mar 31, 2008"
4048,Rochester,Rochester,United States,RST,KRST,43.908283,-92.500014,1317,-6,A,"Rochester, MN",353,353,375,377,3.688385269121813,13.532577903682725,19.0,102.0,"Wed, Mar 19, 2008","Mon, Mar 17, 2008"
3793,Southwest Florida International,Fort Myers,United States,RSW,KRSW,26.536167,-81.755167,30,-5,A,"Fort Myers, FL",3432,3434,3473,3473,5.241550116550106,14.558823529411764,45.0,134.0,"Sat, Mar  8, 2008","Wed, Mar 19, 2008"
3731,San Diego International,San Diego,United States,SAN,KSAN,32.733556,-117.189667,17,-8,A,"San Diego, CA",7952,7969,8080,8081,3.7010814889336006,13.566821433053082,69.0,108.0,"Thu, Mar 13, 2008","Thu, Mar  6, 2008"
3621,San Antonio International,San Antonio,United States,SAT,KSAT,29.533694,-98.469778,809,-6,A,"San Antonio, TX",3921,3921,3992,3989,4.2802856414179935,11.453710788064265,134.0,199.0,"Tue, Mar 11, 2008","Sat, Mar 15, 2008"
3613,Savannah Hilton Head International,Savannah,United States,SAV,KSAV,32.127583,-81.202139,51,-5,A,"Savannah, GA",1110,1106,1150,1151,5.918018018018017,15.719710669077758,68.0,186.0,"Wed, Mar  5, 2008","Tue, Mar 11, 2008"
3949,Santa Barbara Municipal,Santa Barbara,United States,SBA,KSBA,34.426211,-119.840372,10,-8,A,"Santa Barbara, CA",1046,1046,1055,1055,4.565965583173997,10.712237093690272,12.0,56.0,"Fri, Mar 14, 2008","Tue, Mar 25, 2008"
4359,South Bend Regional,South Bend,United States,SBN,KSBN,41.708661,-86.31725,799,-5,A,"South Bend, IN",366,362,385,385,4.024590163934428,15.953038674033154,20.0,78.0,"Sun, Mar 30, 2008","Fri, Mar  7, 2008"
5768,San Luis County Regional Airport,San Luis Obispo,United States,SBP,KSBP,35.2368,-120.642,212,-8,A,"San Luis Obispo, CA",521,520,525,527,3.7927063339731295,10.919230769230772,10.0,34.0,"Thu, Mar 27, 2008","Wed, Mar  5, 2008"
3620,Deadhorse,Deadhorse,United States,SCC,PASC,70.19475,-148.465167,64,-9,A,"Deadhorse, AK",61,62,62,62,3.5245901639344264,6.064516129032258,13.0,17.0,"Thu, Mar 20, 2008","Sun, Mar  9, 2008"
4318,University Park Airport,State College Pennsylvania,United States,SCE,KUNV,40.849278,-77.848694,1239,-5,A,"State College, PA",56,56,62,62,4.821428571428571,15.25,10.0,59.0,"Thu, Mar 20, 2008","Sat, Mar  1, 2008"
4014,Louisville International Airport,Louisville,United States,SDF,KSDF,38.1740858,-85.7364989,501,-5,A,"Louisville, KY",1982,1974,2039,2036,6.153884964682143,14.900709219858143,52.0,243.0,"Fri, Mar  7, 2008","Sat, Mar  8, 2008"
3577,Seattle Tacoma International,Seattle,United States,SEA,KSEA,47.449,-122.309306,433,-8,A,"Seattle, WA",8646,8677,8729,8735,5.89000693962525,16.370865506511485,71.0,118.0,"Fri, Mar 28, 2008","Fri, Mar 28, 2008"
3469,San Francisco International,San Francisco,United States,SFO,KSFO,37.618972,-122.374889,13,-8,A,"San Francisco, CA",11575,11603,11810,11811,5.909892008639299,16.83935189175209,48.0,116.0,"Sun, Mar  9, 2008","Tue, Mar 18, 2008"
4348,Springfield Branson National,Springfield,United States,SGF,KSGF,37.245667,-93.388639,1268,-6,A,"Springfield, MO",840,836,897,902,4.419047619047615,14.339712918660283,31.0,94.0,"Mon, Mar 10, 2008","Sun, Mar 30, 2008"
4064,St. George Municipal,Saint George,United States,SGU,KSGU,37.090583,-113.593056,2941,-7,A,"St. George, UT",310,310,310,310,4.067741935483866,10.609677419354844,10.0,33.0,"Wed, Mar 12, 2008","Sun, Mar  9, 2008"
3609,Shreveport Regional,Shreveport,United States,SHV,KSHV,32.446629,-93.8256,258,-6,A,"Shreveport, LA",630,629,682,682,5.287301587301591,10.496025437201917,76.0,76.0,"Sun, Mar 16, 2008","Wed, Mar  5, 2008"
3856,Sitka Rocky Gutierrez,Sitka,United States,SIT,PASI,57.047138,-135.361611,21,-9,A,"Sitka, AK",93,93,93,93,4.161290322580644,13.924731182795698,10.0,43.0,"Tue, Mar 18, 2008","Mon, Mar 10, 2008"
3748,Norman Y. Mineta San Jose International,San Jose,United States,SJC,KSJC,37.3626,-121.929022,62,-8,A,"San Jose, CA",4816,4817,4883,4884,4.086794019933548,11.330496159435327,30.0,84.0,"Sun, Mar 16, 2008","Sun, Mar  9, 2008"
3708,San Angelo Regional-Mathis Field,San Angelo,United States,SJT,KSJT,31.35775,-100.496306,1919,-6,A,"San Angelo, TX",115,116,124,124,3.5652173913043477,8.353448275862075,9.0,31.0,"Sat, Mar 29, 2008","Mon, Mar 10, 2008"
3536,Salt Lake City International,Salt Lake City,United States,SLC,KSLC,40.788389,-111.977772,4227,-7,A,"Salt Lake City, UT",12551,12583,12685,12680,6.300613496932513,18.614241436859242,47.0,136.0,"Sun, Mar 16, 2008","Thu, Mar 27, 2008"
7826,McNary Field,Salem,United States,SLE,KSLE,44.9095,-123.003,214,-7,A,"Salem, OR",61,61,61,61,4.295081967213116,14.278688524590164,10.0,38.0,"Fri, Mar 14, 2008","Sun, Mar 30, 2008"
3817,Sacramento International,Sacramento,United States,SMF,KSMF,38.695417,-121.590778,27,-8,A,"Sacramento, CA",4607,4606,4647,4647,4.432385500325604,10.62071211463307,44.0,76.0,"Tue, Mar 11, 2008","Mon, Mar 31, 2008"
5772,Santa Maria Public-Captain G. Allan Hancock Airport,Santa Maria,United States,SMX,KSMX,34.8989,-120.457,261,-8,A,"Santa Maria, CA",144,143,147,146,3.9166666666666665,11.776223776223777,7.0,49.0,"Wed, Mar 19, 2008","Sun, Mar  9, 2008"
3867,John Wayne Airport Orange County,Santa Ana,United States,SNA,KSNA,33.675667,-117.868222,56,-8,A,"Santa Ana, CA",4039,4036,4104,4102,6.7375588016835835,13.58969276511397,50.0,100.0,"Mon, Mar 24, 2008","Tue, Mar 18, 2008"
4336,Abraham Lincoln Capital,Springfield,United States,SPI,KSPI,39.8441,-89.677889,597,-6,A,"Springfield, IL",130,129,145,145,4.230769230769229,16.868217054263578,13.0,88.0,"Tue, Mar  4, 2008","Tue, Mar 18, 2008"
3680,Sheppard AFB Wichita Falls Municipal,Wichita Falls,United States,SPS,KSPS,33.988797,-98.491894,1019,-6,A,"Wichita Falls, TX",186,186,206,207,6.82258064516129,9.86021505376344,15.0,26.0,"Sun, Mar 23, 2008","Mon, Mar 24, 2008"
4067,Sarasota Bradenton International,Sarasota,United States,SRQ,KSRQ,27.395444,-82.554389,30,-5,A,"Sarasota/Bradenton, FL",836,834,854,852,4.446172248803831,12.412470023980815,34.0,93.0,"Mon, Mar  3, 2008","Sat, Mar  8, 2008"
3678,Lambert St. Louis International,St. Louis,United States,STL,KSTL,38.748697,-90.370028,618,-6,A,"St. Louis, MO",5071,5072,5290,5294,5.174324590810493,12.597594637223995,111.0,111.0,"Tue, Mar  4, 2008","Wed, Mar 19, 2008"
6494,Friedman Memorial,Hailey,United States,SUN,KSUN,43.504444,-114.296194,5320,-7,A,"Sun Valley/Hailey/Ketchum, ID",274,275,289,296,3.4306569343065694,11.403636363636362,59.0,86.0,"Sun, Mar  9, 2008","Sat, Mar 15, 2008"
3753,Sioux Gateway-Colonel Bud Day Field,Sioux City,United States,SUX,KSUX,42.402603,-96.384367,1098,-6,A,"Sioux City, IA",12,12,12,12,3.5833333333333335,7.416666666666667,6.0,15.0,"Thu, Mar 13, 2008","Thu, Mar 13, 2008"
3661,Stewart International,Newburgh,United States,SWF,KSWF,41.504094,-74.104839,491,-5,A,"Newburgh/Poughkeepsie, NY",484,483,491,491,5.446280991735535,13.31055900621118,19.0,55.0,"Sun, Mar  9, 2008","Mon, Mar 17, 2008"
3745,Syracuse Hancock International,Syracuse,United States,SYR,KSYR,43.111187,-76.106311,421,-5,A,"Syracuse, NY",1102,1097,1128,1128,4.720508166969146,18.815861440291695,30.0,140.0,"Wed, Mar 12, 2008","Fri, Mar 21, 2008"
4084,Telluride,Telluride,United States,TEX,KTEX,37.953759,-107.90848,9078,-7,A,"Telluride, CO",56,56,62,62,5.410714285714285,18.892857142857142,15.0,55.0,"Tue, Mar 25, 2008","Mon, Mar  3, 2008"
3698,Tallahassee Regional,Tallahassee,United States,TLH,KTLH,30.396528,-84.350333,81,-5,A,"Tallahassee, FL",436,436,449,448,3.614678899082569,11.38990825688074,13.0,152.0,"Thu, Mar 20, 2008","Sat, Mar 15, 2008"
4040,Toledo,Toledo,United States,TOL,KTOL,41.586806,-83.807833,684,-5,A,"Toledo, OH",134,133,145,146,2.6716417910447765,14.270676691729323,6.0,55.0,"Mon, Mar 31, 2008","Tue, Mar 18, 2008"
3646,Tampa International,Tampa,United States,TPA,KTPA,27.975472,-82.53325,26,-5,A,"Tampa, FL",7558,7575,7656,7656,5.175575549087066,14.570297029702974,43.0,108.0,"Sat, Mar 29, 2008","Wed, Mar 19, 2008"
4116,Tri-Cities Regional Airport,BRISTOL,United States,TRI,KTRI,36.4752222,-82.4074167,1519,-5,A,"Bristol/Johnson City/Kingsport, TN",169,164,176,175,4.082840236686395,11.786585365853663,18.0,71.0,"Sat, Mar 29, 2008","Thu, Mar  6, 2008"
3855,Tulsa International,Tulsa,United States,TUL,KTUL,36.198389,-95.888111,677,-6,A,"Tulsa, OK",2051,2053,2125,2124,4.49293027791322,11.41256697515829,44.0,77.0,"Wed, Mar  5, 2008","Tue, Mar 18, 2008"
3636,Tucson International,Tucson,United States,TUS,KTUS,32.116083,-110.941028,2643,-7,N,"Tucson, AZ",2625,2624,2660,2659,4.756571428571438,11.432545731707332,34.0,80.0,"Mon, Mar 31, 2008","Sun, Mar  2, 2008"
4023,Cherry Capital Airport,Traverse City,United States,TVC,KTVC,44.741445,-85.582235,624,-5,A,"Traverse City, MI",239,239,250,249,4.280334728033471,18.619246861924697,21.0,97.0,"Mon, Mar 31, 2008","Thu, Mar 27, 2008"
4263,Magic Valley Regional Airport,Twin Falls,United States,TWF,KTWF,42.481803,-114.487733,4151,-7,A,"Twin Falls, ID",174,175,184,178,3.528735632183908,9.605714285714289,19.0,32.0,"Thu, Mar 13, 2008","Sat, Mar 15, 2008"
3770,Texarkana Regional-Webb Field,Texarkana,United States,TXK,KTXK,33.453722,-93.991028,390,-6,A,"Texarkana, AR",84,81,94,94,3.6785714285714284,9.62962962962963,13.0,24.0,"Thu, Mar 27, 2008","Fri, Mar 28, 2008"
3848,Tyler Pounds Regional,Tyler,United States,TYR,KTYR,32.354139,-95.402386,544,-6,A,"Tyler, TX",144,143,155,155,4.694444444444448,9.419580419580424,12.0,20.0,"Mon, Mar 24, 2008","Thu, Mar  6, 2008"
3676,McGhee Tyson,Knoxville,United States,TYS,KTYS,35.810972,-83.994028,981,-5,A,"Knoxville, TN",1162,1166,1190,1193,4.798623063683312,14.21612349914238,44.0,75.0,"Fri, Mar 28, 2008","Wed, Mar  5, 2008"
5776,Valdosta Regional Airport,Valdosta,United States,VLD,KVLD,30.7825,-83.2767,203,-5,A,"Valdosta, GA",88,88,89,89,4.113636363636365,8.204545454545455,10.0,21.0,"Fri, Mar 21, 2008","Sat, Mar 29, 2008"
3873,Eglin AFB,Valparaiso,United States,VPS,KVPS,30.48325,-86.5254,87,-6,A,"Valparaiso, FL",577,580,596,598,7.639514731369149,12.8448275862069,29.0,139.0,"Tue, Mar 11, 2008","Sat, Mar 29, 2008"
5969,Wrangell Airport,Wrangell,United States,WRG,PAWG,56.4843,-132.37,44,-9,A,"Wrangell, AK",61,61,62,62,3.7704918032786887,8.540983606557376,7.0,34.0,"Wed, Mar 12, 2008","Wed, Mar 19, 2008"
4356,NW Arkansas Regional,Bentonville,United States,XNA,KXNA,36.2818694,-94.3068111,1287,-6,A,"Fayetteville, AR",1171,1167,1243,1241,5.079419299743803,15.820051413881744,33.0,176.0,"Sat, Mar 15, 2008","Tue, Mar  4, 2008"
6803,Yakutat,Yakutat,United States,YAK,PAYA,59.3012,-139.3937,33,-9,A,"Yakutat, AK",62,62,62,62,4.161290322580645,7.903225806451613,11.0,25.0,"Thu, Mar  6, 2008","Wed, Mar 26, 2008"
5779,Yakima Air Terminal-McAllister Field,Yakima,United States,YKM,KYKM,46.5682,-120.544,1095,-8,A,"Yakima, WA",53,53,53,53,4.566037735849057,13.037735849056604,17.0,28.0,"Mon, Mar 17, 2008","Sun, Mar 30, 2008"
3596,Yuma MCAS Yuma International,Yuma,United States,YUM,KYUM,32.656578,-114.60598,216,-7,N,"Yuma, AZ",362,362,372,371,4.867403314917133,12.67403314917127,20.0,43.0,"Fri, Mar 21, 2008","Thu, Mar 27, 2008"
