airport_id,name,city,country,iata_faa,iaco,latitude,longitude,altitude,zone,dst,city_state,avg_able_landings,avg_able_takeoffs,total_landings,total_takeoffs,avg_taxi_in,avg_taxi_out,longest_taxi_in,longest_taxi_out,lng_tx_in_date,lng_tx_out_date
4355,Lehigh Valley International,Allentown,United States,ABE,KABE,40.652083,-75.440806,393,-5,A,"Allentown/Bethlehem/Easton, PA",250,251,270,270,4.424000000000003,10.976095617529884,23.0,74.0,"Wed, Oct 24, 2012","Fri, Oct 19, 2012"
3718,Abilene Regional,Abilene,United States,ABI,KABI,32.411319,-99.681897,1791,-6,A,"Abilene, TX",209,208,209,209,4.2057416267942545,8.923076923076922,11.0,36.0,"Mon, Oct 15, 2012","Tue, Oct 23, 2012"
4019,Albuquerque International Sunport,Albuquerque,United States,ABQ,KABQ,35.0402222,-106.6091944,5355,-7,A,"Albuquerque, NM",2475,2477,2486,2489,5.210505050505051,10.030682276947886,32.0,57.0,"Sat, Oct 13, 2012","Mon, Oct  1, 2012"
5714,Aberdeen Regional Airport,Aberdeen,United States,ABR,KABR,45.4491,-98.4218,1302,-6,A,"Aberdeen, SD",75,74,75,75,4.453333333333336,12.472972972972972,15.0,89.0,"Mon, Oct 29, 2012","Thu, Oct 25, 2012"
5715,Southwest Georgia Regional Airport,Albany,United States,ABY,KABY,31.5355,-84.1945,197,-5,A,"Albany, GA",89,89,89,89,3.7191011235955056,12.44943820224719,6.0,34.0,"Wed, Oct 17, 2012","Mon, Oct 15, 2012"
3517,Nantucket Memorial,Nantucket,United States,ACK,KACK,41.253053,-70.060181,48,-5,A,"Nantucket, MA",16,16,16,16,3.75,22.875,6.0,54.0,"Mon, Oct  1, 2012","Fri, Oct 12, 2012"
3700,Waco Regional,Waco,United States,ACT,KACT,31.611289,-97.230519,516,-6,A,"Waco, TX",146,146,147,147,3.506849315068493,8.0068493150685,11.0,24.0,"Fri, Oct 19, 2012","Mon, Oct 15, 2012"
4384,Arcata,Arcata CA,United States,ACV,KACV,40.978111,-124.108611,221,-8,A,"Arcata/Eureka, CA",305,302,321,321,4.0131147540983605,10.49668874172185,7.0,40.0,"Wed, Oct 31, 2012","Sun, Oct  7, 2012"
5959,Adak Airport,Adak Island,United States,ADK,PADK,51.878,-176.646,18,-10,A,"Adak Island, AK",7,7,8,8,4.0,5.571428571428571,6.0,9.0,"Thu, Oct 18, 2012","Thu, Oct 25, 2012"
3531,Kodiak,Kodiak,United States,ADQ,PADQ,57.749967,-152.493856,78,-9,A,"Kodiak, AK",51,51,58,58,3.392156862745098,5.235294117647058,6.0,21.0,"Sat, Oct  6, 2012","Wed, Oct 31, 2012"
3852,Alexandria International,Alexandria,United States,AEX,KAEX,31.3274,-92.549833,89,-6,A,"Alexandria, LA",315,316,315,317,3.4984126984126984,11.27848101265823,12.0,48.0,"Sat, Oct  6, 2012","Mon, Oct  1, 2012"
3658,Augusta Regional At Bush Field,Bush Field,United States,AGS,KAGS,33.369944,-81.9645,144,-5,A,"Augusta, GA",257,257,257,257,3.494163424124514,15.015564202334629,11.0,77.0,"Wed, Oct  3, 2012","Wed, Oct 10, 2012"
3864,Albany International,Albany,United States,ALB,KALB,42.748267,-73.801692,285,-5,A,"Albany, NY",918,916,970,969,4.334422657952076,13.33406113537118,33.0,104.0,"Fri, Oct  5, 2012","Tue, Oct  2, 2012"
5718,Waterloo Regional Airport,Waterloo,United States,ALO,KALO,42.5571,-92.4003,873,-6,A,"Waterloo, IA",57,57,58,58,3.6842105263157894,13.929824561403509,6.0,37.0,"Tue, Oct  2, 2012","Wed, Oct 17, 2012"
3840,Rick Husband Amarillo International,Amarillo,United States,AMA,KAMA,35.219369,-101.705931,3607,-6,A,"Amarillo, TX",657,656,660,660,4.079147640791481,9.516768292682924,23.0,29.0,"Fri, Oct  5, 2012","Fri, Oct 26, 2012"
3774,Ted Stevens Anchorage International,Anchorage,United States,ANC,PANC,61.174361,-149.996361,152,-9,A,"Anchorage, AK",1272,1291,1304,1305,4.290880503144654,12.284275755228524,90.0,39.0,"Sat, Oct 13, 2012","Sat, Oct 13, 2012"
5720,Alpena County Regional Airport,Alpena,United States,APN,KAPN,45.0781,-83.5603,689,-5,A,"Alpena, MI",53,53,54,54,5.60377358490566,8.660377358490567,28.0,16.0,"Thu, Oct 11, 2012","Mon, Oct 29, 2012"
3838,Watertown International,Watertown,United States,ART,KART,43.991922,-76.021739,325,-5,A,"Watertown, NY",52,52,54,54,5.000000000000001,13.403846153846153,14.0,54.0,"Thu, Oct 25, 2012","Thu, Oct 25, 2012"
7001,Aspen/Pitkin County-Sardy Field,Aspen,United States,ASE,KASE,39.2232,-106.869,7820,-7,A,"Aspen, CO",147,147,153,153,3.4149659863945576,10.544217687074832,11.0,40.0,"Tue, Oct  9, 2012","Fri, Oct  5, 2012"
3682,Hartsfield Jackson Atlanta International,Atlanta,United States,ATL,KATL,33.636719,-84.428067,1026,-5,A,"Atlanta, GA",32617,32652,33102,33104,9.580464175123407,18.193893176528185,117.0,137.0,"Mon, Oct 15, 2012","Tue, Oct  2, 2012"
4047,Appleton,Appleton,United States,ATW,KATW,44.257526,-88.507576,680,-6,A,"Appleton, WI",355,355,368,369,3.7014084507042253,10.605633802816907,10.0,45.0,"Wed, Oct 10, 2012","Mon, Oct 22, 2012"
3673,Austin Bergstrom International,Austin,United States,AUS,KAUS,30.194528,-97.669889,542,-6,A,"Austin, TX",3775,3769,3823,3824,5.215894039735097,12.655611568055187,52.0,55.0,"Mon, Oct 15, 2012","Thu, Oct 25, 2012"
4007,Asheville Regional Airport,Asheville,United States,AVL,KAVL,35.436194,-82.541806,2165,-5,A,"Asheville, NC",373,372,376,376,3.5093833780160857,15.844086021505376,18.0,75.0,"Mon, Oct 29, 2012","Mon, Oct  8, 2012"
4286,Wilkes Barre Scranton International,Scranton,United States,AVP,KAVP,41.338478,-75.723403,962,-5,A,"Scranton/Wilkes-Barre, PA",91,91,97,98,3.549450549450549,12.06593406593407,12.0,41.0,"Sat, Oct 13, 2012","Sat, Oct 13, 2012"
4039,Kalamazoo,Kalamazoo,United States,AZO,KAZO,42.234875,-85.552058,874,-5,A,"Kalamazoo, MI",61,61,62,62,3.1147540983606556,13.360655737704919,8.0,32.0,"Wed, Oct 17, 2012","Tue, Oct 16, 2012"
3825,Bradley International,Windsor Locks,United States,BDL,KBDL,41.938889,-72.683222,173,-5,A,"Hartford, CT",1816,1807,1922,1920,5.078193832599119,13.23076923076923,34.0,98.0,"Tue, Oct 30, 2012","Sun, Oct 14, 2012"
3599,Bethel,Bethel,United States,BET,PABE,60.779778,-161.838,121,-9,A,"Bethel, AK",82,82,85,85,3.3780487804878048,5.975609756097559,6.0,12.0,"Tue, Oct  2, 2012","Mon, Oct 22, 2012"
3558,Meadows Field,Bakersfield,United States,BFL,KBFL,35.433598,-119.05677,507,-8,A,"Bakersfield, CA",325,323,328,328,3.9661538461538446,12.046439628482972,7.0,40.0,"Tue, Oct 23, 2012","Tue, Oct 16, 2012"
3463,Bangor International,Bangor,United States,BGR,KBGR,44.807444,-68.828139,192,-5,A,"Bangor, ME",57,58,59,60,3.9649122807017543,11.982758620689657,7.0,29.0,"Sun, Oct 28, 2012","Wed, Oct 17, 2012"
3811,Birmingham International,Birmingham,United States,BHM,KBHM,33.562942,-86.75355,644,-6,A,"Birmingham, AL",1505,1498,1517,1513,3.7375415282392015,12.704939919893183,21.0,70.0,"Sun, Oct 14, 2012","Mon, Oct  8, 2012"
4021,Billings Logan International Airport,Billings,United States,BIL,KBIL,45.80921,-108.537654,3652,-7,A,"Billings, MT",296,294,297,297,3.814189189189189,11.374149659863942,11.0,32.0,"Mon, Oct 22, 2012","Wed, Oct 24, 2012"
4083,Bismarck Municipal Airport,Bismarck,United States,BIS,KBIS,46.775842,-100.757931,1661,-6,A,"Bismarck/Mandan, ND",271,270,272,272,4.018450184501842,11.348148148148152,18.0,33.0,"Mon, Oct 15, 2012","Wed, Oct 24, 2012"
4287,Bemidji Regional Airport,Bemidji,United States,BJI,KBJI,47.510722,-94.934722,1391,-6,A,"Bemidji, MN",62,62,62,62,4.887096774193548,12.14516129032258,12.0,44.0,"Fri, Oct 19, 2012","Sun, Oct 28, 2012"
6962,Branson LLC,Branson,United States,BKG,KBBG,36.531994,-93.200556,1302,-6,A,"Branson, MO",160,161,162,162,5.006249999999997,9.7639751552795,11.0,76.0,"Sat, Oct 13, 2012","Mon, Oct 22, 2012"
3777,Bellingham International,Bellingham,United States,BLI,KBLI,48.792694,-122.537528,170,-8,A,"Bellingham, WA",49,49,49,49,4.346938775510204,12.816326530612244,26.0,31.0,"Fri, Oct 26, 2012","Sun, Oct 21, 2012"
4037,Central Illinois Regional,Bloomington,United States,BMI,KBMI,40.477111,-88.915917,871,-6,A,"Bloomington/Normal, IL",113,113,115,115,3.5398230088495577,8.876106194690275,8.0,28.0,"Sun, Oct 14, 2012","Thu, Oct 25, 2012"
3690,Nashville International,Nashville,United States,BNA,KBNA,36.124472,-86.678194,599,-6,A,"Nashville, TN",4551,4549,4644,4645,5.814326521643598,11.559903275445151,45.0,83.0,"Thu, Oct  4, 2012","Wed, Oct  3, 2012"
3495,Boise Air Terminal,Boise,United States,BOI,KBOI,43.564361,-116.222861,2871,-7,A,"Boise, ID",919,920,931,929,3.583242655059848,10.968478260869558,34.0,83.0,"Mon, Oct 22, 2012","Thu, Oct 25, 2012"
3448,General Edward Lawrence Logan International,Boston,United States,BOS,KBOS,42.364347,-71.005181,19,-5,A,"Boston, MA",8184,8189,8809,8804,6.911045943304008,17.814629380876756,67.0,139.0,"Thu, Oct  4, 2012","Mon, Oct 22, 2012"
5725,Brunswick Golden Isles Airport,Brunswick,United States,BQK,KBQK,31.2588,-81.4665,26,-5,A,"Brunswick, GA",79,79,79,79,3.3164556962025316,14.73417721518987,6.0,66.0,"Tue, Oct  9, 2012","Wed, Oct 10, 2012"
6957,Brainerd Lakes Regional,Brainerd,United States,BRD,KBRD,46.398308,-94.138078,1226,-6,U,"Brainerd, MN",53,53,53,53,5.283018867924527,11.39622641509434,9.0,26.0,"Fri, Oct 19, 2012","Thu, Oct 25, 2012"
3738,Brownsville South Padre Island International,Brownsville,United States,BRO,KBRO,25.906833,-97.425861,22,-6,A,"Brownsville, TX",193,193,193,193,3.7927461139896375,9.393782383419692,7.0,19.0,"Thu, Oct 25, 2012","Mon, Oct  1, 2012"
3571,Wiley Post Will Rogers Memorial,Barrow,United States,BRW,PABR,71.285446,-156.766003,44,-9,A,"Barrow, AK",70,70,70,70,4.214285714285711,6.928571428571429,7.0,21.0,"Mon, Oct 29, 2012","Sun, Oct  7, 2012"
4022,Bert Mooney Airport,Butte,United States,BTM,KBTM,45.954806,-112.497472,5550,-7,A,"Butte, MT",60,60,61,61,3.949999999999999,12.05,6.0,36.0,"Tue, Oct  2, 2012","Fri, Oct 26, 2012"
3846,Baton Rouge Metro-Ryan Field,Baton Rouge,United States,BTR,KBTR,30.533167,-91.149639,70,-6,A,"Baton Rouge, LA",745,744,748,748,4.704697986577177,11.404569892473116,33.0,129.0,"Tue, Oct 16, 2012","Thu, Oct 25, 2012"
3711,Burlington International,Burlington,United States,BTV,KBTV,44.471861,-73.153278,335,-5,A,"Burlington, VT",404,405,440,440,4.82178217821782,13.607407407407402,39.0,49.0,"Tue, Oct  9, 2012","Mon, Oct 22, 2012"
3820,Buffalo Niagara International,Buffalo,United States,BUF,KBUF,42.940525,-78.732167,724,-5,A,"Buffalo, NY",1917,1912,2008,2006,4.138236828377681,11.787133891213394,42.0,103.0,"Tue, Oct 23, 2012","Mon, Oct 22, 2012"
3644,Bob Hope,Burbank,United States,BUR,KBUR,34.200667,-118.358667,778,-8,A,"Burbank, CA",2153,2150,2185,2185,2.955411054342774,11.159999999999991,28.0,122.0,"Wed, Oct 24, 2012","Wed, Oct 10, 2012"
3849,Baltimore Washington International,Baltimore,United States,BWI,KBWI,39.175361,-76.668333,146,-5,A,"Baltimore, MD",8212,8196,8848,8845,5.661471018022407,14.434358223523677,55.0,126.0,"Thu, Oct 11, 2012","Fri, Oct 19, 2012"
4020,Gallatin Field,Bozeman,United States,BZN,KBZN,45.777643,-111.160151,4500,-7,A,"Bozeman, MT",234,233,235,234,4.209401709401714,14.025751072961373,17.0,53.0,"Fri, Oct 26, 2012","Tue, Oct 23, 2012"
3561,Columbia Metropolitan,Colombia,United States,CAE,KCAE,33.938833,-81.119528,236,-5,A,"Columbia, SC",493,492,509,510,3.8762677484787034,13.17682926829268,14.0,81.0,"Fri, Oct 12, 2012","Fri, Oct 19, 2012"
4112,Akron Canton Regional Airport,Akron,United States,CAK,KCAK,40.9160833,-81.4421944,1228,-5,A,"Akron, OH",656,656,671,671,5.120426829268296,11.309451219512187,22.0,51.0,"Mon, Oct 15, 2012","Wed, Oct 10, 2012"
3824,Cedar City Regional,Cedar City,United States,CDC,KCDC,37.700967,-113.098847,5622,-7,A,"Cedar City, UT",54,54,54,54,3.740740740740741,13.962962962962964,6.0,62.0,"Fri, Oct 26, 2012","Tue, Oct 16, 2012"
3610,Merle K. Mudhole Smith,Cordova,United States,CDV,PACV,60.491778,-145.477556,48,-9,A,"Cordova, AK",59,59,62,62,3.135593220338983,6.2542372881355925,5.0,22.0,"Tue, Oct  2, 2012","Tue, Oct 16, 2012"
5727,Del Norte County Airport,Crescent City,United States,CEC,KCEC,41.7802,-124.237,57,-8,A,"Crescent City, CA",80,79,85,85,3.875,14.215189873417721,12.0,40.0,"Mon, Oct  8, 2012","Wed, Oct 10, 2012"
3578,Lovell Field,Chattanooga,United States,CHA,KCHA,35.035278,-85.203808,683,-5,A,"Chattanooga, TN",428,427,428,428,3.892523364485981,13.17096018735363,31.0,77.0,"Fri, Oct 26, 2012","Wed, Oct 10, 2012"
4015,Charlottesville-Albemarle,Charlottesville VA,United States,CHO,KCHO,38.138639,-78.452861,639,-5,A,"Charlottesville, VA",145,145,151,151,2.910344827586207,11.32413793103448,9.0,65.0,"Sat, Oct  6, 2012","Mon, Oct  1, 2012"
3806,Charleston AFB International,Charleston,United States,CHS,KCHS,32.898647,-80.040528,45,-5,A,"Charleston, SC",1149,1149,1178,1178,4.988685813751082,13.312445604873805,23.0,114.0,"Thu, Oct 18, 2012","Wed, Oct  3, 2012"
3710,Chico Municipal,Chico,United States,CIC,KCIC,39.795383,-121.858422,238,-8,A,"Chico, CA",85,85,89,89,3.3411764705882354,12.505882352941176,6.0,29.0,"Sat, Oct  6, 2012","Wed, Oct 24, 2012"
4043,Cedar Rapids,Cedar Rapids,United States,CID,KCID,41.884694,-91.710806,869,-6,A,"Cedar Rapids/Iowa City, IA",526,525,528,527,4.572243346007602,9.76,24.0,95.0,"Sat, Oct 13, 2012","Sun, Oct 14, 2012"
4088,McClellan-Palomar Airport,Carlsbad,United States,CLD,KCRQ,33.0742,-117.1648,328,-8,A,"Carlsbad, CA",193,192,201,201,4.1606217616580325,11.255208333333329,8.0,45.0,"Thu, Oct  4, 2012","Thu, Oct 11, 2012"
3486,Cleveland Hopkins International,Cleveland,United States,CLE,KCLE,41.411689,-81.849794,791,-5,A,"Cleveland, OH",3702,3708,3875,3877,6.236358725013506,11.93770226537216,37.0,117.0,"Tue, Oct 23, 2012","Sun, Oct 14, 2012"
3715,Easterwood Field,College Station,United States,CLL,KCLL,30.588583,-96.363833,321,-6,A,"College Station/Bryan, TX",239,238,239,239,4.213389121338911,8.399159663865545,17.0,22.0,"Fri, Oct 19, 2012","Sun, Oct 14, 2012"
3876,Charlotte Douglas International,Charlotte,United States,CLT,KCLT,35.214,-80.943139,748,-5,A,"Charlotte, NC",11198,11225,11530,11536,8.240310769780322,18.318307349665915,76.0,125.0,"Sun, Oct 21, 2012","Mon, Oct 29, 2012"
3759,Port Columbus International,Columbus,United States,CMH,KCMH,39.997972,-82.891889,815,-5,A,"Columbus, OH",2308,2300,2378,2381,5.840121317157715,11.908260869565224,27.0,122.0,"Fri, Oct 12, 2012","Wed, Oct  3, 2012"
4049,Champaign,Champaign,United States,CMI,KCMI,40.03925,-88.278056,754,-6,A,"Champaign/Urbana, IL",206,205,209,209,3.8883495145631066,10.37560975609756,15.0,44.0,"Wed, Oct  3, 2012","Fri, Oct 19, 2012"
5732,Houghton County Memorial Airport,Hancock,United States,CMX,KCMX,47.1684,-88.4891,1095,-5,A,"Hancock/Houghton, MI",60,60,62,62,4.300000000000001,13.616666666666667,6.0,48.0,"Mon, Oct  8, 2012","Sat, Oct  6, 2012"
4344,Yellowstone Regional,Cody,United States,COD,KCOD,44.520194,-109.023806,5102,-7,A,"Cody, WY",64,64,64,64,4.249999999999998,15.34375,6.0,38.0,"Fri, Oct  5, 2012","Wed, Oct 24, 2012"
3819,City Of Colorado Springs Municipal,Colorado Springs,United States,COS,KCOS,38.805805,-104.700778,6187,-7,A,"Colorado Springs, CO",943,943,948,948,6.107104984093321,17.01590668080597,19.0,75.0,"Sun, Oct 28, 2012","Sat, Oct  6, 2012"
3719,Columbia Regional,Columbia,United States,COU,KCOU,38.818094,-92.219631,889,-6,A,"Columbia, MO",90,90,90,90,3.433333333333333,10.7,6.0,33.0,"Fri, Oct 12, 2012","Sun, Oct 28, 2012"
3872,Natrona County International,Casper,United States,CPR,KCPR,42.908,-106.464417,5347,-7,A,"Casper, WY",200,200,202,202,4.074999999999996,11.429999999999993,8.0,31.0,"Mon, Oct 15, 2012","Wed, Oct  3, 2012"
3744,Corpus Christi International,Corpus Christi,United States,CRP,KCRP,27.770361,-97.501222,44,-6,A,"Corpus Christi, TX",593,592,595,595,4.104553119730191,9.98141891891893,28.0,40.0,"Mon, Oct 22, 2012","Sun, Oct 14, 2012"
4285,Yeager,Charleston,United States,CRW,KCRW,38.373147,-81.593189,981,-5,A,"Charleston/Dunbar, WV",294,294,320,319,4.054421768707481,11.1938775510204,27.0,38.0,"Tue, Oct  2, 2012","Tue, Oct 16, 2012"
4255,Columbus Metropolitan Airport,Columbus,United States,CSG,KCSG,32.5163333,-84.9388611,397,-5,A,"Columbus, GA",175,175,176,176,4.31428571428571,9.46857142857143,17.0,29.0,"Mon, Oct  8, 2012","Mon, Oct  8, 2012"
3488,Cincinnati Northern Kentucky International,Cincinnati,United States,CVG,KCVG,39.048836,-84.667822,896,-5,A,"Cincinnati, OH",2924,2923,3022,3025,5.7342681258549755,13.621279507355451,38.0,89.0,"Fri, Oct 12, 2012","Wed, Oct  3, 2012"
4045,Central Wisconsin,Wassau,United States,CWA,KCWA,44.772726,-89.646635,840,-6,A,"Mosinee, WI",130,126,138,137,3.776923076923076,9.142857142857142,10.0,68.0,"Sun, Oct 21, 2012","Wed, Oct 17, 2012"
3950,Daytona Beach International,Daytona Beach,United States,DAB,KDAB,29.179917,-81.058056,34,-5,A,"Daytona Beach, FL",125,125,125,125,4.231999999999998,15.352000000000004,8.0,47.0,"Mon, Oct 15, 2012","Mon, Oct 22, 2012"
3502,Dallas Love Field,Dallas,United States,DAL,KDAL,32.847111,-96.851778,487,-6,A,"Dallas, TX",3948,3942,3966,3966,3.886271529888551,9.607813292744789,22.0,46.0,"Mon, Oct 15, 2012","Tue, Oct 16, 2012"
3627,James M. Cox Dayton International,Dayton,United States,DAY,KDAY,39.902375,-84.219375,1009,-5,A,"Dayton, OH",1034,1031,1078,1078,6.141199226305609,12.933074684772064,45.0,66.0,"Sun, Oct 21, 2012","Tue, Oct 23, 2012"
3520,Ronald Reagan Washington National,Washington,United States,DCA,KDCA,38.852083,-77.037722,15,-5,A,"Washington, DC",5829,5825,6379,6379,5.362840967575911,18.278626609442036,59.0,145.0,"Sun, Oct  7, 2012","Wed, Oct  3, 2012"
3751,Denver International,Denver,United States,DEN,KDEN,39.861656,-104.673178,5431,-7,A,"Denver, CO",19050,19077,19305,19316,8.097690288713919,14.382187975048458,58.0,175.0,"Sun, Oct 28, 2012","Wed, Oct 24, 2012"
3670,Dallas Fort Worth International,Dallas-fort Worth,United States,DFW,KDFW,32.896828,-97.037997,607,-6,A,"Dallas/Fort Worth, TX",22990,23015,23297,23302,9.2497607655503,14.967673256571816,99.0,93.0,"Sun, Oct  7, 2012","Fri, Oct 19, 2012"
3739,Dothan Regional,Dothan,United States,DHN,KDHN,31.321339,-85.449628,401,-6,A,"Dothan, AL",118,118,118,118,3.389830508474576,15.898305084745756,6.0,84.0,"Mon, Oct  8, 2012","Mon, Oct  8, 2012"
3598,Duluth International,Duluth,United States,DLH,KDLH,46.842091,-92.193649,1428,-6,A,"Duluth, MN",243,241,245,244,5.172839506172838,14.095435684647303,16.0,43.0,"Mon, Oct 22, 2012","Thu, Oct 25, 2012"
3713,Durango La Plata County,Durango,United States,DRO,KDRO,37.151516,-107.75377,6685,-7,A,"Durango, CO",179,179,180,179,5.055865921787711,10.189944134078214,12.0,26.0,"Thu, Oct  4, 2012","Fri, Oct 12, 2012"
3792,Del Rio International,Del Rio,United States,DRT,KDRT,29.374208,-100.927158,1002,-6,A,"Del Rio, TX",57,57,57,57,4.964912280701754,10.280701754385966,24.0,20.0,"Sat, Oct 20, 2012","Fri, Oct 26, 2012"
3729,Des Moines International,Des Moines,United States,DSM,KDSM,41.533972,-93.663083,958,-6,A,"Des Moines, IA",881,880,890,890,5.038592508513058,11.980681818181818,22.0,51.0,"Sun, Oct 14, 2012","Mon, Oct 22, 2012"
3645,Detroit Metro Wayne County,Detroit,United States,DTW,KDTW,42.212444,-83.353389,645,-5,A,"Detroit, MI",8324,8330,8525,8525,8.16950985103316,17.83649459783921,53.0,110.0,"Mon, Oct 29, 2012","Mon, Oct 15, 2012"
5735,Chippewa Valley Regional Airport,Eau Claire,United States,EAU,KEAU,44.8658,-91.4843,913,-6,A,"Eau Claire, WI",61,60,62,62,3.7213114754098355,12.266666666666667,25.0,31.0,"Wed, Oct 31, 2012","Mon, Oct  8, 2012"
7669,Northwest Florida Beaches International,Panama City,United States,ECP,KECP,30.3417,-85.7973,69,-6,A,"Panama City, FL",376,376,380,380,3.7393617021276606,10.837765957446805,33.0,74.0,"Sun, Oct 21, 2012","Mon, Oct 29, 2012"
4250,Eagle County Regional,Vail,United States,EGE,KEGE,39.642556,-106.917694,6540,-7,A,"Eagle, CO",4,4,4,4,3.25,8.5,4.0,9.0,"Sat, Oct  6, 2012","Sat, Oct 20, 2012"
5736,Elko Regional Airport,Elko,United States,EKO,KEKO,40.8249,-115.792,5140,-8,A,"Elko, NV",85,85,85,85,4.270588235294117,10.294117647058824,19.0,55.0,"Sat, Oct 13, 2012","Tue, Oct 16, 2012"
3946,Elmira Corning Regional,Elmira,United States,ELM,KELM,42.159889,-76.891611,954,-5,A,"Elmira/Corning, NY",93,93,98,97,3.096774193548387,12.96774193548387,5.0,53.0,"Mon, Oct 22, 2012","Tue, Oct 16, 2012"
3559,El Paso International,El Paso,United States,ELP,KELP,31.80725,-106.377583,3958,-7,A,"El Paso, TX",1719,1717,1727,1727,3.844677137870855,12.762958648806054,15.0,76.0,"Thu, Oct 25, 2012","Wed, Oct 17, 2012"
6800,Delta County Airport,Escanaba,United States,ESC,KESC,45.722778,-87.093611,609,-5,A,"Escanaba, MI",103,103,107,107,4.184466019417473,10.300970873786408,6.0,19.0,"Sun, Oct  7, 2012","Thu, Oct 18, 2012"
4099,Mahlon Sweet Field,Eugene,United States,EUG,KEUG,44.124583,-123.211972,374,-8,A,"Eugene, OR",433,433,435,436,3.905311778290993,12.346420323325637,21.0,44.0,"Mon, Oct 22, 2012","Sat, Oct 20, 2012"
4018,Evansville Regional,Evansville,United States,EVV,KEVV,38.036997,-87.532364,418,-6,A,"Evansville, IN",309,308,312,312,3.750809061488673,12.288961038961034,10.0,102.0,"Wed, Oct 10, 2012","Wed, Oct 17, 2012"
3730,Craven County Regional,New Bern,United States,EWN,KEWN,35.072972,-77.042944,18,-5,A,"New Bern/Morehead/Beaufort, NC",85,86,88,88,2.6470588235294104,9.104651162790695,5.0,25.0,"Sun, Oct 14, 2012","Wed, Oct 10, 2012"
3494,Newark Liberty International,Newark,United States,EWR,KEWR,40.6925,-74.168667,18,-5,A,"Newark, NJ",9673,9688,10975,10947,8.694924015300316,20.25722543352598,61.0,151.0,"Thu, Oct  4, 2012","Tue, Oct  2, 2012"
3875,Key West International,Key West,United States,EYW,KEYW,24.556111,-81.759556,3,-5,A,"Key West, FL",158,158,160,160,3.8037974683544302,8.462025316455696,10.0,24.0,"Wed, Oct 17, 2012","Mon, Oct  8, 2012"
3832,Fairbanks International,Fairbanks,United States,FAI,PAFA,64.815114,-147.856267,434,-9,A,"Fairbanks, AK",335,334,337,337,3.1611940298507464,13.269461077844312,9.0,49.0,"Sun, Oct 21, 2012","Mon, Oct 29, 2012"
4292,Hector International Airport,Fargo,United States,FAR,KFAR,46.92065,-96.8157639,902,-6,A,"Fargo, ND",451,450,455,454,4.614190687361419,14.488888888888892,9.0,104.0,"Tue, Oct 23, 2012","Thu, Oct  4, 2012"
3687,Fresno Yosemite International,Fresno,United States,FAT,KFAT,36.776194,-119.71814,336,-8,A,"Fresno, CA",942,944,952,952,4.182590233545645,12.443855932203387,16.0,60.0,"Sun, Oct 14, 2012","Fri, Oct 26, 2012"
5738,Fayetteville Regional-Grannis Field,Fayetteville,United States,FAY,KFAY,34.9912,-78.8803,189,-5,A,"Fayetteville, NC",258,256,258,258,4.27519379844961,11.562500000000004,10.0,96.0,"Mon, Oct  1, 2012","Wed, Oct 10, 2012"
4127,Glacier Park International,Kalispell,United States,FCA,KFCA,48.310472,-114.256,2977,-7,A,"Kalispell, MT",143,142,145,145,3.9860139860139827,13.943661971830986,8.0,52.0,"Mon, Oct  8, 2012","Sat, Oct 27, 2012"
4261,Flagstaff Pulliam Airport,Flagstaff,United States,FLG,KFLG,35.140318,-111.6692392,7015,-7,N,"Flagstaff, AZ",155,153,155,155,4.129032258064515,13.49673202614379,11.0,33.0,"Mon, Oct 29, 2012","Wed, Oct 10, 2012"
3533,Fort Lauderdale Hollywood International,Fort Lauderdale,United States,FLL,KFLL,26.072583,-80.15275,9,-5,A,"Fort Lauderdale, FL",4890,4880,5076,5072,4.52515337423312,16.02315573770487,34.0,119.0,"Fri, Oct 19, 2012","Mon, Oct  8, 2012"
4089,Bishop International,Flint,United States,FNT,KFNT,42.965424,-83.743629,782,-5,A,"Flint, MI",219,219,219,220,5.347031963470321,10.429223744292237,14.0,53.0,"Thu, Oct 11, 2012","Tue, Oct 30, 2012"
4009,Sioux Falls,Sioux Falls,United States,FSD,KFSD,43.582014,-96.741914,1429,-6,A,"Sioux Falls, SD",543,543,547,548,4.913443830570901,14.047882136279926,19.0,83.0,"Sun, Oct  7, 2012","Mon, Oct 22, 2012"
3437,Fort Smith Regional,Fort Smith,United States,FSM,KFSM,35.336583,-94.367444,469,-6,A,"Fort Smith, AR",207,207,208,208,3.792270531400966,9.265700483091791,10.0,48.0,"Tue, Oct  9, 2012","Wed, Oct 10, 2012"
4041,Fort Wayne,Fort Wayne,United States,FWA,KFWA,40.978472,-85.195139,815,-5,A,"Fort Wayne, IN",292,292,301,301,3.7260273972602738,10.986301369863012,24.0,62.0,"Wed, Oct 17, 2012","Thu, Oct 25, 2012"
4296,Gillette-Campbell County Airport,Gillette,United States,GCC,KGCC,44.3489167,-105.5393611,4365,-7,A,"Gillette, WY",148,147,150,150,5.16891891891892,14.170068027210885,69.0,54.0,"Fri, Oct 12, 2012","Fri, Oct  5, 2012"
3497,Garden City Regional,Garden City,United States,GCK,KGCK,37.927528,-100.724417,2891,-6,A,"Garden City, KS",62,62,62,62,3.4193548387096775,9.59677419354839,6.0,40.0,"Wed, Oct 24, 2012","Fri, Oct 26, 2012"
3467,Spokane International,Spokane,United States,GEG,KGEG,47.619861,-117.533833,2376,-8,A,"Spokane, WA",848,843,850,850,3.9929245283018866,11.23843416370106,24.0,40.0,"Sat, Oct  6, 2012","Fri, Oct 26, 2012"
3442,Grand Forks International,Grand Forks,United States,GFK,KGFK,47.949256,-97.176111,845,-6,A,"Grand Forks, ND",214,214,216,216,4.556074766355137,12.738317757009346,10.0,65.0,"Tue, Oct 23, 2012","Thu, Oct  4, 2012"
3465,East Texas Regional,Longview,United States,GGG,KGGG,32.384014,-94.711486,365,-6,A,"Longview, TX",57,57,58,58,4.578947368421052,8.561403508771928,9.0,20.0,"Fri, Oct 12, 2012","Wed, Oct  3, 2012"
4063,Grand Junction Regional,Grand Junction,United States,GJT,KGJT,39.122413,-108.526735,4858,-7,A,"Grand Junction, CO",403,402,405,405,3.6550868486352357,12.388059701492535,8.0,55.0,"Fri, Oct 19, 2012","Fri, Oct 12, 2012"
3472,Gainesville Regional,Gainesville,United States,GNV,KGNV,29.690056,-82.271778,152,-5,A,"Gainesville, FL",269,269,269,269,3.479553903345725,10.825278810408921,12.0,33.0,"Tue, Oct 16, 2012","Wed, Oct 10, 2012"
4038,Gulfport-Biloxi,Gulfport,United States,GPT,KGPT,30.407278,-89.070111,28,-6,A,"Gulfport/Biloxi, MS",384,381,384,384,4.101562499999996,11.750656167979002,16.0,33.0,"Mon, Oct  8, 2012","Mon, Oct  8, 2012"
3653,Austin Straubel International,Green Bay,United States,GRB,KGRB,44.485072,-88.129589,695,-6,A,"Green Bay, WI",485,485,499,496,4.008247422680416,11.595876288659793,11.0,72.0,"Sun, Oct 28, 2012","Mon, Oct 22, 2012"
5740,Central Nebraska Regional Airport,Grand Island,United States,GRI,KGRI,40.9675,-98.3096,1847,-6,A,"Grand Island, NE",57,57,58,58,3.070175438596492,9.649122807017545,8.0,31.0,"Fri, Oct 19, 2012","Sat, Oct  6, 2012"
3775,Robert Gray AAF,Killeen,United States,GRK,KGRK,31.06725,-97.828917,1015,-6,A,"Killeen, TX",457,457,458,458,3.956236323851208,11.369803063457335,19.0,39.0,"Tue, Oct 30, 2012","Mon, Oct  8, 2012"
3685,Gerald R. Ford International,Grand Rapids,United States,GRR,KGRR,42.880833,-85.522806,794,-5,A,"Grand Rapids, MI",914,910,933,931,4.40700218818381,11.854945054945055,32.0,121.0,"Mon, Oct 22, 2012","Sun, Oct 14, 2012"
4008,Piedmont Triad,Greensboro,United States,GSO,KGSO,36.09775,-79.937306,925,-5,A,"Greensboro/High Point, NC",857,855,888,889,4.288214702450406,14.566081871345043,28.0,93.0,"Wed, Oct 24, 2012","Sun, Oct 14, 2012"
4034,Greenville-Spartanburg International,Greenville,United States,GSP,KGSP,34.895556,-82.218889,964,-5,A,"Greer, SC",751,751,776,776,3.81358189081225,11.77896138482023,29.0,85.0,"Tue, Oct  9, 2012","Mon, Oct  1, 2012"
3880,Great Falls International,Great Falls,United States,GTF,KGTF,47.482,-111.370689,3677,-7,A,"Great Falls, MT",146,146,146,146,4.143835616438356,13.753424657534246,7.0,41.0,"Sun, Oct 28, 2012","Wed, Oct  3, 2012"
4273,Golden Triangle Regional Airport,Columbus Mississippi,United States,GTR,KGTR,33.450333,-88.591361,264,-6,A,"Columbus, MS",88,88,88,88,3.090909090909091,14.693181818181815,7.0,42.0,"Wed, Oct 24, 2012","Mon, Oct  1, 2012"
7051,Gunnison - Crested Butte,Gunnison,United States,GUC,KGUC,38.533889,-106.933056,7678,-7,A,"Gunnison, CO",31,31,31,31,3.7419354838709675,9.32258064516129,6.0,26.0,"Sun, Oct  7, 2012","Tue, Oct 16, 2012"
4339,Yampa Valley,Hayden,United States,HDN,KHDN,40.481181,-107.21766,6602,-7,A,"Hayden, CO",23,24,23,24,3.782608695652174,12.708333333333334,6.0,33.0,"Wed, Oct 24, 2012","Thu, Oct 25, 2012"
3650,Chisholm Hibbing,Hibbing,United States,HIB,KHIB,47.3866,-92.838994,1353,-6,A,"Hibbing, MN",105,105,105,105,5.2666666666666675,11.466666666666669,12.0,37.0,"Sun, Oct  7, 2012","Thu, Oct 25, 2012"
3504,Helena Regional,Helena,United States,HLN,KHLN,46.606806,-111.98275,3877,-7,A,"Helena, MT",167,166,167,166,3.5988023952095807,15.891566265060241,12.0,48.0,"Thu, Oct 11, 2012","Wed, Oct 24, 2012"
3728,Honolulu International,Honolulu,United States,HNL,PHNL,21.318681,-157.922428,13,-10,N,"Honolulu, HI",4468,4461,4505,4501,6.449194270367057,13.498542927594707,60.0,65.0,"Sat, Oct  6, 2012","Wed, Oct 31, 2012"
3749,Lea County Regional,Hobbs,United States,HOB,KHOB,32.687528,-103.217028,3661,-7,A,"Hobbs, NM",47,48,48,48,4.425531914893618,11.604166666666666,11.0,23.0,"Fri, Oct 12, 2012","Fri, Oct 12, 2012"
3566,William P. Hobby,Houston,United States,HOU,KHOU,29.645419,-95.278889,46,-6,A,"Houston, TX",4633,4632,4673,4673,5.369307144398884,9.354706390328122,38.0,79.0,"Sat, Oct 13, 2012","Mon, Oct 29, 2012"
3589,Westchester County,White Plains,United States,HPN,KHPN,41.066959,-73.707575,439,-5,A,"White Plains, NY",536,541,595,598,4.511194029850745,13.462107208872455,34.0,77.0,"Sun, Oct  7, 2012","Mon, Oct 22, 2012"
3560,Valley International,Harlingen,United States,HRL,KHRL,26.2285,-97.654389,36,-6,A,"Harlingen/San Benito, TX",341,341,341,341,2.90615835777126,8.205278592375368,21.0,29.0,"Sun, Oct 14, 2012","Mon, Oct  8, 2012"
4113,Huntsville International Airport-Carl T. Jones Field,Huntsville,United States,HSV,KHSV,34.6371944,-86.7750556,629,-6,A,"Huntsville, AL",609,605,620,619,4.745484400656812,14.763636363636376,14.0,96.0,"Tue, Oct 16, 2012","Mon, Oct 29, 2012"
3714,Washington Dulles International,Washington,United States,IAD,KIAD,38.944533,-77.455811,313,-5,A,"Washington, DC",6283,6262,6873,6844,6.541461085468735,16.019163206643256,49.0,123.0,"Mon, Oct  1, 2012","Sat, Oct 20, 2012"
3550,George Bush Intercontinental Houston,Houston,United States,IAH,KIAH,29.984433,-95.341442,97,-6,A,"Houston, TX",14857,14876,15067,15064,7.003971192030689,15.390427534283482,45.0,109.0,"Mon, Oct 29, 2012","Sun, Oct 14, 2012"
3457,Wichita Mid Continent,Wichita,United States,ICT,KICT,37.649944,-97.433056,1333,-6,A,"Wichita, KS",782,782,786,786,4.682864450127874,11.948849104859331,24.0,103.0,"Thu, Oct 25, 2012","Wed, Oct 17, 2012"
4100,Idaho Falls Regional,Idaho Falls,United States,IDA,KIDA,43.514556,-112.07075,4744,-7,A,"Idaho Falls, ID",283,283,283,284,4.091872791519437,13.18374558303887,9.0,80.0,"Tue, Oct  9, 2012","Thu, Oct 11, 2012"
3845,Wilmington International,Wilmington,United States,ILM,KILM,34.270615,-77.902569,32,-5,A,"Wilmington, NC",301,300,301,301,3.691029900332226,12.910000000000002,11.0,55.0,"Fri, Oct 19, 2012","Mon, Oct  8, 2012"
6837,Ford Airport,Iron Mountain,United States,IMT,KIMT,45.8183611,-88.1145556,1182,-5,A,"Iron Mountain/Kingsfd, MI",52,51,54,53,4.134615384615385,12.941176470588236,8.0,24.0,"Tue, Oct  2, 2012","Sat, Oct  6, 2012"
3585,Indianapolis International,Indianapolis,United States,IND,KIND,39.717331,-86.294383,797,-5,A,"Indianapolis, IN",2370,2360,2410,2409,6.092827004219406,12.53855932203389,161.0,76.0,"Thu, Oct  4, 2012","Tue, Oct  9, 2012"
3535,Falls International,International Falls,United States,INL,KINL,48.566186,-93.403067,1185,-6,A,"International Falls, MN",53,52,53,52,3.9811320754716975,13.538461538461538,9.0,28.0,"Sat, Oct  6, 2012","Sun, Oct 28, 2012"
3689,Imperial County,Imperial,United States,IPL,KIPL,32.834219,-115.578744,-54,-8,A,"El Centro, CA",60,60,62,62,3.799999999999999,12.333333333333334,9.0,30.0,"Wed, Oct 10, 2012","Sat, Oct  6, 2012"
3857,Long Island MacArthur,Islip,United States,ISP,KISP,40.79525,-73.100222,99,-5,A,"Islip, NY",417,418,454,454,4.1342925659472485,8.775119617224894,9.0,48.0,"Sat, Oct 27, 2012","Wed, Oct 24, 2012"
3415,Hilo International,Hilo,United States,ITO,PHTO,19.721375,-155.048469,38,-10,N,"Hilo, HI",610,609,614,614,5.378688524590164,8.482758620689657,27.0,35.0,"Thu, Oct  4, 2012","Tue, Oct 16, 2012"
7120,Inyokern Airport,Inyokern,United States,IYK,KIYK,35.658889,-117.829444,2455,-8,A,"Inyokern, CA",52,53,53,53,4.3076923076923075,14.056603773584905,8.0,33.0,"Sun, Oct  7, 2012","Mon, Oct 15, 2012"
4027,Jackson Hole Airport,Jacksn Hole,United States,JAC,KJAC,43.60733333,-110.73775,6451,-7,A,"Jackson, WY",157,157,157,158,3.267515923566879,15.770700636942669,5.0,57.0,"Thu, Oct  4, 2012","Thu, Oct 25, 2012"
3580,Jackson Evers International,Jackson,United States,JAN,KJAN,32.311167,-90.075889,346,-6,A,"Jackson/Vicksburg, MS",782,782,785,785,4.4156010230179055,11.402813299232728,20.0,56.0,"Mon, Oct  8, 2012","Mon, Oct  8, 2012"
3712,Jacksonville International,Jacksonville,United States,JAX,KJAX,30.494056,-81.687861,30,-5,A,"Jacksonville, FL",1920,1916,1963,1964,5.1625,13.002609603340293,37.0,77.0,"Thu, Oct  4, 2012","Mon, Oct 22, 2012"
3797,John F. Kennedy International,New York,United States,JFK,KJFK,40.639751,-73.778925,13,-5,A,"New York, NY",7405,7410,8161,8162,8.656853477380142,24.463427800269912,61.0,135.0,"Sun, Oct 28, 2012","Thu, Oct  4, 2012"
4354,Joplin Regional,Joplin,United States,JLN,KJLN,37.151814,-94.498269,981,-6,A,"Joplin, MO",62,62,62,62,3.6129032258064515,10.451612903225806,7.0,34.0,"Fri, Oct 19, 2012","Sun, Oct 28, 2012"
3492,Juneau International,Juneau,United States,JNU,PAJN,58.354972,-134.576278,21,-9,A,"Juneau, AK",301,303,307,308,3.654485049833887,13.178217821782178,7.0,32.0,"Sun, Oct 21, 2012","Fri, Oct 19, 2012"
3514,Kona International At Keahole,Kona,United States,KOA,PHKO,19.738767,-156.045631,47,-10,N,"Kona, HI",1007,1006,1012,1012,4.761668321747767,10.086481113320081,17.0,48.0,"Sat, Oct 27, 2012","Fri, Oct 19, 2012"
3808,Ketchikan International,Ketchikan,United States,KTN,PAKT,55.355556,-131.71375,88,-9,A,"Ketchikan, AK",182,184,186,186,3.9450549450549453,10.413043478260866,9.0,27.0,"Thu, Oct 25, 2012","Sun, Oct 28, 2012"
3544,Capital City,Lansing,United States,LAN,KLAN,42.7787,-84.587357,861,-5,A,"Lansing, MI",82,82,88,88,4.109756097560975,11.548780487804878,13.0,128.0,"Sun, Oct 14, 2012","Sun, Oct 14, 2012"
3877,McCarran International,Las Vegas,United States,LAS,KLAS,36.080056,-115.15225,2141,-8,A,"Las Vegas, NV",12236,12226,12373,12373,6.869973847662625,14.269344020938982,97.0,108.0,"Thu, Oct 11, 2012","Sun, Oct 14, 2012"
4256,Lawton-Fort Sill Regional Airport,Lawton,United States,LAW,KLAW,34.5677144,-98.4166367,1110,-6,A,"Lawton/Fort Sill, OK",186,186,186,186,3.9677419354838683,8.6989247311828,9.0,54.0,"Fri, Oct 12, 2012","Mon, Oct 22, 2012"
3484,Los Angeles International,Los Angeles,United States,LAX,KLAX,33.942536,-118.408075,126,-8,A,"Los Angeles, CA",18184,18194,18545,18539,10.462879454465458,16.50241837968563,124.0,117.0,"Sun, Oct 28, 2012","Wed, Oct 24, 2012"
3829,Lubbock Preston Smith International,Lubbock,United States,LBB,KLBB,33.663639,-101.822778,3282,-6,A,"Lubbock, TX",670,668,670,670,3.743283582089552,9.122754491017966,12.0,68.0,"Tue, Oct 23, 2012","Mon, Oct  8, 2012"
3513,Lake Charles Regional,Lake Charles,United States,LCH,KLCH,30.126112,-93.223335,15,-6,A,"Lake Charles, LA",174,174,174,174,4.344827586206894,8.816091954022994,8.0,44.0,"Thu, Oct  4, 2012","Sun, Oct 14, 2012"
4017,Blue Grass,Lexington KY,United States,LEX,KLEX,38.0365,-84.605889,979,-5,A,"Lexington, KY",562,562,567,568,4.0266903914590735,12.610320284697506,27.0,117.0,"Mon, Oct 15, 2012","Mon, Oct 22, 2012"
3493,Lafayette Regional,Lafayette,United States,LFT,KLFT,30.205278,-91.987611,43,-6,A,"Lafayette, LA",516,514,518,517,5.025193798449616,12.4455252918288,26.0,72.0,"Sun, Oct 14, 2012","Fri, Oct  5, 2012"
3697,LaGuardia Airport,New York,United States,LGA,KLGA,40.777245,-73.872608,22,-5,A,"New York, NY",7674,7749,8741,8745,7.952827729997382,25.249064395405856,63.0,149.0,"Fri, Oct  5, 2012","Fri, Oct 19, 2012"
3582,Long Beach,Long Beach,United States,LGB,KLGB,33.817722,-118.151611,60,-8,A,"Long Beach, CA",1081,1078,1094,1094,4.481036077705822,13.181818181818178,41.0,105.0,"Wed, Oct 24, 2012","Thu, Oct 11, 2012"
3602,Lihue,Lihue,United States,LIH,PHLI,21.975983,-159.338958,153,-10,N,"Lihue, HI",1046,1045,1056,1056,5.152007648183563,8.449760765550225,12.0,28.0,"Thu, Oct 11, 2012","Sun, Oct 14, 2012"
3660,Adams Field,Little Rock,United States,LIT,KLIT,34.729444,-92.224306,262,-6,A,"Little Rock, AR",1326,1328,1331,1333,5.20286576168928,12.000753012048188,25.0,86.0,"Fri, Oct  5, 2012","Sat, Oct 13, 2012"
5750,Klamath Falls Airport,Klamath Falls,United States,LMT,KLMT,42.1561,-121.733,4095,-8,A,"Klamath Falls, OR",58,57,62,62,3.5689655172413794,12.526315789473685,6.0,34.0,"Thu, Oct 25, 2012","Fri, Oct 12, 2012"
3543,Lincoln,Lincoln,United States,LNK,KLNK,40.850971,-96.75925,1219,-6,A,"Lincoln, NE",275,274,278,278,4.19636363636364,10.740875912408761,27.0,48.0,"Mon, Oct  8, 2012","Sun, Oct  7, 2012"
3691,Laredo International,Laredo,United States,LRD,KLRD,27.54375,-99.461556,508,-6,A,"Laredo, TX",204,202,204,204,3.230392156862745,10.6980198019802,10.0,47.0,"Sat, Oct 20, 2012","Mon, Oct 29, 2012"
4044,LaCrosse Municipal,LaCrosse,United States,LSE,KLSE,43.878986,-91.256711,654,-6,A,"La Crosse, WI",20,20,21,21,3.05,15.05,6.0,65.0,"Fri, Oct 26, 2012","Mon, Oct 22, 2012"
3945,Lewiston Nez Perce County,Lewiston,United States,LWS,KLWS,46.3745,-117.015389,1442,-8,A,"Lewiston, ID",58,57,58,58,4.86206896551724,10.894736842105264,16.0,29.0,"Wed, Oct 31, 2012","Sun, Oct 21, 2012"
3652,Midland International,Midland,United States,MAF,KMAF,31.942528,-102.201914,2871,-6,A,"Midland/Odessa, TX",685,685,686,686,3.3211678832116776,10.154744525547441,15.0,46.0,"Wed, Oct 31, 2012","Wed, Oct 10, 2012"
4128,MBS International,Saginaw,United States,MBS,KMBS,43.532913,-84.079647,668,-5,A,"Saginaw/Bay City/Midland, MI",99,99,103,103,4.09090909090909,14.767676767676768,7.0,36.0,"Fri, Oct 26, 2012","Tue, Oct  9, 2012"
3458,Kansas City International,Kansas City,United States,MCI,KMCI,39.297606,-94.713905,1026,-6,A,"Kansas City, MO",4179,4176,4228,4230,5.281646326872457,11.21144636015326,51.0,78.0,"Thu, Oct 18, 2012","Thu, Oct 25, 2012"
3878,Orlando International,Orlando,United States,MCO,KMCO,28.429394,-81.308994,96,-5,A,"Orlando, FL",8947,8954,9220,9216,7.156477031407174,13.9320973866428,58.0,75.0,"Mon, Oct  8, 2012","Sun, Oct 14, 2012"
3542,Harrisburg International,Harrisburg,United States,MDT,KMDT,40.193494,-76.763403,310,-5,A,"Harrisburg, PA",491,495,525,528,4.274949083503053,12.559595959595962,18.0,73.0,"Fri, Oct 19, 2012","Mon, Oct 22, 2012"
3747,Chicago Midway International,Chicago,United States,MDW,KMDW,41.785972,-87.752417,620,-6,A,"Chicago, IL",7342,7351,7462,7465,6.0961590847180664,10.428105019725184,73.0,85.0,"Tue, Oct 23, 2012","Thu, Oct 25, 2012"
3473,Memphis International,Memphis,United States,MEM,KMEM,35.042417,-89.976667,341,-6,A,"Memphis, TN",2761,2761,2803,2805,5.590727997102486,16.317638536762065,54.0,79.0,"Wed, Oct 17, 2012","Wed, Oct 17, 2012"
3826,McAllen Miller International,Mcallen,United States,MFE,KMFE,26.175833,-98.238611,107,-6,A,"Mission/McAllen/Edinburg, TX",338,339,343,343,4.378698224852072,10.902654867256647,27.0,29.0,"Fri, Oct 26, 2012","Sun, Oct 14, 2012"
4101,Rogue Valley International Medford,Medford,United States,MFR,KMFR,42.374228,-122.8735,1335,-8,A,"Medford, OR",318,317,332,332,3.852201257861635,12.59621451104101,11.0,89.0,"Thu, Oct 11, 2012","Thu, Oct 25, 2012"
4115,Montgomery Regional Airport ,MONTGOMERY,United States,MGM,KMGM,32.3006389,-86.3939722,221,-6,A,"Montgomery, AL",326,326,326,326,2.7546012269938633,14.865030674846626,16.0,131.0,"Mon, Oct 15, 2012","Sat, Oct  6, 2012"
4050,Manhattan Regional,Manhattan,United States,MHK,KMHK,39.140972,-96.670833,1057,-6,A,"Manhattan/Ft. Riley, KS",149,149,151,151,3.053691275167785,11.288590604026842,6.0,35.0,"Wed, Oct 31, 2012","Mon, Oct  8, 2012"
4011,Manchester Regional Airport,Manchester NH,United States,MHT,KMHT,42.932556,-71.435667,266,-5,A,"Manchester, NH",821,820,870,871,4.807551766138864,12.973170731707322,42.0,94.0,"Sun, Oct 28, 2012","Sun, Oct 14, 2012"
3576,Miami International,Miami,United States,MIA,KMIA,25.79325,-80.290556,8,-5,A,"Miami, FL",5700,5696,5902,5902,8.091929824561436,16.65150983146073,56.0,89.0,"Wed, Oct  3, 2012","Tue, Oct  2, 2012"
3717,General Mitchell International,Milwaukee,United States,MKE,KMKE,42.947222,-87.896583,723,-6,A,"Milwaukee, WI",3032,3035,3113,3115,5.405343007915572,11.781878088962104,48.0,109.0,"Thu, Oct 18, 2012","Wed, Oct  3, 2012"
5754,Muskegon County Airport,Muskegon,United States,MKG,KMKG,43.1695,-86.2382,628,-5,A,"Muskegon, MI",60,60,62,62,4.216666666666666,12.3,6.0,69.0,"Wed, Oct 17, 2012","Thu, Oct 25, 2012"
3671,Melbourne International,Melbourne,United States,MLB,KMLB,28.102753,-80.645258,33,-5,A,"Melbourne, FL",123,122,123,123,4.951219512195121,14.950819672131146,9.0,45.0,"Tue, Oct  2, 2012","Tue, Oct  9, 2012"
4072,Quad City International,Moline,United States,MLI,KMLI,41.448528,-90.507539,590,-6,A,"Moline, IL",300,300,304,304,3.73,10.109999999999998,16.0,87.0,"Fri, Oct  5, 2012","Sun, Oct 14, 2012"
3732,Monroe Regional,Monroe,United States,MLU,KMLU,32.510864,-92.037689,79,-6,A,"Monroe, LA",294,291,296,296,4.231292517006805,10.336769759450174,17.0,48.0,"Thu, Oct 11, 2012","Thu, Oct  4, 2012"
3782,Mobile Regional,Mobile,United States,MOB,KMOB,30.691231,-88.242814,219,-6,A,"Mobile, AL",454,454,456,456,3.9779735682819313,10.42511013215859,16.0,46.0,"Mon, Oct 15, 2012","Mon, Oct  1, 2012"
3816,Modesto City County Harry Sham,Modesto,United States,MOD,KMOD,37.625817,-120.954422,97,-8,A,"Modesto, CA",87,87,93,93,3.045977011494253,13.218390804597702,6.0,63.0,"Fri, Oct 12, 2012","Sun, Oct  7, 2012"
3498,Minot International,Minot,United States,MOT,KMOT,48.259378,-101.280333,1716,-6,A,"Minot, ND",247,246,251,251,5.170040485829965,14.455284552845528,61.0,47.0,"Sun, Oct 28, 2012","Sun, Oct 28, 2012"
6838,Sawyer International Airport,Marquette,United States,MQT,KMQT,46.353611,-87.395278,1221,-5,A,"Marquette, MI",27,27,27,27,4.62962962962963,13.777777777777779,8.0,40.0,"Fri, Oct 12, 2012","Wed, Oct 31, 2012"
3948,Monterey Peninsula,Monterey,United States,MRY,KMRY,36.587,-121.842944,257,-8,A,"Monterey, CA",493,494,516,516,3.286004056795132,13.95546558704453,10.0,80.0,"Sun, Oct  7, 2012","Wed, Oct  3, 2012"
3459,Dane County Regional-Truax Field,Madison,United States,MSN,KMSN,43.139858,-89.337514,887,-6,A,"Madison, WI",794,795,814,815,4.2367758186398,12.260377358490576,28.0,100.0,"Mon, Oct 22, 2012","Sun, Oct 14, 2012"
4216,Missoula International,Missoula,United States,MSO,KMSO,46.916306,-114.090556,3205,-7,A,"Missoula, MT",232,232,232,232,4.525862068965521,12.0301724137931,10.0,47.0,"Wed, Oct 17, 2012","Thu, Oct 25, 2012"
3858,Minneapolis St. Paul International,Minneapolis,United States,MSP,KMSP,44.881956,-93.221767,841,-6,A,"Minneapolis, MN",9598,9582,9731,9716,6.279641591998331,16.1171989146316,87.0,126.0,"Fri, Oct  5, 2012","Thu, Oct 25, 2012"
3861,Louis Armstrong New Orleans International,New Orleans,United States,MSY,KMSY,29.993389,-90.258028,4,-6,A,"New Orleans, LA",3140,3135,3185,3183,4.928980891719743,10.551834130781476,42.0,64.0,"Thu, Oct 18, 2012","Fri, Oct 26, 2012"
6880,Montrose Regional Airport,Montrose CO,United States,MTJ,KMTJ,38.509794,-107.894242,5759,-7,A,"Montrose/Delta, CO",92,91,93,93,3.967391304347828,11.483516483516485,6.0,24.0,"Tue, Oct  2, 2012","Sat, Oct 13, 2012"
4265,Martha's Vineyard,Vineyard Haven MA,United States,MVY,KMVY,41.391667,-70.615278,67,-5,A,"Martha's Vineyard, MA",5,5,5,5,2.8,10.2,3.0,21.0,"Sun, Oct  7, 2012","Sat, Oct  6, 2012"
3515,Myrtle Beach International,Myrtle Beach,United States,MYR,KMYR,33.67975,-78.928333,25,-5,A,"Myrtle Beach, SC",324,322,331,331,3.614197530864199,14.537267080745348,28.0,76.0,"Sun, Oct 28, 2012","Wed, Oct  3, 2012"
4386,Albert J. Ellis,Jacksonville NC,United States,OAJ,KOAJ,34.829164,-77.612139,94,-5,A,"Jacksonville/Camp Lejeune, NC",142,142,144,144,2.619718309859155,11.0,6.0,58.0,"Wed, Oct 31, 2012","Wed, Oct 10, 2012"
3453,Metropolitan Oakland International,Oakland,United States,OAK,KOAK,37.721278,-122.220722,9,-8,A,"Oakland, CA",3812,3817,3857,3858,6.011280167890869,12.19360754519256,35.0,70.0,"Sun, Oct 14, 2012","Sun, Oct 21, 2012"
3456,Kahului,Kahului,United States,OGG,PHOG,20.89865,-156.430458,54,-10,N,"Kahului, HI",1949,1948,1959,1961,5.571062083119548,9.038501026694037,30.0,44.0,"Thu, Oct  4, 2012","Fri, Oct 12, 2012"
3863,Will Rogers World,Oklahoma City,United States,OKC,KOKC,35.393089,-97.600733,1295,-6,A,"Oklahoma City, OK",1822,1826,1836,1838,4.726125137211849,11.611719605695505,53.0,152.0,"Sat, Oct 13, 2012","Sun, Oct 14, 2012"
3454,Eppley Airfield,Omaha,United States,OMA,KOMA,41.303167,-95.894069,984,-6,A,"Omaha, NE",1645,1640,1660,1661,4.293009118541026,12.09695121951219,23.0,101.0,"Thu, Oct 25, 2012","Mon, Oct 22, 2012"
3615,Nome,Nome,United States,OME,PAOM,64.512203,-165.445247,37,-9,A,"Nome, AK",83,83,93,93,3.9156626506024095,6.349397590361443,8.0,23.0,"Sat, Oct 13, 2012","Wed, Oct 24, 2012"
3734,Ontario International,Ontario,United States,ONT,KONT,34.056,-117.601194,944,-8,A,"Ontario, CA",1809,1811,1822,1822,4.537313432835828,10.368304803975716,24.0,59.0,"Tue, Oct  9, 2012","Thu, Oct 11, 2012"
3830,Chicago O'Hare International,Chicago,United States,ORD,KORD,41.978603,-87.904842,668,-6,A,"Chicago, IL",26151,26238,27001,27039,9.05678559137325,17.029956551566475,73.0,163.0,"Sun, Oct 28, 2012","Sun, Oct 14, 2012"
3611,Norfolk International,Norfolk,United States,ORF,KORF,36.894611,-76.201222,26,-5,A,"Norfolk, VA",1331,1331,1421,1421,3.975957926371148,12.760330578512397,25.0,87.0,"Thu, Oct 25, 2012","Tue, Oct 16, 2012"
5757,Southwest Oregon Regional Airport,North Bend,United States,OTH,KOTH,43.4171,-124.246,17,-8,A,"North Bend/Coos Bay, OR",58,57,62,62,3.258620689655173,10.473684210526319,8.0,28.0,"Sun, Oct 14, 2012","Mon, Oct 15, 2012"
3693,Ralph Wien Memorial,Kotzebue,United States,OTZ,PAOT,66.884678,-162.59855,11,-9,A,"Kotzebue, AK",89,92,93,93,3.7191011235955056,5.304347826086956,8.0,14.0,"Sat, Oct  6, 2012","Mon, Oct 15, 2012"
4117,Barkley Regional Airport,PADUCAH,United States,PAH,KPAH,37.0602875,-88.7729583,410,-6,A,"Paducah, KY",61,60,62,62,4.60655737704918,10.866666666666667,9.0,22.0,"Fri, Oct 12, 2012","Mon, Oct 22, 2012"
3722,Palm Beach International,West Palm Beach,United States,PBI,KPBI,26.683161,-80.095589,19,-5,A,"West Palm Beach/Palm Beach, FL",1608,1606,1693,1691,4.637437810945267,13.249688667496882,15.0,62.0,"Mon, Oct 22, 2012","Sun, Oct 28, 2012"
3720,Portland International,Portland,United States,PDX,KPDX,45.588722,-122.5975,30,-8,A,"Portland, OR",4456,4449,4489,4491,4.214991023339322,11.39447066756574,37.0,60.0,"Sat, Oct 13, 2012","Thu, Oct 25, 2012"
3633,Newport News Williamsburg International,Newport News,United States,PHF,KPHF,37.131894,-76.492989,43,-5,A,"Newport News/Williamsburg, VA",185,185,200,200,5.524324324324322,11.789189189189187,12.0,50.0,"Mon, Oct  8, 2012","Mon, Oct  1, 2012"
3752,Philadelphia International,Philadelphia,United States,PHL,KPHL,39.871944,-75.241139,36,-5,A,"Philadelphia, PA",6052,6064,6564,6570,6.788995373430271,20.472460422163635,39.0,110.0,"Tue, Oct  2, 2012","Mon, Oct 22, 2012"
3462,Phoenix Sky Harbor International,Phoenix,United States,PHX,KPHX,33.434278,-112.011583,1135,-7,N,"Phoenix, AZ",14738,14759,14901,14896,7.249558963224316,14.747272850464112,126.0,107.0,"Wed, Oct  3, 2012","Fri, Oct 19, 2012"
4046,Peoria Regional,Peoria,United States,PIA,KPIA,40.664203,-89.693258,660,-6,A,"Peoria, IL",349,346,353,352,3.578796561604586,11.88150289017341,14.0,47.0,"Fri, Oct 12, 2012","Sat, Oct  6, 2012"
5760,Pocatello Regional Airport,Pocatello,United States,PIH,KPIH,42.9098,-112.596,4452,-7,A,"Pocatello, ID",84,84,85,85,3.761904761904762,10.57142857142858,6.0,38.0,"Wed, Oct 31, 2012","Tue, Oct 16, 2012"
3570,Pittsburgh International,Pittsburgh (pennsylva),United States,PIT,KPIT,40.491467,-80.232872,1204,-5,A,"Pittsburgh, PA",2711,2712,2803,2807,5.399483585392846,13.222713864306781,39.0,72.0,"Thu, Oct 18, 2012","Tue, Oct  2, 2012"
3564,Pensacola Regional,Pensacola,United States,PNS,KPNS,30.473425,-87.186611,121,-6,A,"Pensacola, FL",788,787,791,790,4.265228426395943,12.263024142312577,39.0,78.0,"Mon, Oct 22, 2012","Mon, Oct 29, 2012"
6133,Tri Cities Airport,Pasco,United States,PSC,PSC,46.2647,-119.119,410,-8,A,"Pasco/Kennewick/Richland, WA",247,245,247,245,4.615384615384615,11.048979591836732,8.0,47.0,"Fri, Oct  5, 2012","Fri, Oct  5, 2012"
4147,Petersburg James A. Johnson,Petersburg,United States,PSG,PAPG,56.801667,-132.945278,105,-9,A,"Petersburg, AK",59,60,62,62,3.76271186440678,8.549999999999995,7.0,33.0,"Fri, Oct 26, 2012","Sat, Oct 13, 2012"
3839,Palm Springs International,Palm Springs,United States,PSP,KPSP,33.829667,-116.506694,477,-8,A,"Palm Springs, CA",875,873,880,880,5.094857142857148,13.353951890034368,28.0,110.0,"Tue, Oct  9, 2012","Thu, Oct 25, 2012"
3641,Theodore Francis Green State,Providence,United States,PVD,KPVD,41.732581,-71.420383,55,-5,A,"Providence, RI",1120,1116,1202,1199,4.337500000000004,12.412186379928313,14.0,86.0,"Mon, Oct 15, 2012","Wed, Oct 10, 2012"
3862,Portland International Jetport,Portland,United States,PWM,KPWM,43.646161,-70.309281,77,-5,A,"Portland, ME",547,547,593,594,3.6563071297989027,13.43327239488117,21.0,77.0,"Sun, Oct 28, 2012","Sat, Oct 20, 2012"
4087,Rapid City Regional Airport,Rapid City,United States,RAP,KRAP,44.045278,-103.057222,3204,-7,A,"Rapid City, SD",420,421,423,425,4.430952380952376,14.14251781472684,29.0,116.0,"Mon, Oct 29, 2012","Sun, Oct 14, 2012"
4098,Redding Municipal,Redding,United States,RDD,KRDD,40.509,-122.293389,504,-8,A,"Redding, CA",120,119,122,122,3.908333333333333,11.882352941176471,6.0,40.0,"Tue, Oct 23, 2012","Wed, Oct 31, 2012"
4103,Roberts Field,Redmond-Bend,United States,RDM,KRDM,44.254066,-121.149964,3077,-8,A,"Bend/Redmond, OR",267,268,270,270,3.48689138576779,10.216417910447756,7.0,38.0,"Thu, Oct  4, 2012","Mon, Oct 22, 2012"
3626,Raleigh Durham International,Raleigh-durham,United States,RDU,KRDU,35.877639,-78.787472,435,-5,A,"Raleigh/Durham, NC",3834,3829,4016,4019,4.729786124152316,14.749281796813797,27.0,111.0,"Wed, Oct 31, 2012","Fri, Oct 19, 2012"
4028,Chicago Rockford International Airport ,Rockford,United States,RFD,KRFD,42.1953611,-89.0972222,742,-6,A,"Rockford, IL",1,1,1,1,7.0,9.0,7.0,9.0,"Sun, Oct 21, 2012","Mon, Oct 22, 2012"
3608,Richmond International,Richmond,United States,RIC,KRIC,37.505167,-77.319667,167,-5,A,"Richmond, VA",1323,1326,1394,1395,5.237339380196526,14.077677224736053,16.0,90.0,"Wed, Oct 10, 2012","Mon, Oct  8, 2012"
5766,Rock Springs Sweetwater County Airport,Rock Springs,United States,RKS,KRKS,41.5942,-109.065,6760,-7,A,"Rock Springs, WY",185,184,186,186,3.9621621621621608,11.625,7.0,46.0,"Tue, Oct  2, 2012","Thu, Oct 25, 2012"
3807,Reno Tahoe International,Reno,United States,RNO,KRNO,39.499108,-119.768108,4415,-8,A,"Reno, NV",1531,1531,1539,1539,4.610058785107775,10.9092096668844,46.0,92.0,"Wed, Oct 17, 2012","Sun, Oct 14, 2012"
4016,Roanoke Regional,Roanoke VA,United States,ROA,KROA,37.325472,-79.975417,1175,-5,A,"Roanoke, VA",240,241,265,265,4.8666666666666645,14.269709543568462,13.0,44.0,"Wed, Oct 17, 2012","Fri, Oct 19, 2012"
3622,Greater Rochester International,Rochester,United States,ROC,KROC,43.118866,-77.672389,559,-5,A,"Rochester, NY",813,810,851,853,5.749077490774908,11.60123456790123,26.0,53.0,"Thu, Oct  4, 2012","Fri, Oct 12, 2012"
3736,Roswell International Air Center,Roswell,United States,ROW,KROW,33.301556,-104.530556,3671,-7,A,"Roswell, NM",89,89,89,89,3.764044943820225,8.96629213483146,8.0,45.0,"Sat, Oct 13, 2012","Sat, Oct  6, 2012"
4048,Rochester,Rochester,United States,RST,KRST,43.908283,-92.500014,1317,-6,A,"Rochester, MN",82,83,82,83,3.975609756097562,13.373493975903614,7.0,30.0,"Sun, Oct  7, 2012","Sat, Oct 20, 2012"
3793,Southwest Florida International,Fort Myers,United States,RSW,KRSW,26.536167,-81.755167,30,-5,A,"Fort Myers, FL",1784,1784,1846,1844,4.547645739910305,11.590807174887901,37.0,83.0,"Sat, Oct 13, 2012","Wed, Oct  3, 2012"
3784,Santa Fe Municipal,Santa Fe,United States,SAF,KSAF,35.617108,-106.089422,6348,-7,A,"Santa Fe, NM",124,123,124,124,4.879032258064515,12.46341463414634,17.0,110.0,"Thu, Oct  4, 2012","Sat, Oct 13, 2012"
3731,San Diego International,San Diego,United States,SAN,KSAN,32.733556,-117.189667,17,-8,A,"San Diego, CA",6254,6274,6427,6430,4.001598976654946,13.797099139305061,64.0,82.0,"Wed, Oct  3, 2012","Sun, Oct 14, 2012"
3621,San Antonio International,San Antonio,United States,SAT,KSAT,29.533694,-98.469778,809,-6,A,"San Antonio, TX",3339,3337,3363,3364,4.489368074273731,12.30836080311658,86.0,83.0,"Fri, Oct 26, 2012","Wed, Oct 10, 2012"
3613,Savannah Hilton Head International,Savannah,United States,SAV,KSAV,32.127583,-81.202139,51,-5,A,"Savannah, GA",791,784,806,806,5.257901390644756,14.419642857142847,30.0,66.0,"Wed, Oct 31, 2012","Sun, Oct  7, 2012"
3949,Santa Barbara Municipal,Santa Barbara,United States,SBA,KSBA,34.426211,-119.840372,10,-8,A,"Santa Barbara, CA",889,887,911,911,4.4859392575928085,11.615558060879378,33.0,78.0,"Fri, Oct 12, 2012","Sun, Oct 21, 2012"
4359,South Bend Regional,South Bend,United States,SBN,KSBN,41.708661,-86.31725,799,-5,A,"South Bend, IN",359,359,365,366,3.7743732590529246,11.749303621169922,31.0,69.0,"Mon, Oct  8, 2012","Wed, Oct 17, 2012"
5768,San Luis County Regional Airport,San Luis Obispo,United States,SBP,KSBP,35.2368,-120.642,212,-8,A,"San Luis Obispo, CA",369,369,393,393,3.2710027100271004,11.48509485094851,7.0,60.0,"Sat, Oct 13, 2012","Sun, Oct  7, 2012"
3620,Deadhorse,Deadhorse,United States,SCC,PASC,70.19475,-148.465167,64,-9,A,"Deadhorse, AK",58,58,58,58,4.655172413793103,7.086206896551725,7.0,28.0,"Tue, Oct 30, 2012","Thu, Oct 11, 2012"
4014,Louisville International Airport,Louisville,United States,SDF,KSDF,38.1740858,-85.7364989,501,-5,A,"Louisville, KY",1283,1286,1308,1311,5.854247856586124,12.724727838258167,26.0,88.0,"Wed, Oct 10, 2012","Mon, Oct 29, 2012"
3577,Seattle Tacoma International,Seattle,United States,SEA,KSEA,47.449,-122.309306,433,-8,A,"Seattle, WA",8007,8010,8098,8100,6.323466966404403,14.515980024968789,68.0,75.0,"Wed, Oct 17, 2012","Sun, Oct 14, 2012"
3469,San Francisco International,San Francisco,United States,SFO,KSFO,37.618972,-122.374889,13,-8,A,"San Francisco, CA",14283,14319,14756,14764,7.450885668276975,18.085620504225258,68.0,99.0,"Mon, Oct 22, 2012","Thu, Oct 11, 2012"
4348,Springfield Branson National,Springfield,United States,SGF,KSGF,37.245667,-93.388639,1268,-6,A,"Springfield, MO",566,563,570,570,4.3551236749116615,12.285968028419182,16.0,55.0,"Sat, Oct 13, 2012","Thu, Oct 25, 2012"
4064,St. George Municipal,Saint George,United States,SGU,KSGU,37.090583,-113.593056,2941,-7,A,"St. George, UT",173,173,174,174,3.739884393063584,10.71676300578034,7.0,36.0,"Thu, Oct  4, 2012","Thu, Oct 11, 2012"
3609,Shreveport Regional,Shreveport,United States,SHV,KSHV,32.446629,-93.8256,258,-6,A,"Shreveport, LA",665,665,667,667,4.649624060150376,9.222556390977438,16.0,68.0,"Wed, Oct 10, 2012","Fri, Oct 26, 2012"
3856,Sitka Rocky Gutierrez,Sitka,United States,SIT,PASI,57.047138,-135.361611,21,-9,A,"Sitka, AK",92,92,93,93,4.065217391304348,11.521739130434783,8.0,50.0,"Sun, Oct  7, 2012","Sun, Oct 14, 2012"
3748,Norman Y. Mineta San Jose International,San Jose,United States,SJC,KSJC,37.3626,-121.929022,62,-8,A,"San Jose, CA",3322,3320,3346,3345,3.964780252859731,11.406927710843387,31.0,99.0,"Wed, Oct  3, 2012","Wed, Oct 17, 2012"
3708,San Angelo Regional-Mathis Field,San Angelo,United States,SJT,KSJT,31.35775,-100.496306,1919,-6,A,"San Angelo, TX",120,120,120,120,2.691666666666667,9.149999999999999,5.0,32.0,"Mon, Oct  8, 2012","Mon, Oct  8, 2012"
3536,Salt Lake City International,Salt Lake City,United States,SLC,KSLC,40.788389,-111.977772,4227,-7,A,"Salt Lake City, UT",9102,9113,9164,9160,5.869259503405844,17.41654778887309,52.0,113.0,"Tue, Oct  9, 2012","Thu, Oct 11, 2012"
3817,Sacramento International,Sacramento,United States,SMF,KSMF,38.695417,-121.590778,27,-8,A,"Sacramento, CA",3648,3649,3679,3678,4.827302631578945,10.698273499588936,28.0,122.0,"Mon, Oct  1, 2012","Sun, Oct 21, 2012"
5772,Santa Maria Public-Captain G. Allan Hancock Airport,Santa Maria,United States,SMX,KSMX,34.8989,-120.457,261,-8,A,"Santa Maria, CA",113,112,119,119,3.8053097345132745,10.857142857142856,8.0,26.0,"Fri, Oct 26, 2012","Sun, Oct 21, 2012"
3867,John Wayne Airport Orange County,Santa Ana,United States,SNA,KSNA,33.675667,-117.868222,56,-8,A,"Santa Ana, CA",3364,3355,3402,3402,5.700059453032114,12.232190760059613,52.0,97.0,"Wed, Oct  3, 2012","Wed, Oct  3, 2012"
4336,Abraham Lincoln Capital,Springfield,United States,SPI,KSPI,39.8441,-89.677889,597,-6,A,"Springfield, IL",151,150,153,153,3.89403973509934,9.406666666666665,9.0,39.0,"Mon, Oct 29, 2012","Thu, Oct 25, 2012"
3680,Sheppard AFB Wichita Falls Municipal,Wichita Falls,United States,SPS,KSPS,33.988797,-98.491894,1019,-6,A,"Wichita Falls, TX",124,124,124,124,9.209677419354842,11.120967741935484,19.0,78.0,"Wed, Oct 31, 2012","Wed, Oct 10, 2012"
4067,Sarasota Bradenton International,Sarasota,United States,SRQ,KSRQ,27.395444,-82.554389,30,-5,A,"Sarasota/Bradenton, FL",268,266,276,275,4.772388059701496,12.781954887218046,18.0,29.0,"Mon, Oct 15, 2012","Mon, Oct 15, 2012"
3678,Lambert St. Louis International,St. Louis,United States,STL,KSTL,38.748697,-90.370028,618,-6,A,"St. Louis, MO",4754,4746,4848,4846,5.255784602440067,11.593552465233877,48.0,94.0,"Fri, Oct 26, 2012","Thu, Oct 25, 2012"
6494,Friedman Memorial,Hailey,United States,SUN,KSUN,43.504444,-114.296194,5320,-7,A,"Sun Valley/Hailey/Ketchum, ID",120,119,124,124,3.1416666666666666,8.51260504201681,9.0,36.0,"Wed, Oct 10, 2012","Wed, Oct  3, 2012"
3753,Sioux Gateway-Colonel Bud Day Field,Sioux City,United States,SUX,KSUX,42.402603,-96.384367,1098,-6,A,"Sioux City, IA",58,58,58,58,3.293103448275862,11.586206896551724,10.0,26.0,"Thu, Oct 25, 2012","Mon, Oct 29, 2012"
3661,Stewart International,Newburgh,United States,SWF,KSWF,41.504094,-74.104839,491,-5,A,"Newburgh/Poughkeepsie, NY",58,57,62,62,5.206896551724136,13.508771929824562,9.0,31.0,"Sun, Oct 21, 2012","Wed, Oct  3, 2012"
3745,Syracuse Hancock International,Syracuse,United States,SYR,KSYR,43.111187,-76.106311,421,-5,A,"Syracuse, NY",642,642,672,673,4.741433021806854,13.33489096573209,37.0,89.0,"Sat, Oct 13, 2012","Thu, Oct  4, 2012"
3698,Tallahassee Regional,Tallahassee,United States,TLH,KTLH,30.396528,-84.350333,81,-5,A,"Tallahassee, FL",348,347,352,352,3.5689655172413794,13.164265129682997,12.0,72.0,"Fri, Oct 19, 2012","Mon, Oct 29, 2012"
3646,Tampa International,Tampa,United States,TPA,KTPA,27.975472,-82.53325,26,-5,A,"Tampa, FL",5057,5051,5192,5190,4.573660272889059,11.443278558701223,38.0,118.0,"Sun, Oct  7, 2012","Sun, Oct 14, 2012"
4116,Tri-Cities Regional Airport,BRISTOL,United States,TRI,KTRI,36.4752222,-82.4074167,1519,-5,A,"Bristol/Johnson City/Kingsport, TN",228,228,229,229,3.9078947368421053,14.93421052631579,14.0,67.0,"Sun, Oct  7, 2012","Mon, Oct  1, 2012"
3855,Tulsa International,Tulsa,United States,TUL,KTUL,36.198389,-95.888111,677,-6,A,"Tulsa, OK",1704,1704,1716,1715,4.394953051643186,11.687206572769956,36.0,68.0,"Sun, Oct 21, 2012","Mon, Oct 22, 2012"
3636,Tucson International,Tucson,United States,TUS,KTUS,32.116083,-110.941028,2643,-7,N,"Tucson, AZ",1635,1638,1640,1640,4.455045871559644,11.122710622710628,32.0,52.0,"Tue, Oct 16, 2012","Thu, Oct 18, 2012"
4023,Cherry Capital Airport,Traverse City,United States,TVC,KTVC,44.741445,-85.582235,624,-5,A,"Traverse City, MI",183,185,187,189,3.601092896174864,9.389189189189198,13.0,27.0,"Fri, Oct 26, 2012","Mon, Oct 22, 2012"
4263,Magic Valley Regional Airport,Twin Falls,United States,TWF,KTWF,42.481803,-114.487733,4151,-7,A,"Twin Falls, ID",89,88,89,89,3.4269662921348316,11.954545454545457,6.0,27.0,"Sun, Oct  7, 2012","Tue, Oct 16, 2012"
3770,Texarkana Regional-Webb Field,Texarkana,United States,TXK,KTXK,33.453722,-93.991028,390,-6,A,"Texarkana, AR",89,89,89,89,3.2134831460674156,9.325842696629211,6.0,37.0,"Thu, Oct  4, 2012","Sun, Oct 28, 2012"
3848,Tyler Pounds Regional,Tyler,United States,TYR,KTYR,32.354139,-95.402386,544,-6,A,"Tyler, TX",236,236,236,236,3.76271186440678,9.144067796610168,9.0,22.0,"Fri, Oct 19, 2012","Sun, Oct  7, 2012"
3676,McGhee Tyson,Knoxville,United States,TYS,KTYS,35.810972,-83.994028,981,-5,A,"Knoxville, TN",846,850,865,865,3.5106382978723403,12.688235294117646,34.0,67.0,"Thu, Oct 18, 2012","Mon, Oct  1, 2012"
5776,Valdosta Regional Airport,Valdosta,United States,VLD,KVLD,30.7825,-83.2767,203,-5,A,"Valdosta, GA",88,88,88,88,3.4886363636363638,11.18181818181818,7.0,34.0,"Thu, Oct 11, 2012","Mon, Oct  1, 2012"
3873,Eglin AFB,Valparaiso,United States,VPS,KVPS,30.48325,-86.5254,87,-6,A,"Valparaiso, FL",530,529,530,530,6.641509433962264,14.122873345935728,15.0,80.0,"Thu, Oct 18, 2012","Tue, Oct 16, 2012"
5969,Wrangell Airport,Wrangell,United States,WRG,PAWG,56.4843,-132.37,44,-9,A,"Wrangell, AK",59,59,62,62,3.6440677966101696,8.101694915254237,8.0,25.0,"Mon, Oct 15, 2012","Sat, Oct 13, 2012"
4356,NW Arkansas Regional,Bentonville,United States,XNA,KXNA,36.2818694,-94.3068111,1287,-6,A,"Fayetteville, AR",1103,1099,1122,1120,5.965548504079786,13.688808007279352,47.0,122.0,"Fri, Oct 12, 2012","Sun, Oct 14, 2012"
6803,Yakutat,Yakutat,United States,YAK,PAYA,59.3012,-139.3937,33,-9,A,"Yakutat, AK",60,60,62,62,3.65,6.633333333333334,6.0,42.0,"Mon, Oct 22, 2012","Wed, Oct 17, 2012"
3596,Yuma MCAS Yuma International,Yuma,United States,YUM,KYUM,32.656578,-114.60598,216,-7,N,"Yuma, AZ",240,241,242,242,3.7749999999999995,12.717842323651452,10.0,38.0,"Mon, Oct 29, 2012","Tue, Oct  2, 2012"
