airport_id,name,city,country,iata_faa,iaco,latitude,longitude,altitude,zone,dst,city_state,avg_able_landings,avg_able_takeoffs,total_landings,total_takeoffs,avg_taxi_in,avg_taxi_out,longest_taxi_in,longest_taxi_out,lng_tx_in_date,lng_tx_out_date
4355,Lehigh Valley International,Allentown,United States,ABE,KABE,40.652083,-75.440806,393,-5,A,"Allentown/Bethlehem/Easton, PA",194,194,196,196,4.8659793814433,14.474226804123711,35.0,40.0,"Sun, Nov 13, 2016","Mon, Nov 14, 2016"
3718,Abilene Regional,Abilene,United States,ABI,KABI,32.411319,-99.681897,1791,-6,A,"Abilene, TX",23,23,25,25,5.260869565217392,12.478260869565217,8.0,33.0,"Sun, Nov 13, 2016","Wed, Nov  2, 2016"
4019,Albuquerque International Sunport,Albuquerque,United States,ABQ,KABQ,35.0402222,-106.6091944,5355,-7,A,"Albuquerque, NM",1600,1601,1604,1605,5.241875000000005,11.69081823860087,25.0,96.0,"Sun, Nov  6, 2016","Mon, Nov 28, 2016"
5714,Aberdeen Regional Airport,Aberdeen,United States,ABR,KABR,45.4491,-98.4218,1302,-6,A,"Aberdeen, SD",64,64,65,65,4.390625000000002,18.578125,7.0,92.0,"Wed, Nov  9, 2016","Fri, Nov 18, 2016"
5715,Southwest Georgia Regional Airport,Albany,United States,ABY,KABY,31.5355,-84.1945,197,-5,A,"Albany, GA",79,79,79,79,3.4936708860759493,13.341772151898738,6.0,33.0,"Wed, Nov  2, 2016","Sun, Nov 13, 2016"
3700,Waco Regional,Waco,United States,ACT,KACT,31.611289,-97.230519,516,-6,A,"Waco, TX",100,100,102,102,4.4499999999999975,11.5,7.0,33.0,"Sat, Nov 26, 2016","Wed, Nov  9, 2016"
4384,Arcata,Arcata CA,United States,ACV,KACV,40.978111,-124.108611,221,-8,A,"Arcata/Eureka, CA",116,117,119,119,5.181034482758621,12.957264957264957,9.0,36.0,"Wed, Nov  9, 2016","Tue, Nov  1, 2016"
3524,Atlantic City International,Atlantic City,United States,ACY,KACY,39.457583,-74.577167,75,-5,A,"Atlantic City, NJ",281,281,282,282,5.359430604982209,11.177935943060493,34.0,33.0,"Sat, Nov 12, 2016","Sun, Nov 13, 2016"
5959,Adak Airport,Adak Island,United States,ADK,PADK,51.878,-176.646,18,-10,A,"Adak Island, AK",8,8,8,8,5.125,12.375,7.0,28.0,"Thu, Nov  3, 2016","Thu, Nov 10, 2016"
3531,Kodiak,Kodiak,United States,ADQ,PADQ,57.749967,-152.493856,78,-9,A,"Kodiak, AK",34,34,34,34,3.411764705882353,7.26470588235294,6.0,16.0,"Sun, Nov  6, 2016","Fri, Nov 18, 2016"
3852,Alexandria International,Alexandria,United States,AEX,KAEX,31.3274,-92.549833,89,-6,A,"Alexandria, LA",262,262,262,262,3.446564885496183,15.114503816793892,11.0,69.0,"Mon, Nov 21, 2016","Mon, Nov 21, 2016"
3658,Augusta Regional At Bush Field,Bush Field,United States,AGS,KAGS,33.369944,-81.9645,144,-5,A,"Augusta, GA",207,208,207,208,3.8115942028985486,15.46634615384615,25.0,53.0,"Sun, Nov 13, 2016","Wed, Nov 30, 2016"
3864,Albany International,Albany,United States,ALB,KALB,42.748267,-73.801692,285,-5,A,"Albany, NY",770,770,773,774,4.514285714285714,13.836363636363636,70.0,107.0,"Sun, Nov 20, 2016","Sun, Nov 20, 2016"
3840,Rick Husband Amarillo International,Amarillo,United States,AMA,KAMA,35.219369,-101.705931,3607,-6,A,"Amarillo, TX",265,265,266,266,4.528301886792452,12.39622641509434,11.0,105.0,"Sun, Nov  6, 2016","Mon, Nov 28, 2016"
3774,Ted Stevens Anchorage International,Anchorage,United States,ANC,PANC,61.174361,-149.996361,152,-9,A,"Anchorage, AK",1113,1115,1115,1115,4.295597484276725,13.240358744394625,27.0,67.0,"Wed, Nov 23, 2016","Sun, Nov  6, 2016"
5720,Alpena County Regional Airport,Alpena,United States,APN,KAPN,45.0781,-83.5603,689,-5,A,"Alpena, MI",53,53,53,53,4.566037735849053,16.056603773584907,9.0,64.0,"Wed, Nov 23, 2016","Sat, Nov 19, 2016"
7001,Aspen/Pitkin County-Sardy Field,Aspen,United States,ASE,KASE,39.2232,-106.869,7820,-7,A,"Aspen, CO",120,120,124,124,3.174999999999999,17.099999999999998,8.0,40.0,"Mon, Nov 28, 2016","Tue, Nov 29, 2016"
3682,Hartsfield Jackson Atlanta International,Atlanta,United States,ATL,KATL,33.636719,-84.428067,1026,-5,A,"Atlanta, GA",30939,30953,30954,30965,8.086945279420759,16.038477691984713,64.0,109.0,"Sat, Nov 26, 2016","Wed, Nov 30, 2016"
4047,Appleton,Appleton,United States,ATW,KATW,44.257526,-88.507576,680,-6,A,"Appleton, WI",293,294,299,298,4.651877133105802,16.98299319727892,23.0,56.0,"Thu, Nov  3, 2016","Sun, Nov 27, 2016"
3673,Austin Bergstrom International,Austin,United States,AUS,KAUS,30.194528,-97.669889,542,-6,A,"Austin, TX",3835,3838,3838,3842,6.330117340286828,12.952058363731114,65.0,96.0,"Sun, Nov  6, 2016","Mon, Nov  7, 2016"
4007,Asheville Regional Airport,Asheville,United States,AVL,KAVL,35.436194,-82.541806,2165,-5,A,"Asheville, NC",260,261,261,262,4.134615384615387,18.409961685823742,13.0,71.0,"Fri, Nov  4, 2016","Fri, Nov  4, 2016"
4286,Wilkes Barre Scranton International,Scranton,United States,AVP,KAVP,41.338478,-75.723403,962,-5,A,"Scranton/Wilkes-Barre, PA",148,149,150,151,4.054054054054055,16.852348993288587,27.0,58.0,"Tue, Nov  1, 2016","Sun, Nov 20, 2016"
4039,Kalamazoo,Kalamazoo,United States,AZO,KAZO,42.234875,-85.552058,874,-5,A,"Kalamazoo, MI",172,173,174,175,4.302325581395344,14.722543352601155,8.0,47.0,"Sun, Nov  6, 2016","Fri, Nov 18, 2016"
3825,Bradley International,Windsor Locks,United States,BDL,KBDL,41.938889,-72.683222,173,-5,A,"Hartford, CT",1854,1854,1857,1857,5.804746494066877,13.230852211434728,36.0,79.0,"Mon, Nov 21, 2016","Wed, Nov  2, 2016"
3599,Bethel,Bethel,United States,BET,PABE,60.779778,-161.838,121,-9,A,"Bethel, AK",78,78,78,78,3.576923076923077,8.923076923076925,5.0,29.0,"Wed, Nov  2, 2016","Fri, Nov 25, 2016"
3558,Meadows Field,Bakersfield,United States,BFL,KBFL,35.433598,-119.05677,507,-8,A,"Bakersfield, CA",200,200,202,202,4.784999999999999,17.285000000000004,9.0,128.0,"Wed, Nov  9, 2016","Thu, Nov  3, 2016"
4129,Greater Binghamton-Edwin A. Link Field,Binghamton,United States,BGM,KBGM,42.208689,-75.979839,1636,-5,A,"Binghamton, NY",53,53,54,54,4.792452830188677,23.58490566037736,8.0,83.0,"Mon, Nov 21, 2016","Wed, Nov 30, 2016"
3463,Bangor International,Bangor,United States,BGR,KBGR,44.807444,-68.828139,192,-5,A,"Bangor, ME",29,30,29,30,4.344827586206897,19.06666666666667,7.0,57.0,"Wed, Nov  9, 2016","Thu, Nov 10, 2016"
3811,Birmingham International,Birmingham,United States,BHM,KBHM,33.562942,-86.75355,644,-6,A,"Birmingham, AL",1014,1015,1018,1017,3.9250493096646943,13.454187192118232,25.0,63.0,"Wed, Nov 30, 2016","Wed, Nov 16, 2016"
4021,Billings Logan International Airport,Billings,United States,BIL,KBIL,45.80921,-108.537654,3652,-7,A,"Billings, MT",274,275,276,277,3.6934306569343067,12.385454545454548,8.0,60.0,"Sat, Nov 26, 2016","Thu, Nov 17, 2016"
4083,Bismarck Municipal Airport,Bismarck,United States,BIS,KBIS,46.775842,-100.757931,1661,-6,A,"Bismarck/Mandan, ND",146,146,148,149,4.287671232876716,19.02739726027396,24.0,95.0,"Mon, Nov 28, 2016","Mon, Nov 28, 2016"
4287,Bemidji Regional Airport,Bemidji,United States,BJI,KBJI,47.510722,-94.934722,1391,-6,A,"Bemidji, MN",58,58,59,59,4.758620689655171,17.293103448275854,10.0,60.0,"Tue, Nov 22, 2016","Fri, Nov 18, 2016"
3777,Bellingham International,Bellingham,United States,BLI,KBLI,48.792694,-122.537528,170,-8,A,"Bellingham, WA",60,60,60,60,3.966666666666667,11.6,6.0,26.0,"Sat, Nov 12, 2016","Sat, Nov 12, 2016"
4037,Central Illinois Regional,Bloomington,United States,BMI,KBMI,40.477111,-88.915917,871,-6,A,"Bloomington/Normal, IL",131,131,132,132,4.129770992366412,13.526717557251906,8.0,35.0,"Mon, Nov 14, 2016","Thu, Nov 10, 2016"
3690,Nashville International,Nashville,United States,BNA,KBNA,36.124472,-86.678194,599,-6,A,"Nashville, TN",4347,4345,4353,4350,6.789510006901311,13.21841196777905,52.0,109.0,"Tue, Nov  8, 2016","Mon, Nov  7, 2016"
3495,Boise Air Terminal,Boise,United States,BOI,KBOI,43.564361,-116.222861,2871,-7,A,"Boise, ID",1193,1191,1195,1196,3.834870075440067,13.894206549118389,18.0,103.0,"Fri, Nov 11, 2016","Thu, Nov 10, 2016"
3448,General Edward Lawrence Logan International,Boston,United States,BOS,KBOS,42.364347,-71.005181,19,-5,A,"Boston, MA",9723,9727,9743,9748,6.670266378689696,18.233885062198027,55.0,130.0,"Mon, Nov 14, 2016","Wed, Nov  2, 2016"
3612,Southeast Texas Regional,Beaumont,United States,BPT,KBPT,29.950833,-94.020694,15,-6,A,"Beaumont/Port Arthur, TX",2,1,2,1,4.0,11.0,5.0,11.0,"Wed, Nov 30, 2016","Wed, Nov 30, 2016"
5725,Brunswick Golden Isles Airport,Brunswick,United States,BQK,KBQK,31.2588,-81.4665,26,-5,A,"Brunswick, GA",81,81,81,81,3.1604938271604945,15.049382716049383,6.0,63.0,"Mon, Nov 28, 2016","Wed, Nov 30, 2016"
6957,Brainerd Lakes Regional,Brainerd,United States,BRD,KBRD,46.398308,-94.138078,1226,-6,U,"Brainerd, MN",49,49,51,51,5.020408163265308,17.9795918367347,10.0,54.0,"Tue, Nov  8, 2016","Tue, Nov 22, 2016"
3738,Brownsville South Padre Island International,Brownsville,United States,BRO,KBRO,25.906833,-97.425861,22,-6,A,"Brownsville, TX",62,62,62,62,5.532258064516131,11.419354838709678,9.0,23.0,"Thu, Nov  3, 2016","Mon, Nov  7, 2016"
3571,Wiley Post Will Rogers Memorial,Barrow,United States,BRW,PABR,71.285446,-156.766003,44,-9,A,"Barrow, AK",75,76,76,76,5.36,7.434210526315791,55.0,29.0,"Sat, Nov 19, 2016","Sat, Nov 19, 2016"
4022,Bert Mooney Airport,Butte,United States,BTM,KBTM,45.954806,-112.497472,5550,-7,A,"Butte, MT",55,55,55,55,3.8,16.490909090909085,7.0,41.0,"Fri, Nov  4, 2016","Mon, Nov 28, 2016"
3846,Baton Rouge Metro-Ryan Field,Baton Rouge,United States,BTR,KBTR,30.533167,-91.149639,70,-6,A,"Baton Rouge, LA",534,532,535,534,4.485018726591762,14.067669172932332,25.0,72.0,"Mon, Nov 14, 2016","Mon, Nov 21, 2016"
3711,Burlington International,Burlington,United States,BTV,KBTV,44.471861,-73.153278,335,-5,A,"Burlington, VT",229,227,231,231,4.611353711790395,16.80176211453744,18.0,48.0,"Sat, Nov 19, 2016","Sun, Nov 20, 2016"
3820,Buffalo Niagara International,Buffalo,United States,BUF,KBUF,42.940525,-78.732167,724,-5,A,"Buffalo, NY",1443,1442,1450,1452,4.035343035343036,12.49029126213592,65.0,56.0,"Tue, Nov 29, 2016","Mon, Nov 21, 2016"
3644,Bob Hope,Burbank,United States,BUR,KBUR,34.200667,-118.358667,778,-8,A,"Burbank, CA",1863,1863,1874,1874,3.541062801932368,12.606011808910356,53.0,60.0,"Sun, Nov 27, 2016","Sun, Nov 27, 2016"
3849,Baltimore Washington International,Baltimore,United States,BWI,KBWI,39.175361,-76.668333,146,-5,A,"Baltimore, MD",8119,8124,8128,8132,6.002956029067612,12.807114721811915,55.0,80.0,"Sun, Nov  6, 2016","Wed, Nov 30, 2016"
4020,Gallatin Field,Bozeman,United States,BZN,KBZN,45.777643,-111.160151,4500,-7,A,"Bozeman, MT",212,212,212,212,4.518867924528304,15.056603773584904,10.0,63.0,"Thu, Nov  3, 2016","Sun, Nov 27, 2016"
3561,Columbia Metropolitan,Colombia,United States,CAE,KCAE,33.938833,-81.119528,236,-5,A,"Columbia, SC",334,334,335,334,4.362275449101794,15.263473053892216,12.0,97.0,"Sun, Nov 20, 2016","Fri, Nov  4, 2016"
4112,Akron Canton Regional Airport,Akron,United States,CAK,KCAK,40.9160833,-81.4421944,1228,-5,A,"Akron, OH",408,405,411,411,5.806372549019605,15.09382716049383,32.0,79.0,"Thu, Nov  3, 2016","Sun, Nov 20, 2016"
3824,Cedar City Regional,Cedar City,United States,CDC,KCDC,37.700967,-113.098847,5622,-7,A,"Cedar City, UT",52,52,52,52,3.6153846153846154,16.442307692307693,9.0,65.0,"Wed, Nov  2, 2016","Mon, Nov 28, 2016"
3610,Merle K. Mudhole Smith,Cordova,United States,CDV,PACV,60.491778,-145.477556,48,-9,A,"Cordova, AK",57,57,58,58,4.035087719298246,8.824561403508769,33.0,20.0,"Sun, Nov 27, 2016","Fri, Nov  4, 2016"
3578,Lovell Field,Chattanooga,United States,CHA,KCHA,35.035278,-85.203808,683,-5,A,"Chattanooga, TN",427,427,430,430,5.384074941451991,16.83840749414516,33.0,77.0,"Wed, Nov 30, 2016","Wed, Nov 30, 2016"
4015,Charlottesville-Albemarle,Charlottesville VA,United States,CHO,KCHO,38.138639,-78.452861,639,-5,A,"Charlottesville, VA",221,221,222,222,3.588235294117647,14.095022624434389,12.0,43.0,"Thu, Nov 10, 2016","Fri, Nov 18, 2016"
3806,Charleston AFB International,Charleston,United States,CHS,KCHS,32.898647,-80.040528,45,-5,A,"Charleston, SC",1171,1170,1175,1177,7.9666951323654995,13.677777777777779,50.0,54.0,"Sun, Nov 27, 2016","Tue, Nov 29, 2016"
4043,Cedar Rapids,Cedar Rapids,United States,CID,KCID,41.884694,-91.710806,869,-6,A,"Cedar Rapids/Iowa City, IA",411,413,411,413,7.148418491484186,16.295399515738513,72.0,66.0,"Sun, Nov 27, 2016","Wed, Nov 23, 2016"
5729,Chippewa County International Airport,Sault Ste. Marie,United States,CIU,KCIU,46.2508,-84.4724,800,-5,A,"Sault Ste. Marie, MI",55,55,55,55,4.3090909090909095,18.709090909090904,10.0,60.0,"Tue, Nov  1, 2016","Thu, Nov 24, 2016"
3486,Cleveland Hopkins International,Cleveland,United States,CLE,KCLE,41.411689,-81.849794,791,-5,A,"Cleveland, OH",2614,2610,2623,2624,7.034429992348888,12.965517241379308,43.0,91.0,"Sun, Nov  6, 2016","Tue, Nov 15, 2016"
3715,Easterwood Field,College Station,United States,CLL,KCLL,30.588583,-96.363833,321,-6,A,"College Station/Bryan, TX",105,105,105,105,4.790476190476189,11.838095238095233,10.0,52.0,"Sun, Nov 27, 2016","Wed, Nov 23, 2016"
3876,Charlotte Douglas International,Charlotte,United States,CLT,KCLT,35.214,-80.943139,748,-5,A,"Charlotte, NC",9041,9060,9071,9068,8.97566640858315,19.738079470198663,51.0,114.0,"Fri, Nov  4, 2016","Mon, Nov 21, 2016"
3759,Port Columbus International,Columbus,United States,CMH,KCMH,39.997972,-82.891889,815,-5,A,"Columbus, OH",1928,1923,1935,1932,5.472510373443988,12.101924076963074,30.0,103.0,"Wed, Nov 30, 2016","Fri, Nov 18, 2016"
5732,Houghton County Memorial Airport,Hancock,United States,CMX,KCMX,47.1684,-88.4891,1095,-5,A,"Hancock/Houghton, MI",56,57,60,59,4.357142857142857,16.12280701754387,7.0,48.0,"Mon, Nov  7, 2016","Sat, Nov 12, 2016"
4344,Yellowstone Regional,Cody,United States,COD,KCOD,44.520194,-109.023806,5102,-7,A,"Cody, WY",57,58,58,58,3.3684210526315788,16.431034482758616,6.0,58.0,"Tue, Nov  1, 2016","Thu, Nov 17, 2016"
3819,City Of Colorado Springs Municipal,Colorado Springs,United States,COS,KCOS,38.805805,-104.700778,6187,-7,A,"Colorado Springs, CO",721,723,728,728,6.961165048543689,18.25172890733058,50.0,89.0,"Thu, Nov 17, 2016","Sat, Nov 19, 2016"
3872,Natrona County International,Casper,United States,CPR,KCPR,42.908,-106.464417,5347,-7,A,"Casper, WY",91,91,92,92,4.021978021978022,11.593406593406591,8.0,28.0,"Mon, Nov  7, 2016","Wed, Nov 23, 2016"
3744,Corpus Christi International,Corpus Christi,United States,CRP,KCRP,27.770361,-97.501222,44,-6,A,"Corpus Christi, TX",260,259,260,259,4.892307692307691,12.355212355212352,36.0,41.0,"Fri, Nov  4, 2016","Thu, Nov 17, 2016"
4285,Yeager,Charleston,United States,CRW,KCRW,38.373147,-81.593189,981,-5,A,"Charleston/Dunbar, WV",201,201,202,202,3.7711442786069673,14.199004975124378,21.0,44.0,"Fri, Nov 11, 2016","Wed, Nov 23, 2016"
4255,Columbus Metropolitan Airport,Columbus,United States,CSG,KCSG,32.5163333,-84.9388611,397,-5,A,"Columbus, GA",101,101,101,101,3.227722772277228,14.564356435643564,9.0,48.0,"Sun, Nov  6, 2016","Sun, Nov 27, 2016"
3488,Cincinnati Northern Kentucky International,Cincinnati,United States,CVG,KCVG,39.048836,-84.667822,896,-5,A,"Cincinnati, OH",1125,1125,1126,1125,5.952888888888889,14.02577777777778,27.0,61.0,"Tue, Nov 15, 2016","Mon, Nov 28, 2016"
4045,Central Wisconsin,Wassau,United States,CWA,KCWA,44.772726,-89.646635,840,-6,A,"Mosinee, WI",74,74,76,76,4.027027027027027,11.83783783783784,8.0,40.0,"Mon, Nov 21, 2016","Wed, Nov 23, 2016"
3950,Daytona Beach International,Daytona Beach,United States,DAB,KDAB,29.179917,-81.058056,34,-5,A,"Daytona Beach, FL",145,145,145,145,3.006896551724138,14.682758620689656,6.0,66.0,"Mon, Nov 14, 2016","Wed, Nov 30, 2016"
3502,Dallas Love Field,Dallas,United States,DAL,KDAL,32.847111,-96.851778,487,-6,A,"Dallas, TX",5700,5705,5711,5712,6.102105263157894,11.91971954425937,62.0,120.0,"Mon, Nov  7, 2016","Fri, Nov 18, 2016"
3627,James M. Cox Dayton International,Dayton,United States,DAY,KDAY,39.902375,-84.219375,1009,-5,A,"Dayton, OH",493,494,498,498,5.340770791075053,13.910931174089068,30.0,49.0,"Tue, Nov  1, 2016","Sat, Nov 19, 2016"
3520,Ronald Reagan Washington National,Washington,United States,DCA,KDCA,38.852083,-77.037722,15,-5,A,"Washington, DC",5995,6000,6018,6019,5.56330275229359,18.438833333333434,60.0,144.0,"Sun, Nov 27, 2016","Mon, Nov 21, 2016"
3751,Denver International,Denver,United States,DEN,KDEN,39.861656,-104.673178,5431,-7,A,"Denver, CO",17522,17508,17608,17589,8.978541262412945,15.34395704820653,165.0,161.0,"Thu, Nov 17, 2016","Thu, Nov 17, 2016"
3670,Dallas Fort Worth International,Dallas-fort Worth,United States,DFW,KDFW,32.896828,-97.037997,607,-6,A,"Dallas/Fort Worth, TX",15162,15185,15213,15224,11.19383986281492,18.633651629897994,73.0,135.0,"Thu, Nov 24, 2016","Mon, Nov 28, 2016"
3739,Dothan Regional,Dothan,United States,DHN,KDHN,31.321339,-85.449628,401,-6,A,"Dothan, AL",108,108,109,109,3.240740740740741,16.305555555555557,6.0,55.0,"Thu, Nov 17, 2016","Wed, Nov 30, 2016"
3598,Duluth International,Duluth,United States,DLH,KDLH,46.842091,-92.193649,1428,-6,A,"Duluth, MN",173,172,179,180,5.404624277456649,20.029069767441854,23.0,71.0,"Fri, Nov 18, 2016","Wed, Nov 23, 2016"
3713,Durango La Plata County,Durango,United States,DRO,KDRO,37.151516,-107.75377,6685,-7,A,"Durango, CO",136,136,137,137,4.698529411764705,18.91176470588235,27.0,97.0,"Sun, Nov 13, 2016","Tue, Nov  1, 2016"
3729,Des Moines International,Des Moines,United States,DSM,KDSM,41.533972,-93.663083,958,-6,A,"Des Moines, IA",611,611,613,612,5.1751227495908365,12.800327332242215,30.0,50.0,"Fri, Nov 18, 2016","Wed, Nov  2, 2016"
3645,Detroit Metro Wayne County,Detroit,United States,DTW,KDTW,42.212444,-83.353389,645,-5,A,"Detroit, MI",10224,10178,10244,10196,7.411678403755872,17.192473963450645,61.0,91.0,"Sun, Nov 20, 2016","Wed, Nov  2, 2016"
7063,Devils Lake Regional Airport,Devils Lake,United States,DVL,KDVL,48.114444,-98.908611,1445,-6,A,"Devils Lake, ND",46,49,51,50,5.043478260869565,18.428571428571427,10.0,39.0,"Thu, Nov 17, 2016","Sat, Nov 19, 2016"
5735,Chippewa Valley Regional Airport,Eau Claire,United States,EAU,KEAU,44.8658,-91.4843,913,-6,A,"Eau Claire, WI",55,55,55,55,3.6545454545454548,16.945454545454552,6.0,40.0,"Thu, Nov 10, 2016","Fri, Nov 25, 2016"
7669,Northwest Florida Beaches International,Panama City,United States,ECP,KECP,30.3417,-85.7973,69,-6,A,"Panama City, FL",327,327,327,327,3.4067278287461775,12.519877675840986,12.0,39.0,"Fri, Nov 25, 2016","Wed, Nov  2, 2016"
4250,Eagle County Regional,Vail,United States,EGE,KEGE,39.642556,-106.917694,6540,-7,A,"Eagle, CO",43,43,44,44,4.441860465116279,21.37209302325581,6.0,40.0,"Sun, Nov 20, 2016","Fri, Nov 25, 2016"
5736,Elko Regional Airport,Elko,United States,EKO,KEKO,40.8249,-115.792,5140,-8,A,"Elko, NV",48,48,50,49,4.645833333333335,15.125,7.0,29.0,"Tue, Nov  1, 2016","Tue, Nov  1, 2016"
3946,Elmira Corning Regional,Elmira,United States,ELM,KELM,42.159889,-76.891611,954,-5,A,"Elmira/Corning, NY",138,138,139,139,3.652173913043478,16.420289855072475,23.0,53.0,"Thu, Nov 17, 2016","Thu, Nov 24, 2016"
3559,El Paso International,El Paso,United States,ELP,KELP,31.80725,-106.377583,3958,-7,A,"El Paso, TX",951,950,952,952,4.43322818086225,12.344210526315793,21.0,52.0,"Wed, Nov 16, 2016","Tue, Nov 15, 2016"
4276,Erie International-Tom Ridge Field,Erie,United States,ERI,KERI,42.082022,-80.176217,733,-5,A,"Erie, PA",112,113,116,116,4.250000000000001,18.4424778761062,10.0,76.0,"Tue, Nov  1, 2016","Mon, Nov 14, 2016"
6800,Delta County Airport,Escanaba,United States,ESC,KESC,45.722778,-87.093611,609,-5,A,"Escanaba, MI",50,50,50,50,4.740000000000002,11.48,8.0,26.0,"Tue, Nov 22, 2016","Sat, Nov 19, 2016"
4099,Mahlon Sweet Field,Eugene,United States,EUG,KEUG,44.124583,-123.211972,374,-8,A,"Eugene, OR",293,294,294,294,4.167235494880539,14.23469387755102,25.0,52.0,"Fri, Nov  4, 2016","Thu, Nov 10, 2016"
4018,Evansville Regional,Evansville,United States,EVV,KEVV,38.036997,-87.532364,418,-6,A,"Evansville, IN",224,224,225,225,4.388392857142861,17.482142857142865,12.0,91.0,"Tue, Nov  1, 2016","Sun, Nov 13, 2016"
3730,Craven County Regional,New Bern,United States,EWN,KEWN,35.072972,-77.042944,18,-5,A,"New Bern/Morehead/Beaufort, NC",56,56,56,56,2.8750000000000004,13.714285714285714,9.0,34.0,"Sun, Nov 20, 2016","Tue, Nov 22, 2016"
3494,Newark Liberty International,Newark,United States,EWR,KEWR,40.6925,-74.168667,18,-5,A,"Newark, NJ",9676,9661,9764,9745,9.069243489045054,19.529965842045375,61.0,117.0,"Sun, Nov 13, 2016","Fri, Nov  4, 2016"
3875,Key West International,Key West,United States,EYW,KEYW,24.556111,-81.759556,3,-5,A,"Key West, FL",115,115,115,115,2.3391304347826085,9.70434782608695,5.0,35.0,"Sat, Nov 26, 2016","Fri, Nov  4, 2016"
3832,Fairbanks International,Fairbanks,United States,FAI,PAFA,64.815114,-147.856267,434,-9,A,"Fairbanks, AK",167,167,167,167,3.568862275449102,16.92215568862275,10.0,44.0,"Wed, Nov 30, 2016","Thu, Nov 17, 2016"
4292,Hector International Airport,Fargo,United States,FAR,KFAR,46.92065,-96.8157639,902,-6,A,"Fargo, ND",258,260,260,261,5.0697674418604635,17.446153846153845,20.0,66.0,"Thu, Nov 10, 2016","Thu, Nov 24, 2016"
3687,Fresno Yosemite International,Fresno,United States,FAT,KFAT,36.776194,-119.71814,336,-8,A,"Fresno, CA",733,732,735,734,5.916780354706682,16.407103825136637,42.0,67.0,"Thu, Nov 10, 2016","Mon, Nov 14, 2016"
5738,Fayetteville Regional-Grannis Field,Fayetteville,United States,FAY,KFAY,34.9912,-78.8803,189,-5,A,"Fayetteville, NC",138,138,138,138,4.550724637681163,13.695652173913043,8.0,44.0,"Wed, Nov  9, 2016","Sun, Nov 27, 2016"
4127,Glacier Park International,Kalispell,United States,FCA,KFCA,48.310472,-114.256,2977,-7,A,"Kalispell, MT",155,155,158,158,4.232258064516129,15.870967741935484,15.0,43.0,"Sat, Nov 26, 2016","Mon, Nov  7, 2016"
4261,Flagstaff Pulliam Airport,Flagstaff,United States,FLG,KFLG,35.140318,-111.6692392,7015,-7,N,"Flagstaff, AZ",143,143,145,145,4.293706293706293,19.335664335664333,19.0,61.0,"Fri, Nov 18, 2016","Mon, Nov 21, 2016"
3533,Fort Lauderdale Hollywood International,Fort Lauderdale,United States,FLL,KFLL,26.072583,-80.15275,9,-5,A,"Fort Lauderdale, FL",6922,6920,6931,6930,6.603293845709328,14.507369942196526,57.0,89.0,"Fri, Nov 18, 2016","Sun, Nov 20, 2016"
4089,Bishop International,Flint,United States,FNT,KFNT,42.965424,-83.743629,782,-5,A,"Flint, MI",274,276,277,277,4.686131386861313,11.804347826086957,19.0,57.0,"Tue, Nov 22, 2016","Mon, Nov 21, 2016"
4009,Sioux Falls,Sioux Falls,United States,FSD,KFSD,43.582014,-96.741914,1429,-6,A,"Sioux Falls, SD",354,352,363,361,5.612994350282484,19.761363636363626,36.0,127.0,"Fri, Nov 18, 2016","Fri, Nov 18, 2016"
3437,Fort Smith Regional,Fort Smith,United States,FSM,KFSM,35.336583,-94.367444,469,-6,A,"Fort Smith, AR",86,86,87,87,3.6511627906976742,12.953488372093021,8.0,67.0,"Wed, Nov  9, 2016","Thu, Nov 24, 2016"
4041,Fort Wayne,Fort Wayne,United States,FWA,KFWA,40.978472,-85.195139,815,-5,A,"Fort Wayne, IN",353,353,354,354,7.076487252124646,18.597733711048175,31.0,70.0,"Wed, Nov  9, 2016","Fri, Nov  4, 2016"
4296,Gillette-Campbell County Airport,Gillette,United States,GCC,KGCC,44.3489167,-105.5393611,4365,-7,A,"Gillette, WY",84,84,85,85,5.166666666666664,13.55952380952381,28.0,56.0,"Mon, Nov 21, 2016","Fri, Nov 18, 2016"
3497,Garden City Regional,Garden City,United States,GCK,KGCK,37.927528,-100.724417,2891,-6,A,"Garden City, KS",59,59,60,60,3.389830508474576,13.203389830508474,9.0,31.0,"Tue, Nov  1, 2016","Thu, Nov 10, 2016"
3467,Spokane International,Spokane,United States,GEG,KGEG,47.619861,-117.533833,2376,-8,A,"Spokane, WA",771,771,771,771,4.059662775616075,13.20752269779507,18.0,76.0,"Sat, Nov 26, 2016","Wed, Nov 16, 2016"
3442,Grand Forks International,Grand Forks,United States,GFK,KGFK,47.949256,-97.176111,845,-6,A,"Grand Forks, ND",157,156,159,158,4.541401273885351,16.865384615384617,15.0,43.0,"Sun, Nov 27, 2016","Fri, Nov 18, 2016"
3465,East Texas Regional,Longview,United States,GGG,KGGG,32.384014,-94.711486,365,-6,A,"Longview, TX",56,55,56,55,4.303571428571431,15.381818181818181,10.0,34.0,"Tue, Nov 22, 2016","Mon, Nov  7, 2016"
4063,Grand Junction Regional,Grand Junction,United States,GJT,KGJT,39.122413,-108.526735,4858,-7,A,"Grand Junction, CO",224,226,225,227,3.7455357142857144,16.079646017699115,8.0,71.0,"Thu, Nov 17, 2016","Thu, Nov 17, 2016"
3472,Gainesville Regional,Gainesville,United States,GNV,KGNV,29.690056,-82.271778,152,-5,A,"Gainesville, FL",189,189,189,189,3.751322751322751,14.047619047619047,16.0,45.0,"Wed, Nov 30, 2016","Fri, Nov  4, 2016"
4038,Gulfport-Biloxi,Gulfport,United States,GPT,KGPT,30.407278,-89.070111,28,-6,A,"Gulfport/Biloxi, MS",261,261,262,262,4.885057471264362,14.24137931034483,31.0,54.0,"Mon, Nov 21, 2016","Sun, Nov 20, 2016"
3653,Austin Straubel International,Green Bay,United States,GRB,KGRB,44.485072,-88.129589,695,-6,A,"Green Bay, WI",317,318,321,323,4.586750788643536,14.86163522012579,18.0,74.0,"Mon, Nov  7, 2016","Sun, Nov 27, 2016"
5740,Central Nebraska Regional Airport,Grand Island,United States,GRI,KGRI,40.9675,-98.3096,1847,-6,A,"Grand Island, NE",43,43,43,43,3.8372093023255816,17.558139534883722,8.0,54.0,"Tue, Nov 22, 2016","Fri, Nov 25, 2016"
3775,Robert Gray AAF,Killeen,United States,GRK,KGRK,31.06725,-97.828917,1015,-6,A,"Killeen, TX",123,123,123,123,4.29268292682927,13.886178861788618,7.0,40.0,"Thu, Nov  3, 2016","Mon, Nov  7, 2016"
3685,Gerald R. Ford International,Grand Rapids,United States,GRR,KGRR,42.880833,-85.522806,794,-5,A,"Grand Rapids, MI",789,788,792,792,4.470215462610903,13.77030456852791,21.0,82.0,"Tue, Nov 15, 2016","Wed, Nov 16, 2016"
4008,Piedmont Triad,Greensboro,United States,GSO,KGSO,36.09775,-79.937306,925,-5,A,"Greensboro/High Point, NC",533,532,537,537,3.9530956848030017,16.577067669172926,21.0,71.0,"Mon, Nov 14, 2016","Tue, Nov 22, 2016"
4034,Greenville-Spartanburg International,Greenville,United States,GSP,KGSP,34.895556,-82.218889,964,-5,A,"Greer, SC",539,537,542,540,4.02040816326531,14.271880819366853,19.0,62.0,"Mon, Nov 21, 2016","Fri, Nov 18, 2016"
3880,Great Falls International,Great Falls,United States,GTF,KGTF,47.482,-111.370689,3677,-7,A,"Great Falls, MT",112,112,112,112,5.410714285714286,15.607142857142858,23.0,49.0,"Thu, Nov 10, 2016","Sun, Nov 27, 2016"
4273,Golden Triangle Regional Airport,Columbus Mississippi,United States,GTR,KGTR,33.450333,-88.591361,264,-6,A,"Columbus, MS",80,80,80,80,3.3,18.85,7.0,149.0,"Tue, Nov 22, 2016","Fri, Nov  4, 2016"
7051,Gunnison - Crested Butte,Gunnison,United States,GUC,KGUC,38.533889,-106.933056,7678,-7,A,"Gunnison, CO",1,1,1,1,3.0,13.0,3.0,13.0,"Thu, Nov 24, 2016","Thu, Nov 24, 2016"
4339,Yampa Valley,Hayden,United States,HDN,KHDN,40.481181,-107.21766,6602,-7,A,"Hayden, CO",28,29,29,30,3.607142857142857,30.655172413793103,6.0,81.0,"Mon, Nov  7, 2016","Sun, Nov 27, 2016"
3650,Chisholm Hibbing,Hibbing,United States,HIB,KHIB,47.3866,-92.838994,1353,-6,A,"Hibbing, MN",76,76,80,80,4.934210526315789,16.92105263157895,13.0,47.0,"Wed, Nov  9, 2016","Fri, Nov 18, 2016"
3504,Helena Regional,Helena,United States,HLN,KHLN,46.606806,-111.98275,3877,-7,A,"Helena, MT",139,139,140,140,3.5323741007194243,17.877697841726626,18.0,51.0,"Mon, Nov  7, 2016","Tue, Nov 15, 2016"
3728,Honolulu International,Honolulu,United States,HNL,PHNL,21.318681,-157.922428,13,-10,N,"Honolulu, HI",3689,3689,3697,3697,6.847655191108699,14.915966386554613,41.0,56.0,"Wed, Nov 30, 2016","Tue, Nov 22, 2016"
3749,Lea County Regional,Hobbs,United States,HOB,KHOB,32.687528,-103.217028,3661,-7,A,"Hobbs, NM",52,52,52,52,5.673076923076923,11.73076923076923,12.0,47.0,"Wed, Nov 30, 2016","Sat, Nov  5, 2016"
3566,William P. Hobby,Houston,United States,HOU,KHOU,29.645419,-95.278889,46,-6,A,"Houston, TX",4471,4472,4476,4477,5.980541265936034,11.274373881932028,39.0,58.0,"Fri, Nov 18, 2016","Wed, Nov 30, 2016"
3589,Westchester County,White Plains,United States,HPN,KHPN,41.066959,-73.707575,439,-5,A,"White Plains, NY",588,591,593,592,4.416666666666673,13.673434856175973,33.0,60.0,"Tue, Nov  1, 2016","Fri, Nov 11, 2016"
3560,Valley International,Harlingen,United States,HRL,KHRL,26.2285,-97.654389,36,-6,A,"Harlingen/San Benito, TX",228,228,228,228,3.6491228070175437,9.41666666666666,29.0,37.0,"Fri, Nov 25, 2016","Thu, Nov 17, 2016"
4113,Huntsville International Airport-Carl T. Jones Field,Huntsville,United States,HSV,KHSV,34.6371944,-86.7750556,629,-6,A,"Huntsville, AL",328,328,328,328,4.439024390243903,15.60365853658538,10.0,47.0,"Sun, Nov 13, 2016","Mon, Nov 28, 2016"
7014,Hays Regional Airport,Hays,United States,HYS,KHYS,38.8422,-99.2732,1998,-5,A,"Hays, KS",50,50,51,51,4.3,12.44,10.0,29.0,"Thu, Nov 10, 2016","Sun, Nov  6, 2016"
3714,Washington Dulles International,Washington,United States,IAD,KIAD,38.944533,-77.455811,313,-5,A,"Washington, DC",2898,2902,2905,2909,6.326086956521742,15.94521019986217,42.0,120.0,"Sun, Nov 20, 2016","Wed, Nov 30, 2016"
3630,Niagara Falls International,Niagara Falls,United States,IAG,KIAG,43.107333,-78.946194,589,-5,A,"Niagara Falls, NY",40,39,40,39,6.575,10.692307692307692,9.0,30.0,"Thu, Nov 24, 2016","Sun, Nov 20, 2016"
3550,George Bush Intercontinental Houston,Houston,United States,IAH,KIAH,29.984433,-95.341442,97,-6,A,"Houston, TX",10861,10867,10879,10886,8.322438081208002,16.384282690714908,45.0,128.0,"Fri, Nov 18, 2016","Fri, Nov 18, 2016"
3457,Wichita Mid Continent,Wichita,United States,ICT,KICT,37.649944,-97.433056,1333,-6,A,"Wichita, KS",634,634,636,637,4.944794952681386,13.176656151419559,27.0,61.0,"Mon, Nov 14, 2016","Tue, Nov 15, 2016"
4100,Idaho Falls Regional,Idaho Falls,United States,IDA,KIDA,43.514556,-112.07075,4744,-7,A,"Idaho Falls, ID",193,193,196,195,4.082901554404146,15.554404145077726,8.0,53.0,"Sat, Nov 12, 2016","Fri, Nov 25, 2016"
3845,Wilmington International,Wilmington,United States,ILM,KILM,34.270615,-77.902569,32,-5,A,"Wilmington, NC",246,246,246,246,4.105691056910568,15.528455284552846,13.0,60.0,"Thu, Nov 10, 2016","Thu, Nov 10, 2016"
6837,Ford Airport,Iron Mountain,United States,IMT,KIMT,45.8183611,-88.1145556,1182,-5,A,"Iron Mountain/Kingsfd, MI",54,54,55,55,4.314814814814817,16.44444444444444,12.0,54.0,"Tue, Nov  1, 2016","Wed, Nov 23, 2016"
3585,Indianapolis International,Indianapolis,United States,IND,KIND,39.717331,-86.294383,797,-5,A,"Indianapolis, IN",2032,2031,2033,2032,5.927657480314958,12.90448055145248,32.0,75.0,"Sat, Nov 12, 2016","Sun, Nov 27, 2016"
3535,Falls International,International Falls,United States,INL,KINL,48.566186,-93.403067,1185,-6,A,"International Falls, MN",49,50,51,51,4.1224489795918355,19.76,8.0,69.0,"Sun, Nov 27, 2016","Wed, Nov 30, 2016"
3659,Sloulin Field International,Williston,United States,ISN,KISN,48.177939,-103.642347,1982,-7,A,"Williston, ND",87,87,87,87,5.71264367816092,21.264367816091955,19.0,40.0,"Wed, Nov 30, 2016","Sat, Nov  5, 2016"
3857,Long Island MacArthur,Islip,United States,ISP,KISP,40.79525,-73.100222,99,-5,A,"Islip, NY",385,384,385,384,4.999999999999999,9.640625,32.0,26.0,"Tue, Nov 22, 2016","Mon, Nov 21, 2016"
3947,Ithaca Tompkins Regional,Ithaca,United States,ITH,KITH,42.491028,-76.458444,1099,-5,A,"Ithaca/Cortland, NY",80,80,81,81,4.287499999999999,21.337499999999995,11.0,48.0,"Tue, Nov 15, 2016","Thu, Nov 10, 2016"
3415,Hilo International,Hilo,United States,ITO,PHTO,19.721375,-155.048469,38,-10,N,"Hilo, HI",498,468,498,468,5.459839357429719,8.707264957264963,9.0,22.0,"Fri, Nov 18, 2016","Mon, Nov 14, 2016"
4027,Jackson Hole Airport,Jacksn Hole,United States,JAC,KJAC,43.60733333,-110.73775,6451,-7,A,"Jackson, WY",77,78,80,81,3.6623376623376624,20.987179487179493,5.0,84.0,"Tue, Nov  1, 2016","Thu, Nov 17, 2016"
3580,Jackson Evers International,Jackson,United States,JAN,KJAN,32.311167,-90.075889,346,-6,A,"Jackson/Vicksburg, MS",431,431,431,431,4.248259860788858,13.69837587006961,18.0,68.0,"Mon, Nov  7, 2016","Sun, Nov 27, 2016"
3712,Jacksonville International,Jacksonville,United States,JAX,KJAX,30.494056,-81.687861,30,-5,A,"Jacksonville, FL",1482,1480,1484,1483,5.1403508771929785,13.604729729729724,39.0,113.0,"Thu, Nov 10, 2016","Wed, Nov 30, 2016"
3797,John F. Kennedy International,New York,United States,JFK,KJFK,40.639751,-73.778925,13,-5,A,"New York, NY",7568,7574,7578,7582,7.865750528541232,21.466332189067895,61.0,75.0,"Wed, Nov 23, 2016","Sat, Nov 12, 2016"
5745,Jamestown Regional Airport,Jamestown,United States,JMS,KJMS,46.9297,-98.6782,1498,-6,A,"Jamestown, ND",75,75,80,80,4.2666666666666675,15.28,7.0,36.0,"Fri, Nov 18, 2016","Sun, Nov 20, 2016"
3492,Juneau International,Juneau,United States,JNU,PAJN,58.354972,-134.576278,21,-9,A,"Juneau, AK",308,308,309,309,4.295454545454547,13.707792207792208,13.0,97.0,"Fri, Nov 25, 2016","Tue, Nov 29, 2016"
3514,Kona International At Keahole,Kona,United States,KOA,PHKO,19.738767,-156.045631,47,-10,N,"Kona, HI",947,978,948,979,5.139387539598733,10.755623721881385,48.0,50.0,"Sat, Nov 19, 2016","Thu, Nov 24, 2016"
3808,Ketchikan International,Ketchikan,United States,KTN,PAKT,55.355556,-131.71375,88,-9,A,"Ketchikan, AK",172,171,174,174,4.372093023255817,11.456140350877194,11.0,29.0,"Sat, Nov  5, 2016","Fri, Nov 25, 2016"
3544,Capital City,Lansing,United States,LAN,KLAN,42.7787,-84.587357,861,-5,A,"Lansing, MI",178,177,180,179,4.213483146067416,13.768361581920903,17.0,38.0,"Tue, Nov 15, 2016","Sat, Nov 19, 2016"
5746,Laramie Regional Airport,Laramie,United States,LAR,KLAR,41.3121,-105.675,7284,-7,A,"Laramie, WY",49,49,51,51,5.408163265306125,15.224489795918371,11.0,42.0,"Tue, Nov 29, 2016","Tue, Nov 22, 2016"
3877,McCarran International,Las Vegas,United States,LAS,KLAS,36.080056,-115.15225,2141,-8,A,"Las Vegas, NV",12099,12101,12118,12118,7.441441441441446,13.958102636145767,88.0,90.0,"Mon, Nov  7, 2016","Wed, Nov 23, 2016"
4256,Lawton-Fort Sill Regional Airport,Lawton,United States,LAW,KLAW,34.5677144,-98.4166367,1110,-6,A,"Lawton/Fort Sill, OK",114,114,114,114,2.9210526315789473,12.62280701754386,7.0,69.0,"Sat, Nov 12, 2016","Mon, Nov  7, 2016"
3484,Los Angeles International,Los Angeles,United States,LAX,KLAX,33.942536,-118.408075,126,-8,A,"Los Angeles, CA",16997,17007,17043,17044,14.694593163499432,17.241077203504414,110.0,106.0,"Sun, Nov  6, 2016","Thu, Nov  3, 2016"
3829,Lubbock Preston Smith International,Lubbock,United States,LBB,KLBB,33.663639,-101.822778,3282,-6,A,"Lubbock, TX",366,366,367,367,4.8032786885245935,11.185792349726773,15.0,104.0,"Tue, Nov 22, 2016","Mon, Nov 28, 2016"
5747,Arnold Palmer Regional Airport,Latrobe,United States,LBE,KLBE,40.2759,-79.4048,1185,-5,A,"Latrobe, PA",78,77,78,77,5.5,13.18181818181818,9.0,58.0,"Sun, Nov 20, 2016","Sun, Nov 20, 2016"
3513,Lake Charles Regional,Lake Charles,United States,LCH,KLCH,30.126112,-93.223335,15,-6,A,"Lake Charles, LA",139,139,139,139,4.856115107913669,13.784172661870503,8.0,44.0,"Fri, Nov 25, 2016","Mon, Nov 28, 2016"
4017,Blue Grass,Lexington KY,United States,LEX,KLEX,38.0365,-84.605889,979,-5,A,"Lexington, KY",475,472,475,475,4.989473684210528,15.79237288135592,28.0,69.0,"Fri, Nov 25, 2016","Wed, Nov  2, 2016"
3493,Lafayette Regional,Lafayette,United States,LFT,KLFT,30.205278,-91.987611,43,-6,A,"Lafayette, LA",271,271,271,271,5.944649446494465,14.538745387453874,81.0,55.0,"Sat, Nov 19, 2016","Wed, Nov  2, 2016"
3697,LaGuardia Airport,New York,United States,LGA,KLGA,40.777245,-73.872608,22,-5,A,"New York, NY",7400,7401,7441,7438,8.082972972972968,25.051479529793248,71.0,108.0,"Wed, Nov 23, 2016","Wed, Nov  2, 2016"
3582,Long Beach,Long Beach,United States,LGB,KLGB,33.817722,-118.151611,60,-8,A,"Long Beach, CA",1009,1008,1016,1015,4.143706640237859,12.584325396825399,29.0,78.0,"Tue, Nov 22, 2016","Mon, Nov  7, 2016"
3602,Lihue,Lihue,United States,LIH,PHLI,21.975983,-159.338958,153,-10,N,"Lihue, HI",884,882,886,886,5.616515837104067,8.655328798185963,14.0,32.0,"Thu, Nov 10, 2016","Sun, Nov 27, 2016"
3660,Adams Field,Little Rock,United States,LIT,KLIT,34.729444,-92.224306,262,-6,A,"Little Rock, AR",682,684,685,686,4.881231671554253,12.646198830409357,32.0,134.0,"Mon, Nov 28, 2016","Mon, Nov 28, 2016"
3543,Lincoln,Lincoln,United States,LNK,KLNK,40.850971,-96.75925,1219,-6,A,"Lincoln, NE",237,237,239,239,4.295358649789028,14.70464135021097,22.0,66.0,"Fri, Nov 18, 2016","Sat, Nov 19, 2016"
3691,Laredo International,Laredo,United States,LRD,KLRD,27.54375,-99.461556,508,-6,A,"Laredo, TX",177,177,179,179,4.005649717514121,13.932203389830509,31.0,69.0,"Fri, Nov  4, 2016","Tue, Nov 15, 2016"
4044,LaCrosse Municipal,LaCrosse,United States,LSE,KLSE,43.878986,-91.256711,654,-6,A,"La Crosse, WI",49,48,50,49,3.673469387755102,22.833333333333332,8.0,50.0,"Fri, Nov 25, 2016","Thu, Nov 10, 2016"
3945,Lewiston Nez Perce County,Lewiston,United States,LWS,KLWS,46.3745,-117.015389,1442,-8,A,"Lewiston, ID",58,58,58,58,4.241379310344828,12.362068965517242,7.0,32.0,"Wed, Nov 16, 2016","Thu, Nov 17, 2016"
3652,Midland International,Midland,United States,MAF,KMAF,31.942528,-102.201914,2871,-6,A,"Midland/Odessa, TX",497,498,500,500,5.251509054325959,11.54819277108434,64.0,46.0,"Sun, Nov 13, 2016","Mon, Nov 21, 2016"
4128,MBS International,Saginaw,United States,MBS,KMBS,43.532913,-84.079647,668,-5,A,"Saginaw/Bay City/Midland, MI",137,137,138,138,4.6350364963503665,14.75912408759124,10.0,49.0,"Fri, Nov 11, 2016","Mon, Nov  7, 2016"
3458,Kansas City International,Kansas City,United States,MCI,KMCI,39.297606,-94.713905,1026,-6,A,"Kansas City, MO",3529,3522,3533,3530,5.8257296684613165,12.137137989778523,38.0,92.0,"Sat, Nov 19, 2016","Mon, Nov 28, 2016"
3878,Orlando International,Orlando,United States,MCO,KMCO,28.429394,-81.308994,96,-5,A,"Orlando, FL",10148,10154,10157,10161,8.858100118249912,14.007189285010856,67.0,84.0,"Sun, Nov  6, 2016","Wed, Nov 30, 2016"
3542,Harrisburg International,Harrisburg,United States,MDT,KMDT,40.193494,-76.763403,310,-5,A,"Harrisburg, PA",282,281,282,282,4.836879432624112,16.512455516014242,16.0,51.0,"Wed, Nov 23, 2016","Sun, Nov 13, 2016"
3747,Chicago Midway International,Chicago,United States,MDW,KMDW,41.785972,-87.752417,620,-6,A,"Chicago, IL",6856,6865,6890,6893,6.6642357059509925,11.968827385287682,62.0,101.0,"Wed, Nov  2, 2016","Tue, Nov  1, 2016"
4335,Key Field,Meridian,United States,MEI,KMEI,32.332624,-88.751868,297,-6,A,"Meridian, MS",80,80,81,81,3.7375,12.8625,8.0,88.0,"Tue, Nov 15, 2016","Mon, Nov 28, 2016"
3473,Memphis International,Memphis,United States,MEM,KMEM,35.042417,-89.976667,341,-6,A,"Memphis, TN",1210,1210,1212,1213,5.594214876033057,14.611570247933884,38.0,91.0,"Mon, Nov 14, 2016","Tue, Nov  8, 2016"
3826,McAllen Miller International,Mcallen,United States,MFE,KMFE,26.175833,-98.238611,107,-6,A,"Mission/McAllen/Edinburg, TX",188,189,189,189,4.345744680851062,12.867724867724867,9.0,114.0,"Sun, Nov 27, 2016","Wed, Nov 23, 2016"
4101,Rogue Valley International Medford,Medford,United States,MFR,KMFR,42.374228,-122.8735,1335,-8,A,"Medford, OR",228,229,230,230,4.9078947368421035,16.078602620087327,43.0,50.0,"Mon, Nov  7, 2016","Tue, Nov 15, 2016"
4115,Montgomery Regional Airport ,MONTGOMERY,United States,MGM,KMGM,32.3006389,-86.3939722,221,-6,A,"Montgomery, AL",210,210,210,210,3.2095238095238106,16.32857142857142,36.0,132.0,"Fri, Nov 11, 2016","Fri, Nov  4, 2016"
4011,Manchester Regional Airport,Manchester NH,United States,MHT,KMHT,42.932556,-71.435667,266,-5,A,"Manchester, NH",559,562,562,565,5.085867620751333,12.49822064056939,17.0,41.0,"Wed, Nov 30, 2016","Thu, Nov 10, 2016"
3576,Miami International,Miami,United States,MIA,KMIA,25.79325,-80.290556,8,-5,A,"Miami, FL",5505,5492,5509,5498,9.769482288828334,17.88747268754554,122.0,80.0,"Sat, Nov 19, 2016","Thu, Nov  3, 2016"
3717,General Mitchell International,Milwaukee,United States,MKE,KMKE,42.947222,-87.896583,723,-6,A,"Milwaukee, WI",2470,2471,2478,2477,5.462753036437255,12.671388101983007,36.0,131.0,"Thu, Nov  3, 2016","Thu, Nov 17, 2016"
5754,Muskegon County Airport,Muskegon,United States,MKG,KMKG,43.1695,-86.2382,628,-5,A,"Muskegon, MI",55,54,55,55,4.454545454545454,15.203703703703704,7.0,41.0,"Fri, Nov 25, 2016","Sun, Nov 20, 2016"
3671,Melbourne International,Melbourne,United States,MLB,KMLB,28.102753,-80.645258,33,-5,A,"Melbourne, FL",107,108,107,108,3.9626168224299065,16.15740740740741,9.0,119.0,"Mon, Nov 14, 2016","Wed, Nov 30, 2016"
4072,Quad City International,Moline,United States,MLI,KMLI,41.448528,-90.507539,590,-6,A,"Moline, IL",257,258,258,259,4.202334630350195,16.23643410852714,14.0,53.0,"Sun, Nov 13, 2016","Thu, Nov 10, 2016"
3732,Monroe Regional,Monroe,United States,MLU,KMLU,32.510864,-92.037689,79,-6,A,"Monroe, LA",233,234,236,236,4.493562231759665,14.448717948717949,12.0,57.0,"Fri, Nov  4, 2016","Mon, Nov  7, 2016"
3782,Mobile Regional,Mobile,United States,MOB,KMOB,30.691231,-88.242814,219,-6,A,"Mobile, AL",449,450,450,450,4.084632516703793,14.346666666666666,11.0,116.0,"Fri, Nov 11, 2016","Wed, Nov 23, 2016"
3498,Minot International,Minot,United States,MOT,KMOT,48.259378,-101.280333,1716,-6,A,"Minot, ND",104,105,106,107,7.384615384615383,20.314285714285706,132.0,80.0,"Tue, Nov 29, 2016","Wed, Nov 30, 2016"
6838,Sawyer International Airport,Marquette,United States,MQT,KMQT,46.353611,-87.395278,1221,-5,A,"Marquette, MI",54,55,55,55,5.092592592592592,21.45454545454546,8.0,83.0,"Wed, Nov 23, 2016","Sun, Nov 20, 2016"
3948,Monterey Peninsula,Monterey,United States,MRY,KMRY,36.587,-121.842944,257,-8,A,"Monterey, CA",251,251,259,259,3.589641434262948,15.56573705179283,6.0,53.0,"Fri, Nov  4, 2016","Thu, Nov 10, 2016"
3459,Dane County Regional-Truax Field,Madison,United States,MSN,KMSN,43.139858,-89.337514,887,-6,A,"Madison, WI",591,594,593,594,4.619289340101521,13.932659932659933,46.0,89.0,"Sun, Nov 27, 2016","Wed, Nov  2, 2016"
4216,Missoula International,Missoula,United States,MSO,KMSO,46.916306,-114.090556,3205,-7,A,"Missoula, MT",167,167,168,168,5.772455089820356,17.209580838323355,22.0,60.0,"Fri, Nov 11, 2016","Thu, Nov 10, 2016"
3858,Minneapolis St. Paul International,Minneapolis,United States,MSP,KMSP,44.881956,-93.221767,841,-6,A,"Minneapolis, MN",10179,10197,10216,10235,5.553590726004511,19.016475433951065,64.0,129.0,"Sat, Nov  5, 2016","Thu, Nov 17, 2016"
3861,Louis Armstrong New Orleans International,New Orleans,United States,MSY,KMSY,29.993389,-90.258028,4,-6,A,"New Orleans, LA",3714,3710,3715,3713,5.509693053311786,11.273045822102402,42.0,120.0,"Mon, Nov 28, 2016","Sun, Nov  6, 2016"
6880,Montrose Regional Airport,Montrose CO,United States,MTJ,KMTJ,38.509794,-107.894242,5759,-7,A,"Montrose/Delta, CO",11,11,11,11,3.909090909090909,14.272727272727273,5.0,30.0,"Sat, Nov 12, 2016","Fri, Nov 25, 2016"
3515,Myrtle Beach International,Myrtle Beach,United States,MYR,KMYR,33.67975,-78.928333,25,-5,A,"Myrtle Beach, SC",332,332,333,333,4.415662650602406,11.777108433734934,18.0,35.0,"Fri, Nov 18, 2016","Sat, Nov 26, 2016"
4386,Albert J. Ellis,Jacksonville NC,United States,OAJ,KOAJ,34.829164,-77.612139,94,-5,A,"Jacksonville/Camp Lejeune, NC",104,104,104,104,3.5,16.39423076923077,6.0,46.0,"Tue, Nov  1, 2016","Sun, Nov 27, 2016"
3453,Metropolitan Oakland International,Oakland,United States,OAK,KOAK,37.721278,-122.220722,9,-8,A,"Oakland, CA",4074,4075,4088,4089,6.36794305351006,11.19607361963189,70.0,74.0,"Thu, Nov 17, 2016","Fri, Nov 18, 2016"
3456,Kahului,Kahului,United States,OGG,PHOG,20.89865,-156.430458,54,-10,N,"Kahului, HI",1842,1843,1845,1846,6.468512486427798,9.105263157894749,46.0,36.0,"Sat, Nov 26, 2016","Thu, Nov 24, 2016"
3863,Will Rogers World,Oklahoma City,United States,OKC,KOKC,35.393089,-97.600733,1295,-6,A,"Oklahoma City, OK",1243,1243,1262,1263,4.950925181013674,12.036202735317792,205.0,67.0,"Tue, Nov 15, 2016","Mon, Nov 28, 2016"
3454,Eppley Airfield,Omaha,United States,OMA,KOMA,41.303167,-95.894069,984,-6,A,"Omaha, NE",1548,1555,1553,1557,4.476744186046529,13.228295819935692,44.0,70.0,"Wed, Nov 23, 2016","Sun, Nov 13, 2016"
3615,Nome,Nome,United States,OME,PAOM,64.512203,-165.445247,37,-9,A,"Nome, AK",57,57,58,58,3.912280701754386,6.614035087719298,6.0,18.0,"Thu, Nov  3, 2016","Mon, Nov 28, 2016"
3734,Ontario International,Ontario,United States,ONT,KONT,34.056,-117.601194,944,-8,A,"Ontario, CA",1607,1606,1609,1609,4.843186060983203,11.754047322540442,27.0,78.0,"Thu, Nov 17, 2016","Sun, Nov 13, 2016"
3830,Chicago O'Hare International,Chicago,United States,ORD,KORD,41.978603,-87.904842,668,-6,A,"Chicago, IL",19345,19390,19459,19488,11.756681313000753,19.191903042805542,84.0,131.0,"Wed, Nov  2, 2016","Tue, Nov 15, 2016"
3611,Norfolk International,Norfolk,United States,ORF,KORF,36.894611,-76.201222,26,-5,A,"Norfolk, VA",809,810,814,816,4.19777503090235,13.198765432098774,25.0,56.0,"Fri, Nov 18, 2016","Tue, Nov  1, 2016"
6426,Worcester Regional Airport,Worcester,United States,ORH,KORH,42.2673,-71.8757,1009,-5,U,"Worcester, MA",58,58,59,58,3.7586206896551726,11.413793103448278,6.0,38.0,"Thu, Nov  3, 2016","Sun, Nov 20, 2016"
5757,Southwest Oregon Regional Airport,North Bend,United States,OTH,KOTH,43.4171,-124.246,17,-8,A,"North Bend/Coos Bay, OR",16,16,16,16,3.4375,13.6875,5.0,29.0,"Sun, Nov  6, 2016","Sun, Nov 13, 2016"
3693,Ralph Wien Memorial,Kotzebue,United States,OTZ,PAOT,66.884678,-162.59855,11,-9,A,"Kotzebue, AK",58,58,58,58,4.189655172413793,7.948275862068965,7.0,26.0,"Thu, Nov  3, 2016","Wed, Nov 30, 2016"
4117,Barkley Regional Airport,PADUCAH,United States,PAH,KPAH,37.0602875,-88.7729583,410,-6,A,"Paducah, KY",55,55,55,55,4.18181818181818,12.563636363636364,13.0,40.0,"Wed, Nov  2, 2016","Sun, Nov 20, 2016"
3771,Plattsburgh International,Plattsburgh,United States,PBG,KPBG,44.650944,-73.468139,234,-5,A,"Plattsburgh, NY",40,40,40,40,5.775,14.2,9.0,36.0,"Sun, Nov 20, 2016","Sun, Nov  6, 2016"
3722,Palm Beach International,West Palm Beach,United States,PBI,KPBI,26.683161,-80.095589,19,-5,A,"West Palm Beach/Palm Beach, FL",2032,2028,2032,2031,4.673720472440951,13.816074950690332,85.0,112.0,"Mon, Nov 14, 2016","Wed, Nov 30, 2016"
3720,Portland International,Portland,United States,PDX,KPDX,45.588722,-122.5975,30,-8,A,"Portland, OR",4785,4784,4791,4789,4.827795193312423,11.901128762541811,39.0,82.0,"Wed, Nov 16, 2016","Wed, Nov 23, 2016"
7056,Charlotte County-Punta Gorda Airport,Punta Gorda,United States,PGD,KPGD,26.919722,-81.990556,26,-5,A,"Punta Gorda, FL",40,40,40,40,8.3,12.625,12.0,26.0,"Wed, Nov 16, 2016","Fri, Nov 11, 2016"
3633,Newport News Williamsburg International,Newport News,United States,PHF,KPHF,37.131894,-76.492989,43,-5,A,"Newport News/Williamsburg, VA",87,87,87,87,4.011494252873564,13.32183908045977,9.0,41.0,"Thu, Nov 17, 2016","Wed, Nov 23, 2016"
3752,Philadelphia International,Philadelphia,United States,PHL,KPHL,39.871944,-75.241139,36,-5,A,"Philadelphia, PA",5960,5972,5975,5980,6.030033557046988,18.647689216342908,44.0,110.0,"Wed, Nov  2, 2016","Wed, Nov  2, 2016"
3462,Phoenix Sky Harbor International,Phoenix,United States,PHX,KPHX,33.434278,-112.011583,1135,-7,N,"Phoenix, AZ",12707,12729,12750,12744,7.817187377036292,15.525571529578166,88.0,82.0,"Thu, Nov 10, 2016","Sat, Nov 26, 2016"
4046,Peoria Regional,Peoria,United States,PIA,KPIA,40.664203,-89.693258,660,-6,A,"Peoria, IL",207,206,207,206,4.352657004830917,18.92718446601942,18.0,121.0,"Tue, Nov 22, 2016","Sat, Nov 26, 2016"
5759,Hattiesburg Laurel Regional Airport,Hattiesburg/Laurel,United States,PIB,KPIB,31.4671,-89.3371,298,-6,A,"Hattiesburg/Laurel, MS",51,52,52,52,3.4313725490196076,13.538461538461538,6.0,43.0,"Tue, Nov 15, 2016","Fri, Nov 11, 2016"
5760,Pocatello Regional Airport,Pocatello,United States,PIH,KPIH,42.9098,-112.596,4452,-7,A,"Pocatello, ID",78,78,78,78,3.7051282051282053,15.115384615384615,5.0,40.0,"Fri, Nov 11, 2016","Thu, Nov 10, 2016"
3570,Pittsburgh International,Pittsburgh (pennsylva),United States,PIT,KPIT,40.491467,-80.232872,1204,-5,A,"Pittsburgh, PA",2159,2161,2161,2164,5.906901343214439,13.347061545580742,37.0,65.0,"Mon, Nov 14, 2016","Wed, Nov  2, 2016"
5762,Pellston Regional Airport of Emmet County Airport,Pellston,United States,PLN,KPLN,45.5709,-84.7967,720,-5,A,"Pellston, MI",77,77,77,77,5.688311688311686,13.675324675324676,9.0,37.0,"Fri, Nov 18, 2016","Sun, Nov  6, 2016"
3564,Pensacola Regional,Pensacola,United States,PNS,KPNS,30.473425,-87.186611,121,-6,A,"Pensacola, FL",444,444,444,444,4.261261261261262,13.130630630630629,39.0,50.0,"Sat, Nov 12, 2016","Tue, Nov 29, 2016"
6133,Tri Cities Airport,Pasco,United States,PSC,PSC,46.2647,-119.119,410,-8,A,"Pasco/Kennewick/Richland, WA",283,285,287,287,4.653710247349823,15.638596491228073,19.0,64.0,"Sat, Nov 26, 2016","Thu, Nov 10, 2016"
4147,Petersburg James A. Johnson,Petersburg,United States,PSG,PAPG,56.801667,-132.945278,105,-9,A,"Petersburg, AK",58,58,58,58,3.7413793103448274,8.94827586206897,6.0,35.0,"Sat, Nov 26, 2016","Fri, Nov 25, 2016"
3839,Palm Springs International,Palm Springs,United States,PSP,KPSP,33.829667,-116.506694,477,-8,A,"Palm Springs, CA",907,904,907,907,5.651598676957003,15.256637168141594,33.0,125.0,"Wed, Nov  2, 2016","Thu, Nov 17, 2016"
3641,Theodore Francis Green State,Providence,United States,PVD,KPVD,41.732581,-71.420383,55,-5,A,"Providence, RI",1126,1122,1129,1127,4.658969804618115,12.542780748663105,25.0,86.0,"Wed, Nov 16, 2016","Thu, Nov  3, 2016"
3862,Portland International Jetport,Portland,United States,PWM,KPWM,43.646161,-70.309281,77,-5,A,"Portland, ME",440,437,446,445,3.7613636363636362,14.036613272311216,80.0,59.0,"Sat, Nov  5, 2016","Fri, Nov 18, 2016"
4087,Rapid City Regional Airport,Rapid City,United States,RAP,KRAP,44.045278,-103.057222,3204,-7,A,"Rapid City, SD",152,153,152,153,5.144736842105267,15.823529411764707,21.0,55.0,"Thu, Nov  3, 2016","Thu, Nov 17, 2016"
4098,Redding Municipal,Redding,United States,RDD,KRDD,40.509,-122.293389,504,-8,A,"Redding, CA",89,88,90,90,4.943820224719106,16.829545454545453,8.0,46.0,"Wed, Nov 16, 2016","Tue, Nov 15, 2016"
4103,Roberts Field,Redmond-Bend,United States,RDM,KRDM,44.254066,-121.149964,3077,-8,A,"Bend/Redmond, OR",258,258,260,260,3.7364341085271318,14.387596899224807,12.0,69.0,"Fri, Nov 18, 2016","Mon, Nov  7, 2016"
3626,Raleigh Durham International,Raleigh-durham,United States,RDU,KRDU,35.877639,-78.787472,435,-5,A,"Raleigh/Durham, NC",2924,2917,2928,2927,4.784541723666203,15.082276311278711,55.0,117.0,"Mon, Nov  7, 2016","Wed, Nov  2, 2016"
5765,Rhinelander Oneida County Airport,Rhinelander,United States,RHI,KRHI,45.6312,-89.4675,1624,-6,A,"Rhinelander, WI",84,84,84,84,4.6428571428571415,18.773809523809526,8.0,91.0,"Tue, Nov  1, 2016","Fri, Nov 18, 2016"
3608,Richmond International,Richmond,United States,RIC,KRIC,37.505167,-77.319667,167,-5,A,"Richmond, VA",1292,1290,1295,1295,5.836687306501547,15.94031007751938,73.0,88.0,"Tue, Nov 29, 2016","Sun, Nov  6, 2016"
5766,Rock Springs Sweetwater County Airport,Rock Springs,United States,RKS,KRKS,41.5942,-109.065,6760,-7,A,"Rock Springs, WY",53,53,55,55,3.358490566037736,18.679245283018865,8.0,42.0,"Mon, Nov 28, 2016","Tue, Nov 22, 2016"
3807,Reno Tahoe International,Reno,United States,RNO,KRNO,39.499108,-119.768108,4415,-8,A,"Reno, NV",1148,1148,1152,1154,4.918989547038329,13.481707317073173,29.0,78.0,"Sat, Nov 26, 2016","Thu, Nov 10, 2016"
4016,Roanoke Regional,Roanoke VA,United States,ROA,KROA,37.325472,-79.975417,1175,-5,A,"Roanoke, VA",187,187,188,188,5.288770053475934,16.58288770053477,21.0,49.0,"Sat, Nov 12, 2016","Tue, Nov 15, 2016"
3622,Greater Rochester International,Rochester,United States,ROC,KROC,43.118866,-77.672389,559,-5,A,"Rochester, NY",612,611,624,623,5.797385620915035,13.927986906710311,25.0,57.0,"Sun, Nov 27, 2016","Mon, Nov 21, 2016"
3736,Roswell International Air Center,Roswell,United States,ROW,KROW,33.301556,-104.530556,3671,-7,A,"Roswell, NM",50,50,52,52,6.58,14.700000000000003,10.0,43.0,"Tue, Nov  1, 2016","Sun, Nov  6, 2016"
4048,Rochester,Rochester,United States,RST,KRST,43.908283,-92.500014,1317,-6,A,"Rochester, MN",102,103,103,104,3.5784313725490198,16.63106796116504,16.0,58.0,"Tue, Nov  1, 2016","Tue, Nov 15, 2016"
3793,Southwest Florida International,Fort Myers,United States,RSW,KRSW,26.536167,-81.755167,30,-5,A,"Fort Myers, FL",2487,2483,2491,2488,5.151588258946532,11.815142972211039,54.0,74.0,"Sun, Nov 20, 2016","Tue, Nov 29, 2016"
3784,Santa Fe Municipal,Santa Fe,United States,SAF,KSAF,35.617108,-106.089422,6348,-7,A,"Santa Fe, NM",105,104,106,106,4.742857142857144,15.365384615384615,36.0,43.0,"Sun, Nov 27, 2016","Sat, Nov 12, 2016"
3731,San Diego International,San Diego,United States,SAN,KSAN,32.733556,-117.189667,17,-8,A,"San Diego, CA",6294,6294,6316,6313,4.2121067683508135,15.305529075309813,57.0,90.0,"Wed, Nov  9, 2016","Thu, Nov 24, 2016"
3621,San Antonio International,San Antonio,United States,SAT,KSAT,29.533694,-98.469778,809,-6,A,"San Antonio, TX",2632,2630,2632,2631,5.416793313069902,11.763498098859305,60.0,83.0,"Mon, Nov 14, 2016","Mon, Nov 28, 2016"
3613,Savannah Hilton Head International,Savannah,United States,SAV,KSAV,32.127583,-81.202139,51,-5,A,"Savannah, GA",586,583,587,586,5.501706484641636,15.259005145797598,45.0,90.0,"Tue, Nov 29, 2016","Wed, Nov 30, 2016"
3949,Santa Barbara Municipal,Santa Barbara,United States,SBA,KSBA,34.426211,-119.840372,10,-8,A,"Santa Barbara, CA",463,461,466,466,5.025917926565877,16.97396963123646,30.0,84.0,"Sun, Nov 27, 2016","Tue, Nov 15, 2016"
4359,South Bend Regional,South Bend,United States,SBN,KSBN,41.708661,-86.31725,799,-5,A,"South Bend, IN",436,438,440,441,5.857798165137617,17.55251141552512,39.0,56.0,"Mon, Nov 14, 2016","Sat, Nov 19, 2016"
5768,San Luis County Regional Airport,San Luis Obispo,United States,SBP,KSBP,35.2368,-120.642,212,-8,A,"San Luis Obispo, CA",261,260,265,265,3.8199233716475094,16.226923076923082,46.0,59.0,"Sat, Nov 26, 2016","Sat, Nov 26, 2016"
3620,Deadhorse,Deadhorse,United States,SCC,PASC,70.19475,-148.465167,64,-9,A,"Deadhorse, AK",58,58,59,59,4.3275862068965525,7.689655172413793,7.0,24.0,"Sat, Nov 12, 2016","Thu, Nov 24, 2016"
4318,University Park Airport,State College Pennsylvania,United States,SCE,KUNV,40.849278,-77.848694,1239,-5,A,"State College, PA",58,57,58,57,4.53448275862069,16.42105263157895,13.0,58.0,"Wed, Nov 30, 2016","Sun, Nov 20, 2016"
4014,Louisville International Airport,Louisville,United States,SDF,KSDF,38.1740858,-85.7364989,501,-5,A,"Louisville, KY",795,793,795,797,6.2176100628930815,13.152585119798237,27.0,89.0,"Tue, Nov 22, 2016","Sun, Nov 27, 2016"
3577,Seattle Tacoma International,Seattle,United States,SEA,KSEA,47.449,-122.309306,433,-8,A,"Seattle, WA",10160,10167,10168,10171,8.584251968503917,17.90410150486865,65.0,95.0,"Tue, Nov 29, 2016","Sat, Nov 19, 2016"
3469,San Francisco International,San Francisco,United States,SFO,KSFO,37.618972,-122.374889,13,-8,A,"San Francisco, CA",13794,13803,13873,13874,8.414093083949526,18.17836702166193,79.0,123.0,"Tue, Nov  8, 2016","Thu, Nov 10, 2016"
4348,Springfield Branson National,Springfield,United States,SGF,KSGF,37.245667,-93.388639,1268,-6,A,"Springfield, MO",201,201,202,202,4.825870646766169,15.631840796019896,21.0,49.0,"Thu, Nov 10, 2016","Sun, Nov 13, 2016"
4064,St. George Municipal,Saint George,United States,SGU,KSGU,37.090583,-113.593056,2941,-7,A,"St. George, UT",199,198,199,198,3.7537688442211055,16.01515151515152,6.0,46.0,"Tue, Nov  1, 2016","Wed, Nov 30, 2016"
3609,Shreveport Regional,Shreveport,United States,SHV,KSHV,32.446629,-93.8256,258,-6,A,"Shreveport, LA",487,488,493,493,4.876796714579052,12.985655737704919,36.0,124.0,"Fri, Nov 18, 2016","Fri, Nov  4, 2016"
3856,Sitka Rocky Gutierrez,Sitka,United States,SIT,PASI,57.047138,-135.361611,21,-9,A,"Sitka, AK",82,82,83,83,4.597560975609757,11.060975609756095,11.0,23.0,"Tue, Nov 22, 2016","Wed, Nov 16, 2016"
3748,Norman Y. Mineta San Jose International,San Jose,United States,SJC,KSJC,37.3626,-121.929022,62,-8,A,"San Jose, CA",3589,3589,3595,3596,4.870158818612439,12.386737252716642,40.0,137.0,"Thu, Nov 10, 2016","Sun, Nov 13, 2016"
3708,San Angelo Regional-Mathis Field,San Angelo,United States,SJT,KSJT,31.35775,-100.496306,1919,-6,A,"San Angelo, TX",85,85,85,85,3.2588235294117656,11.74117647058823,14.0,29.0,"Tue, Nov 15, 2016","Fri, Nov 18, 2016"
3536,Salt Lake City International,Salt Lake City,United States,SLC,KSLC,40.788389,-111.977772,4227,-7,A,"Salt Lake City, UT",8567,8572,8577,8582,6.191082059063849,18.74101726551567,75.0,124.0,"Mon, Nov 21, 2016","Mon, Nov 28, 2016"
3817,Sacramento International,Sacramento,United States,SMF,KSMF,38.695417,-121.590778,27,-8,A,"Sacramento, CA",3492,3494,3496,3499,5.45246277205042,12.552375500858602,30.0,75.0,"Thu, Nov 17, 2016","Sat, Nov 26, 2016"
3867,John Wayne Airport Orange County,Santa Ana,United States,SNA,KSNA,33.675667,-117.868222,56,-8,A,"Santa Ana, CA",3444,3444,3452,3450,5.683507549361205,12.467189314750291,47.0,69.0,"Fri, Nov 11, 2016","Fri, Nov 18, 2016"
4336,Abraham Lincoln Capital,Springfield,United States,SPI,KSPI,39.8441,-89.677889,597,-6,A,"Springfield, IL",134,135,135,136,4.410447761194031,12.985185185185186,8.0,53.0,"Sun, Nov 27, 2016","Sat, Nov 26, 2016"
3680,Sheppard AFB Wichita Falls Municipal,Wichita Falls,United States,SPS,KSPS,33.988797,-98.491894,1019,-6,A,"Wichita Falls, TX",81,81,82,82,8.395061728395065,11.839506172839505,18.0,49.0,"Wed, Nov  9, 2016","Mon, Nov 28, 2016"
4067,Sarasota Bradenton International,Sarasota,United States,SRQ,KSRQ,27.395444,-82.554389,30,-5,A,"Sarasota/Bradenton, FL",227,227,227,227,3.8722466960352424,12.3215859030837,10.0,36.0,"Fri, Nov 11, 2016","Mon, Nov 21, 2016"
3678,Lambert St. Louis International,St. Louis,United States,STL,KSTL,38.748697,-90.370028,618,-6,A,"St. Louis, MO",4653,4645,4660,4657,5.3795400816677414,10.978256189451043,48.0,95.0,"Wed, Nov  2, 2016","Sun, Nov 20, 2016"
6494,Friedman Memorial,Hailey,United States,SUN,KSUN,43.504444,-114.296194,5320,-7,A,"Sun Valley/Hailey/Ketchum, ID",58,58,58,58,2.275862068965518,9.72413793103448,4.0,21.0,"Sat, Nov 12, 2016","Sat, Nov 12, 2016"
3661,Stewart International,Newburgh,United States,SWF,KSWF,41.504094,-74.104839,491,-5,A,"Newburgh/Poughkeepsie, NY",57,57,58,58,5.385964912280702,10.491228070175435,12.0,20.0,"Mon, Nov 14, 2016","Wed, Nov  9, 2016"
3745,Syracuse Hancock International,Syracuse,United States,SYR,KSYR,43.111187,-76.106311,421,-5,A,"Syracuse, NY",465,465,466,466,4.780645161290325,19.56129032258062,18.0,103.0,"Wed, Nov  2, 2016","Mon, Nov 21, 2016"
3698,Tallahassee Regional,Tallahassee,United States,TLH,KTLH,30.396528,-84.350333,81,-5,A,"Tallahassee, FL",190,190,190,190,3.5842105263157893,12.647368421052636,9.0,43.0,"Tue, Nov 29, 2016","Mon, Nov 28, 2016"
3646,Tampa International,Tampa,United States,TPA,KTPA,27.975472,-82.53325,26,-5,A,"Tampa, FL",5504,5500,5509,5507,4.9022529069767495,11.79854545454549,41.0,76.0,"Mon, Nov 28, 2016","Tue, Nov 29, 2016"
4116,Tri-Cities Regional Airport,BRISTOL,United States,TRI,KTRI,36.4752222,-82.4074167,1519,-5,A,"Bristol/Johnson City/Kingsport, TN",189,189,189,189,3.878306878306878,15.460317460317452,9.0,49.0,"Wed, Nov  2, 2016","Mon, Nov 14, 2016"
3447,Trenton Mercer,Trenton,United States,TTN,KTTN,40.276692,-74.813469,213,-5,A,"Trenton, NJ",179,179,180,180,6.748603351955308,11.899441340782118,17.0,48.0,"Wed, Nov 16, 2016","Tue, Nov  8, 2016"
3855,Tulsa International,Tulsa,United States,TUL,KTUL,36.198389,-95.888111,677,-6,A,"Tulsa, OK",1150,1148,1152,1150,4.389565217391303,13.177700348432055,22.0,78.0,"Sat, Nov 12, 2016","Fri, Nov 18, 2016"
3636,Tucson International,Tucson,United States,TUS,KTUS,32.116083,-110.941028,2643,-7,N,"Tucson, AZ",1417,1418,1424,1423,4.982357092448843,14.082510578279262,61.0,87.0,"Fri, Nov 18, 2016","Thu, Nov 24, 2016"
4023,Cherry Capital Airport,Traverse City,United States,TVC,KTVC,44.741445,-85.582235,624,-5,A,"Traverse City, MI",106,106,106,106,4.311320754716979,14.283018867924529,8.0,38.0,"Sat, Nov 12, 2016","Sat, Nov 19, 2016"
4263,Magic Valley Regional Airport,Twin Falls,United States,TWF,KTWF,42.481803,-114.487733,4151,-7,A,"Twin Falls, ID",82,82,82,82,3.658536585365854,15.085365853658537,6.0,36.0,"Wed, Nov  9, 2016","Wed, Nov 30, 2016"
3770,Texarkana Regional-Webb Field,Texarkana,United States,TXK,KTXK,33.453722,-93.991028,390,-6,A,"Texarkana, AR",50,50,51,51,5.100000000000001,11.839999999999998,9.0,22.0,"Tue, Nov 29, 2016","Tue, Nov  1, 2016"
3676,McGhee Tyson,Knoxville,United States,TYS,KTYS,35.810972,-83.994028,981,-5,A,"Knoxville, TN",600,601,607,608,4.711666666666664,15.171381031613977,33.0,116.0,"Wed, Nov 30, 2016","Wed, Nov 30, 2016"
5776,Valdosta Regional Airport,Valdosta,United States,VLD,KVLD,30.7825,-83.2767,203,-5,A,"Valdosta, GA",83,83,83,83,3.5903614457831323,15.265060240963855,9.0,33.0,"Wed, Nov 23, 2016","Sun, Nov 13, 2016"
3873,Eglin AFB,Valparaiso,United States,VPS,KVPS,30.48325,-86.5254,87,-6,A,"Valparaiso, FL",284,284,285,285,7.116197183098593,14.017605633802818,26.0,38.0,"Sat, Nov 19, 2016","Mon, Nov 28, 2016"
5969,Wrangell Airport,Wrangell,United States,WRG,PAWG,56.4843,-132.37,44,-9,A,"Wrangell, AK",58,58,58,58,4.172413793103449,6.120689655172414,7.0,15.0,"Tue, Nov 29, 2016","Wed, Nov 30, 2016"
4356,NW Arkansas Regional,Bentonville,United States,XNA,KXNA,36.2818694,-94.3068111,1287,-6,A,"Fayetteville, AR",447,446,449,449,5.196868008948549,15.147982062780269,21.0,65.0,"Sat, Nov 19, 2016","Mon, Nov 28, 2016"
6803,Yakutat,Yakutat,United States,YAK,PAYA,59.3012,-139.3937,33,-9,A,"Yakutat, AK",57,57,58,58,4.1754385964912295,9.105263157894742,6.0,27.0,"Wed, Nov  2, 2016","Sun, Nov  6, 2016"
3596,Yuma MCAS Yuma International,Yuma,United States,YUM,KYUM,32.656578,-114.60598,216,-7,N,"Yuma, AZ",145,145,145,145,3.6344827586206896,15.310344827586205,8.0,58.0,"Thu, Nov  3, 2016","Tue, Nov  1, 2016"
