airport_id,name,city,country,iata_faa,iaco,latitude,longitude,altitude,zone,dst,city_state,avg_able_landings,avg_able_takeoffs,total_landings,total_takeoffs,avg_taxi_in,avg_taxi_out,longest_taxi_in,longest_taxi_out,lng_tx_in_date,lng_tx_out_date
4355,Lehigh Valley International,Allentown,United States,ABE,KABE,40.652083,-75.440806,393,-5,A,"Allentown/Bethlehem/Easton, PA",583,586,633,636,3.7289879931389365,7.733788395904437,9.0,141.0,"Fri, Jan 20, 1995","Thu, Jan 12, 1995"
4019,Albuquerque International Sunport,Albuquerque,United States,ABQ,KABQ,35.0402222,-106.6091944,5355,-7,A,"Albuquerque, NM",3046,3056,3087,3090,4.150032829940906,9.67048429319368,66.0,74.0,"Wed, Jan 18, 1995","Thu, Jan  5, 1995"
3531,Kodiak,Kodiak,United States,ADQ,PADQ,57.749967,-152.493856,78,-9,A,"Kodiak, AK",27,27,31,31,2.925925925925926,8.592592592592593,5.0,22.0,"Tue, Jan  3, 1995","Tue, Jan  3, 1995"
3658,Augusta Regional At Bush Field,Bush Field,United States,AGS,KAGS,33.369944,-81.9645,144,-5,A,"Augusta, GA",255,259,271,271,3.3725490196078436,8.702702702702704,7.0,25.0,"Tue, Jan 10, 1995","Tue, Jan 17, 1995"
3794,King Salmon,King Salmon,United States,AKN,PAKN,58.676778,-156.649278,68,-9,A,"King Salmon, AK",21,21,21,21,2.7619047619047614,6.714285714285714,4.0,11.0,"Thu, Jan  5, 1995","Fri, Jan 20, 1995"
3864,Albany International,Albany,United States,ALB,KALB,42.748267,-73.801692,285,-5,A,"Albany, NY",1041,1047,1085,1084,3.702209414024976,9.02292263610316,13.0,77.0,"Sat, Jan 14, 1995","Sat, Jan 14, 1995"
3840,Rick Husband Amarillo International,Amarillo,United States,AMA,KAMA,35.219369,-101.705931,3607,-6,A,"Amarillo, TX",355,355,361,362,3.5464788732394354,7.363380281690142,13.0,66.0,"Thu, Jan  5, 1995","Thu, Jan 12, 1995"
3774,Ted Stevens Anchorage International,Anchorage,United States,ANC,PANC,61.174361,-149.996361,152,-9,A,"Anchorage, AK",1224,1225,1247,1245,3.6666666666666665,12.293061224489803,22.0,119.0,"Wed, Jan  4, 1995","Sun, Jan 22, 1995"
5967,Aniak Airport,Aniak,United States,ANI,PANI,61.5816,-159.543,88,-9,A,"Aniak, AK",7,7,8,8,3.142857142857143,6.571428571428571,4.0,8.0,"Wed, Jan 11, 1995","Sat, Jan 14, 1995"
3682,Hartsfield Jackson Atlanta International,Atlanta,United States,ATL,KATL,33.636719,-84.428067,1026,-5,A,"Atlanta, GA",18895,18941,19268,19261,6.448425509393993,17.198458370730187,34.0,224.0,"Thu, Jan 12, 1995","Mon, Jan  9, 1995"
3673,Austin Bergstrom International,Austin,United States,AUS,KAUS,30.194528,-97.669889,542,-6,A,"Austin, TX",2995,2993,3034,3029,3.2871452420701144,8.764450384229853,37.0,90.0,"Mon, Jan  2, 1995","Thu, Jan 26, 1995"
4007,Asheville Regional Airport,Asheville,United States,AVL,KAVL,35.436194,-82.541806,2165,-5,A,"Asheville, NC",262,261,275,275,3.099236641221374,8.314176245210732,5.0,87.0,"Wed, Jan  4, 1995","Tue, Jan 17, 1995"
4286,Wilkes Barre Scranton International,Scranton,United States,AVP,KAVP,41.338478,-75.723403,962,-5,A,"Scranton/Wilkes-Barre, PA",210,213,217,217,3.242857142857143,6.793427230046948,8.0,17.0,"Tue, Jan  3, 1995","Mon, Jan  2, 1995"
4039,Kalamazoo,Kalamazoo,United States,AZO,KAZO,42.234875,-85.552058,874,-5,A,"Kalamazoo, MI",221,218,239,239,3.7918552036199094,7.568807339449539,15.0,20.0,"Wed, Jan  4, 1995","Fri, Jan  6, 1995"
3825,Bradley International,Windsor Locks,United States,BDL,KBDL,41.938889,-72.683222,173,-5,A,"Hartford, CT",2256,2252,2341,2341,4.117021276595754,11.442273534635875,22.0,97.0,"Sun, Jan  8, 1995","Thu, Jan 12, 1995"
3599,Bethel,Bethel,United States,BET,PABE,60.779778,-161.838,121,-9,A,"Bethel, AK",69,69,74,74,3.072463768115942,7.8985507246376825,5.0,15.0,"Tue, Jan 17, 1995","Wed, Jan 11, 1995"
3558,Meadows Field,Bakersfield,United States,BFL,KBFL,35.433598,-119.05677,507,-8,A,"Bakersfield, CA",62,61,62,62,5.370967741935484,11.000000000000002,9.0,110.0,"Tue, Jan 31, 1995","Tue, Jan 31, 1995"
4129,Greater Binghamton-Edwin A. Link Field,Binghamton,United States,BGM,KBGM,42.208689,-75.979839,1636,-5,A,"Binghamton, NY",119,118,124,124,3.857142857142857,7.966101694915256,6.0,37.0,"Mon, Jan  9, 1995","Thu, Jan 26, 1995"
3463,Bangor International,Bangor,United States,BGR,KBGR,44.807444,-68.828139,192,-5,A,"Bangor, ME",149,149,155,154,5.389261744966443,12.81208053691275,12.0,109.0,"Sun, Jan 22, 1995","Sat, Jan  7, 1995"
3811,Birmingham International,Birmingham,United States,BHM,KBHM,33.562942,-86.75355,644,-6,A,"Birmingham, AL",1438,1439,1452,1453,3.08414464534075,8.117442668519816,12.0,78.0,"Mon, Jan 23, 1995","Mon, Jan  9, 1995"
4021,Billings Logan International Airport,Billings,United States,BIL,KBIL,45.80921,-108.537654,3652,-7,A,"Billings, MT",295,297,298,298,3.135593220338983,9.138047138047137,11.0,36.0,"Tue, Jan 10, 1995","Mon, Jan 16, 1995"
4083,Bismarck Municipal Airport,Bismarck,United States,BIS,KBIS,46.775842,-100.757931,1661,-6,A,"Bismarck/Mandan, ND",116,116,120,119,4.04310344827586,8.017241379310342,10.0,22.0,"Wed, Jan  4, 1995","Thu, Jan 12, 1995"
3690,Nashville International,Nashville,United States,BNA,KBNA,36.124472,-86.678194,599,-6,A,"Nashville, TN",3947,3955,4000,4000,5.268811755763878,10.789886219974713,36.0,92.0,"Wed, Jan 11, 1995","Sun, Jan 15, 1995"
3495,Boise Air Terminal,Boise,United States,BOI,KBOI,43.564361,-116.222861,2871,-7,A,"Boise, ID",692,690,699,698,3.41907514450867,9.681159420289857,16.0,37.0,"Sun, Jan  8, 1995","Thu, Jan 19, 1995"
3448,General Edward Lawrence Logan International,Boston,United States,BOS,KBOS,42.364347,-71.005181,19,-5,A,"Boston, MA",8318,8344,8731,8761,6.4438566963212365,15.210570469798666,121.0,212.0,"Thu, Jan 12, 1995","Wed, Jan 11, 1995"
3738,Brownsville South Padre Island International,Brownsville,United States,BRO,KBRO,25.906833,-97.425861,22,-6,A,"Brownsville, TX",61,60,61,60,4.295081967213114,8.416666666666666,20.0,33.0,"Mon, Jan 16, 1995","Tue, Jan  3, 1995"
3571,Wiley Post Will Rogers Memorial,Barrow,United States,BRW,PABR,71.285446,-156.766003,44,-9,A,"Barrow, AK",77,78,79,79,2.636363636363637,6.705128205128205,5.0,21.0,"Sat, Jan  7, 1995","Tue, Jan 10, 1995"
3846,Baton Rouge Metro-Ryan Field,Baton Rouge,United States,BTR,KBTR,30.533167,-91.149639,70,-6,A,"Baton Rouge, LA",419,419,424,425,3.5536992840095465,7.727923627684968,16.0,38.0,"Fri, Jan 27, 1995","Mon, Jan  2, 1995"
3711,Burlington International,Burlington,United States,BTV,KBTV,44.471861,-73.153278,335,-5,A,"Burlington, VT",271,271,279,279,3.4575645756457556,8.22509225092251,9.0,42.0,"Tue, Jan  3, 1995","Thu, Jan  5, 1995"
3820,Buffalo Niagara International,Buffalo,United States,BUF,KBUF,42.940525,-78.732167,724,-5,A,"Buffalo, NY",1881,1881,1992,1996,3.355130249867094,9.43221690590111,13.0,90.0,"Fri, Jan 20, 1995","Tue, Jan  3, 1995"
3644,Bob Hope,Burbank,United States,BUR,KBUR,34.200667,-118.358667,778,-8,A,"Burbank, CA",2535,2536,2586,2588,2.015384615384615,9.170741324921142,20.0,61.0,"Sat, Jan  7, 1995","Sun, Jan  8, 1995"
3849,Baltimore Washington International,Baltimore,United States,BWI,KBWI,39.175361,-76.668333,146,-5,A,"Baltimore, MD",6179,6157,6350,6318,4.545881210551858,11.598018515510805,32.0,59.0,"Sat, Jan  7, 1995","Fri, Jan 27, 1995"
4020,Gallatin Field,Bozeman,United States,BZN,KBZN,45.777643,-111.160151,4500,-7,A,"Bozeman, MT",184,185,186,186,4.271739130434782,9.178378378378383,22.0,39.0,"Thu, Jan 19, 1995","Tue, Jan  3, 1995"
3561,Columbia Metropolitan,Colombia,United States,CAE,KCAE,33.938833,-81.119528,236,-5,A,"Columbia, SC",547,549,555,554,3.848263254113344,8.27504553734062,14.0,30.0,"Thu, Jan 12, 1995","Fri, Jan 20, 1995"
4112,Akron Canton Regional Airport,Akron,United States,CAK,KCAK,40.9160833,-81.4421944,1228,-5,A,"Akron, OH",119,119,124,124,4.134453781512608,5.46218487394958,7.0,18.0,"Wed, Jan 25, 1995","Tue, Jan 24, 1995"
3610,Merle K. Mudhole Smith,Cordova,United States,CDV,PACV,60.491778,-145.477556,48,-9,A,"Cordova, AK",62,62,62,62,3.338709677419355,6.064516129032258,10.0,16.0,"Mon, Jan 23, 1995","Mon, Jan 23, 1995"
3578,Lovell Field,Chattanooga,United States,CHA,KCHA,35.035278,-85.203808,683,-5,A,"Chattanooga, TN",299,296,306,304,3.3578595317725752,8.233108108108105,6.0,35.0,"Thu, Jan 12, 1995","Sun, Jan 29, 1995"
3806,Charleston AFB International,Charleston,United States,CHS,KCHS,32.898647,-80.040528,45,-5,A,"Charleston, SC",995,997,1019,1019,4.740703517587949,8.524573721163495,30.0,38.0,"Wed, Jan  4, 1995","Sat, Jan  7, 1995"
4043,Cedar Rapids,Cedar Rapids,United States,CID,KCID,41.884694,-91.710806,869,-6,A,"Cedar Rapids/Iowa City, IA",361,359,389,386,4.315789473684218,8.671309192200551,16.0,33.0,"Sat, Jan 28, 1995","Fri, Jan 27, 1995"
3486,Cleveland Hopkins International,Cleveland,United States,CLE,KCLE,41.411689,-81.849794,791,-5,A,"Cleveland, OH",6043,6077,6317,6318,5.645705775277182,13.895672206680926,80.0,182.0,"Mon, Jan 16, 1995","Mon, Jan 16, 1995"
3876,Charlotte Douglas International,Charlotte,United States,CLT,KCLT,35.214,-80.943139,748,-5,A,"Charlotte, NC",11532,11617,11945,11947,5.111689212625741,14.532409400017215,30.0,105.0,"Fri, Jan 27, 1995","Fri, Jan  6, 1995"
3759,Port Columbus International,Columbus,United States,CMH,KCMH,39.997972,-82.891889,815,-5,A,"Columbus, OH",3255,3261,3385,3381,3.985867895545307,10.595829500153306,23.0,224.0,"Wed, Jan 11, 1995","Sat, Jan 28, 1995"
3819,City Of Colorado Springs Municipal,Colorado Springs,United States,COS,KCOS,38.805805,-104.700778,6187,-7,A,"Colorado Springs, CO",807,810,824,824,5.042131350681536,11.590123456790115,16.0,45.0,"Sun, Jan 22, 1995","Fri, Jan 27, 1995"
3744,Corpus Christi International,Corpus Christi,United States,CRP,KCRP,27.770361,-97.501222,44,-6,A,"Corpus Christi, TX",440,440,450,449,3.375,6.9818181818181815,7.0,22.0,"Sat, Jan 28, 1995","Sun, Jan  1, 1995"
4285,Yeager,Charleston,United States,CRW,KCRW,38.373147,-81.593189,981,-5,A,"Charleston/Dunbar, WV",197,195,209,209,2.4619289340101513,6.584615384615384,18.0,19.0,"Fri, Jan  6, 1995","Mon, Jan 30, 1995"
4255,Columbus Metropolitan Airport,Columbus,United States,CSG,KCSG,32.5163333,-84.9388611,397,-5,A,"Columbus, GA",86,85,89,88,3.0697674418604652,7.6470588235294175,5.0,18.0,"Fri, Jan 13, 1995","Thu, Jan 19, 1995"
3488,Cincinnati Northern Kentucky International,Cincinnati,United States,CVG,KCVG,39.048836,-84.667822,896,-5,A,"Cincinnati, OH",5627,5612,5835,5848,5.8677803447663095,16.204561653599377,44.0,166.0,"Sun, Jan 22, 1995","Fri, Jan  6, 1995"
3950,Daytona Beach International,Daytona Beach,United States,DAB,KDAB,29.179917,-81.058056,34,-5,A,"Daytona Beach, FL",367,367,372,372,3.457765667574932,9.460490463215262,10.0,132.0,"Fri, Jan 13, 1995","Sun, Jan  1, 1995"
3502,Dallas Love Field,Dallas,United States,DAL,KDAL,32.847111,-96.851778,487,-6,A,"Dallas, TX",3830,3856,3950,3953,2.5657963446475214,7.120072614107884,28.0,66.0,"Sun, Jan  8, 1995","Wed, Jan 18, 1995"
3627,James M. Cox Dayton International,Dayton,United States,DAY,KDAY,39.902375,-84.219375,1009,-5,A,"Dayton, OH",1338,1339,1384,1385,4.8348281016442485,10.155339805825253,36.0,65.0,"Mon, Jan  9, 1995","Fri, Jan  6, 1995"
3520,Ronald Reagan Washington National,Washington,United States,DCA,KDCA,38.852083,-77.037722,15,-5,A,"Washington, DC",7336,7345,7730,7737,5.086559432933455,13.095302927161327,139.0,161.0,"Sat, Jan 28, 1995","Sat, Jan 28, 1995"
3751,Denver International,Denver,United States,DEN,KDEN,39.861656,-104.673178,5431,-7,A,"Denver, CO",11249,11282,11446,11442,7.148279847097514,15.073391242687475,60.0,105.0,"Sun, Jan 15, 1995","Wed, Jan 11, 1995"
3670,Dallas Fort Worth International,Dallas-fort Worth,United States,DFW,KDFW,32.896828,-97.037997,607,-6,A,"Dallas/Fort Worth, TX",22663,22700,23076,23061,10.069628910559068,19.019074889867778,71.0,205.0,"Sat, Jan  7, 1995","Thu, Jan 12, 1995"
3460,Dillingham,Dillingham,United States,DLG,PADL,59.044667,-158.5055,74,-9,A,"Dillingham, AK",20,20,21,21,3.2,6.6,8.0,13.0,"Wed, Jan  4, 1995","Tue, Jan 17, 1995"
3598,Duluth International,Duluth,United States,DLH,KDLH,46.842091,-92.193649,1428,-6,A,"Duluth, MN",149,149,155,155,4.174496644295301,7.684563758389261,10.0,25.0,"Fri, Jan 13, 1995","Fri, Jan 13, 1995"
3713,Durango La Plata County,Durango,United States,DRO,KDRO,37.151516,-107.75377,6685,-7,A,"Durango, CO",30,30,31,31,4.500000000000002,15.333333333333337,10.0,49.0,"Fri, Jan  6, 1995","Thu, Jan  5, 1995"
3729,Des Moines International,Des Moines,United States,DSM,KDSM,41.533972,-93.663083,958,-6,A,"Des Moines, IA",744,744,790,788,4.883064516129031,9.120967741935477,18.0,134.0,"Fri, Jan 27, 1995","Sun, Jan 15, 1995"
3645,Detroit Metro Wayne County,Detroit,United States,DTW,KDTW,42.212444,-83.353389,645,-5,A,"Detroit, MI",11907,11959,12502,12505,9.048374905517713,18.583660841207443,139.0,161.0,"Fri, Jan  6, 1995","Fri, Jan  6, 1995"
4250,Eagle County Regional,Vail,United States,EGE,KEGE,39.642556,-106.917694,6540,-7,A,"Eagle, CO",158,160,160,161,4.943037974683545,16.624999999999996,12.0,81.0,"Sat, Jan  7, 1995","Thu, Jan  5, 1995"
3946,Elmira Corning Regional,Elmira,United States,ELM,KELM,42.159889,-76.891611,954,-5,A,"Elmira/Corning, NY",120,121,124,124,3.35,5.495867768595042,6.0,21.0,"Sun, Jan 22, 1995","Sat, Jan 28, 1995"
3559,El Paso International,El Paso,United States,ELP,KELP,31.80725,-106.377583,3958,-7,A,"El Paso, TX",2407,2408,2423,2423,2.705857914416285,7.524086378737541,28.0,49.0,"Mon, Jan  2, 1995","Wed, Jan 11, 1995"
4276,Erie International-Tom Ridge Field,Erie,United States,ERI,KERI,42.082022,-80.176217,733,-5,A,"Erie, PA",115,116,124,124,3.365217391304348,5.775862068965517,7.0,16.0,"Fri, Jan  6, 1995","Sun, Jan 15, 1995"
4099,Mahlon Sweet Field,Eugene,United States,EUG,KEUG,44.124583,-123.211972,374,-8,A,"Eugene, OR",179,182,186,186,2.7206703910614536,9.208791208791203,7.0,22.0,"Mon, Jan 16, 1995","Mon, Jan  9, 1995"
4018,Evansville Regional,Evansville,United States,EVV,KEVV,38.036997,-87.532364,418,-6,A,"Evansville, IN",86,86,89,89,4.2441860465116275,6.244186046511628,8.0,22.0,"Tue, Jan 24, 1995","Sun, Jan  1, 1995"
3494,Newark Liberty International,Newark,United States,EWR,KEWR,40.6925,-74.168667,18,-5,A,"Newark, NJ",9824,9895,10628,10628,7.57807410423453,21.6026275896917,81.0,144.0,"Mon, Jan  9, 1995","Thu, Jan 12, 1995"
3832,Fairbanks International,Fairbanks,United States,FAI,PAFA,64.815114,-147.856267,434,-9,A,"Fairbanks, AK",332,332,335,335,2.704819277108435,9.89457831325301,14.0,33.0,"Wed, Jan 11, 1995","Fri, Jan  6, 1995"
4292,Hector International Airport,Fargo,United States,FAR,KFAR,46.92065,-96.8157639,902,-6,A,"Fargo, ND",179,179,182,182,5.078212290502791,9.787709497206706,12.0,71.0,"Sun, Jan 15, 1995","Thu, Jan 26, 1995"
3687,Fresno Yosemite International,Fresno,United States,FAT,KFAT,36.776194,-119.71814,336,-8,A,"Fresno, CA",273,269,276,274,4.091575091575093,8.085501858736059,8.0,26.0,"Mon, Jan 23, 1995","Thu, Jan 26, 1995"
5738,Fayetteville Regional-Grannis Field,Fayetteville,United States,FAY,KFAY,34.9912,-78.8803,189,-5,A,"Fayetteville, NC",175,173,182,182,3.914285714285714,5.485549132947975,7.0,12.0,"Sun, Jan 29, 1995","Fri, Jan 13, 1995"
4127,Glacier Park International,Kalispell,United States,FCA,KFCA,48.310472,-114.256,2977,-7,A,"Kalispell, MT",62,65,65,66,4.112903225806452,8.646153846153839,8.0,21.0,"Wed, Jan 11, 1995","Fri, Jan  6, 1995"
3533,Fort Lauderdale Hollywood International,Fort Lauderdale,United States,FLL,KFLL,26.072583,-80.15275,9,-5,A,"Fort Lauderdale, FL",3412,3414,3478,3475,4.015826494724497,12.645577035735215,21.0,164.0,"Sun, Jan  1, 1995","Fri, Jan 13, 1995"
4089,Bishop International,Flint,United States,FNT,KFNT,42.965424,-83.743629,782,-5,A,"Flint, MI",59,59,62,62,3.8135593220338984,5.915254237288136,7.0,24.0,"Tue, Jan 24, 1995","Sat, Jan 21, 1995"
4009,Sioux Falls,Sioux Falls,United States,FSD,KFSD,43.582014,-96.741914,1429,-6,A,"Sioux Falls, SD",318,318,337,336,5.034591194968558,9.616352201257856,11.0,37.0,"Wed, Jan 18, 1995","Fri, Jan 27, 1995"
4041,Fort Wayne,Fort Wayne,United States,FWA,KFWA,40.978472,-85.195139,815,-5,A,"Fort Wayne, IN",253,252,271,270,4.011857707509879,9.472222222222221,9.0,70.0,"Fri, Jan  6, 1995","Sat, Jan 21, 1995"
3467,Spokane International,Spokane,United States,GEG,KGEG,47.619861,-117.533833,2376,-8,A,"Spokane, WA",885,884,892,891,3.39322033898305,9.99434389140273,10.0,52.0,"Fri, Jan  6, 1995","Sun, Jan  8, 1995"
3442,Grand Forks International,Grand Forks,United States,GFK,KGFK,47.949256,-97.176111,845,-6,A,"Grand Forks, ND",114,114,120,119,4.105263157894737,6.921052631578948,8.0,22.0,"Tue, Jan 17, 1995","Tue, Jan 17, 1995"
3472,Gainesville Regional,Gainesville,United States,GNV,KGNV,29.690056,-82.271778,152,-5,A,"Gainesville, FL",123,121,124,123,2.804878048780488,6.363636363636363,5.0,15.0,"Sat, Jan 14, 1995","Fri, Jan 20, 1995"
3653,Austin Straubel International,Green Bay,United States,GRB,KGRB,44.485072,-88.129589,695,-6,A,"Green Bay, WI",222,222,234,234,3.5045045045045047,9.463963963963964,7.0,26.0,"Thu, Jan 19, 1995","Fri, Jan 20, 1995"
3685,Gerald R. Ford International,Grand Rapids,United States,GRR,KGRR,42.880833,-85.522806,794,-5,A,"Grand Rapids, MI",824,819,868,867,4.128640776699026,10.74114774114775,45.0,88.0,"Mon, Jan  2, 1995","Fri, Jan 13, 1995"
4008,Piedmont Triad,Greensboro,United States,GSO,KGSO,36.09775,-79.937306,925,-5,A,"Greensboro/High Point, NC",3180,3190,3297,3302,4.430188679245291,11.523510971786836,33.0,98.0,"Sun, Jan  8, 1995","Sat, Jan  7, 1995"
4034,Greenville-Spartanburg International,Greenville,United States,GSP,KGSP,34.895556,-82.218889,964,-5,A,"Greer, SC",895,902,941,940,4.132960893854746,7.834811529933489,36.0,51.0,"Sat, Jan 21, 1995","Thu, Jan 19, 1995"
3880,Great Falls International,Great Falls,United States,GTF,KGTF,47.482,-111.370689,3677,-7,A,"Great Falls, MT",209,209,217,217,3.899521531100478,6.717703349282297,15.0,19.0,"Sun, Jan  1, 1995","Mon, Jan  9, 1995"
7051,Gunnison - Crested Butte,Gunnison,United States,GUC,KGUC,38.533889,-106.933056,7678,-7,A,"Gunnison, CO",48,48,49,49,4.208333333333333,13.5625,8.0,34.0,"Wed, Jan 25, 1995","Wed, Jan  4, 1995"
4339,Yampa Valley,Hayden,United States,HDN,KHDN,40.481181,-107.21766,6602,-7,A,"Hayden, CO",140,142,145,145,3.9857142857142858,14.992957746478874,16.0,45.0,"Sat, Jan 28, 1995","Sat, Jan  7, 1995"
3504,Helena Regional,Helena,United States,HLN,KHLN,46.606806,-111.98275,3877,-7,A,"Helena, MT",93,90,93,93,2.5698924731182804,6.433333333333334,13.0,11.0,"Tue, Jan 24, 1995","Thu, Jan 26, 1995"
3728,Honolulu International,Honolulu,United States,HNL,PHNL,21.318681,-157.922428,13,-10,N,"Honolulu, HI",1160,1164,1169,1172,6.275,17.20532646048109,40.0,120.0,"Tue, Jan 10, 1995","Fri, Jan 20, 1995"
3566,William P. Hobby,Houston,United States,HOU,KHOU,29.645419,-95.278889,46,-6,A,"Houston, TX",4791,4812,4942,4949,3.387184303903154,7.993765586034909,45.0,82.0,"Mon, Jan 16, 1995","Mon, Jan  9, 1995"
3589,Westchester County,White Plains,United States,HPN,KHPN,41.066959,-73.707575,439,-5,A,"White Plains, NY",488,483,556,556,4.375,11.979296066252596,44.0,156.0,"Wed, Jan 11, 1995","Sat, Jan 14, 1995"
3560,Valley International,Harlingen,United States,HRL,KHRL,26.2285,-97.654389,36,-6,A,"Harlingen/San Benito, TX",513,515,523,523,2.1812865497076013,6.046601941747573,8.0,25.0,"Wed, Jan 18, 1995","Sun, Jan 22, 1995"
4113,Huntsville International Airport-Carl T. Jones Field,Huntsville,United States,HSV,KHSV,34.6371944,-86.7750556,629,-6,A,"Huntsville, AL",618,616,629,628,4.258899676375401,8.568181818181817,9.0,50.0,"Tue, Jan 17, 1995","Thu, Jan 26, 1995"
5742,TriState-Milton J. Ferguson Field,Huntington,United States,HTS,KHTS,38.3667,-82.558,828,-5,A,"Ashland, WV",106,106,120,120,2.9811320754716975,5.962264150943396,5.0,22.0,"Thu, Jan 12, 1995","Fri, Jan 20, 1995"
4006,Tweed-New Haven Airport,New Haven,United States,HVN,KHVN,41.26375,-72.886806,14,-5,A,"New Haven, CT",79,83,93,93,2.3924050632911382,7.590361445783134,6.0,24.0,"Mon, Jan 30, 1995","Tue, Jan 24, 1995"
3714,Washington Dulles International,Washington,United States,IAD,KIAD,38.944533,-77.455811,313,-5,A,"Washington, DC",2582,2588,2661,2659,5.592563903950436,13.729134466769713,59.0,288.0,"Sat, Jan 28, 1995","Sat, Jan 28, 1995"
3550,George Bush Intercontinental Houston,Houston,United States,IAH,KIAH,29.984433,-95.341442,97,-6,A,"Houston, TX",10063,10150,10397,10398,6.767365596740533,14.854679802955665,72.0,290.0,"Wed, Jan 18, 1995","Wed, Jan 18, 1995"
3457,Wichita Mid Continent,Wichita,United States,ICT,KICT,37.649944,-97.433056,1333,-6,A,"Wichita, KS",598,603,632,632,3.8963210702341153,9.238805970149267,10.0,62.0,"Sun, Jan 15, 1995","Tue, Jan 10, 1995"
4100,Idaho Falls Regional,Idaho Falls,United States,IDA,KIDA,43.514556,-112.07075,4744,-7,A,"Idaho Falls, ID",90,92,92,93,3.1222222222222222,9.630434782608699,6.0,26.0,"Sat, Jan  7, 1995","Fri, Jan  6, 1995"
3845,Wilmington International,Wilmington,United States,ILM,KILM,34.270615,-77.902569,32,-5,A,"Wilmington, NC",178,177,182,182,3.8876404494382024,5.564971751412428,7.0,11.0,"Tue, Jan  3, 1995","Sat, Jan 21, 1995"
3585,Indianapolis International,Indianapolis,United States,IND,KIND,39.717331,-86.294383,797,-5,A,"Indianapolis, IN",3274,3287,3417,3414,5.00885766646304,10.827198052935808,47.0,129.0,"Sat, Jan 28, 1995","Sun, Jan 22, 1995"
3857,Long Island MacArthur,Islip,United States,ISP,KISP,40.79525,-73.100222,99,-5,A,"Islip, NY",294,296,308,309,4.282312925170068,8.557432432432432,15.0,163.0,"Mon, Jan  2, 1995","Thu, Jan 12, 1995"
3947,Ithaca Tompkins Regional,Ithaca,United States,ITH,KITH,42.491028,-76.458444,1099,-5,A,"Ithaca/Cortland, NY",92,92,93,93,4.032608695652175,8.402173913043475,7.0,25.0,"Wed, Jan 25, 1995","Sun, Jan 22, 1995"
4027,Jackson Hole Airport,Jacksn Hole,United States,JAC,KJAC,43.60733333,-110.73775,6451,-7,A,"Jackson, WY",152,152,157,159,3.559210526315788,10.203947368421055,10.0,45.0,"Mon, Jan 23, 1995","Thu, Jan 26, 1995"
3580,Jackson Evers International,Jackson,United States,JAN,KJAN,32.311167,-90.075889,346,-6,A,"Jackson/Vicksburg, MS",396,394,399,399,3.823232323232323,8.137055837563453,34.0,23.0,"Sun, Jan 15, 1995","Thu, Jan 19, 1995"
3712,Jacksonville International,Jacksonville,United States,JAX,KJAX,30.494056,-81.687861,30,-5,A,"Jacksonville, FL",2144,2142,2204,2204,4.328824626865668,8.971521942110183,36.0,53.0,"Wed, Jan  4, 1995","Thu, Jan 12, 1995"
3797,John F. Kennedy International,New York,United States,JFK,KJFK,40.639751,-73.778925,13,-5,A,"New York, NY",3727,3721,3807,3790,8.370807620069753,21.165546895995693,42.0,177.0,"Sun, Jan 15, 1995","Wed, Jan 11, 1995"
3492,Juneau International,Juneau,United States,JNU,PAJN,58.354972,-134.576278,21,-9,A,"Juneau, AK",220,224,239,239,3.254545454545455,12.214285714285719,9.0,60.0,"Fri, Jan 13, 1995","Thu, Jan  5, 1995"
3514,Kona International At Keahole,Kona,United States,KOA,PHKO,19.738767,-156.045631,47,-10,N,"Kona, HI",62,62,62,62,3.2903225806451615,7.193548387096774,6.0,18.0,"Fri, Jan  6, 1995","Tue, Jan 31, 1995"
6718,St. Marys Airport,St. Mary's,United States,KSM,PASM,62.0605,-163.302,311,-9,A,"St. Mary's, AK",7,7,8,8,2.857142857142857,6.428571428571429,3.0,11.0,"Wed, Jan  4, 1995","Sat, Jan 14, 1995"
3808,Ketchikan International,Ketchikan,United States,KTN,PAKT,55.355556,-131.71375,88,-9,A,"Ketchikan, AK",180,179,186,186,3.4944444444444445,8.296089385474861,6.0,18.0,"Wed, Jan 25, 1995","Fri, Jan  6, 1995"
3544,Capital City,Lansing,United States,LAN,KLAN,42.7787,-84.587357,861,-5,A,"Lansing, MI",194,196,208,208,4.061855670103093,8.326530612244898,16.0,47.0,"Mon, Jan 23, 1995","Sat, Jan 21, 1995"
3877,McCarran International,Las Vegas,United States,LAS,KLAS,36.080056,-115.15225,2141,-8,A,"Las Vegas, NV",9081,9097,9266,9270,4.166391366589572,11.839507529954941,60.0,89.0,"Fri, Jan  6, 1995","Tue, Jan 17, 1995"
3484,Los Angeles International,Los Angeles,United States,LAX,KLAX,33.942536,-118.408075,126,-8,A,"Los Angeles, CA",14392,14425,14961,14958,7.873401889938853,15.215181975736597,66.0,152.0,"Wed, Jan  4, 1995","Fri, Jan 27, 1995"
3829,Lubbock Preston Smith International,Lubbock,United States,LBB,KLBB,33.663639,-101.822778,3282,-6,A,"Lubbock, TX",503,502,512,511,2.403578528827037,6.478087649402391,12.0,35.0,"Thu, Jan 26, 1995","Thu, Jan 19, 1995"
4017,Blue Grass,Lexington KY,United States,LEX,KLEX,38.0365,-84.605889,979,-5,A,"Lexington, KY",414,415,430,429,3.900966183574879,7.585542168674698,20.0,59.0,"Fri, Jan  6, 1995","Fri, Jan  6, 1995"
3697,LaGuardia Airport,New York,United States,LGA,KLGA,40.777245,-73.872608,22,-5,A,"New York, NY",8564,8575,8867,8872,5.7499999999999885,17.517084548105007,75.0,99.0,"Thu, Jan 19, 1995","Thu, Jan 19, 1995"
3582,Long Beach,Long Beach,United States,LGB,KLGB,33.817722,-118.151611,60,-8,A,"Long Beach, CA",160,160,173,172,3.475,9.8375,8.0,22.0,"Fri, Jan 27, 1995","Thu, Jan 12, 1995"
3660,Adams Field,Little Rock,United States,LIT,KLIT,34.729444,-92.224306,262,-6,A,"Little Rock, AR",1509,1507,1560,1557,3.9814446653412827,8.374253483742532,54.0,62.0,"Tue, Jan 17, 1995","Thu, Jan 19, 1995"
3543,Lincoln,Lincoln,United States,LNK,KLNK,40.850971,-96.75925,1219,-6,A,"Lincoln, NE",222,225,246,247,3.3468468468468466,7.097777777777778,7.0,31.0,"Tue, Jan 10, 1995","Mon, Jan 30, 1995"
4044,LaCrosse Municipal,LaCrosse,United States,LSE,KLSE,43.878986,-91.256711,654,-6,A,"La Crosse, WI",116,116,120,119,3.2758620689655173,7.5344827586206895,12.0,27.0,"Wed, Jan  4, 1995","Fri, Jan  6, 1995"
3652,Midland International,Midland,United States,MAF,KMAF,31.942528,-102.201914,2871,-6,A,"Midland/Odessa, TX",627,627,640,639,2.7161084529505595,6.334928229665073,7.0,17.0,"Tue, Jan 10, 1995","Thu, Jan  5, 1995"
4128,MBS International,Saginaw,United States,MBS,KMBS,43.532913,-84.079647,668,-5,A,"Saginaw/Bay City/Midland, MI",298,299,330,331,3.6308724832214767,8.688963210702342,10.0,89.0,"Sat, Jan 28, 1995","Fri, Jan 13, 1995"
3458,Kansas City International,Kansas City,United States,MCI,KMCI,39.297606,-94.713905,1026,-6,A,"Kansas City, MO",4746,4760,4939,4937,4.481036662452587,10.176470588235304,30.0,113.0,"Mon, Jan  2, 1995","Wed, Jan  4, 1995"
3878,Orlando International,Orlando,United States,MCO,KMCO,28.429394,-81.308994,96,-5,A,"Orlando, FL",6545,6547,6639,6637,4.757066462948815,12.720177180387978,52.0,132.0,"Mon, Jan  2, 1995","Wed, Jan 18, 1995"
3542,Harrisburg International,Harrisburg,United States,MDT,KMDT,40.193494,-76.763403,310,-5,A,"Harrisburg, PA",698,697,737,736,3.780802292263611,9.30416068866571,17.0,33.0,"Tue, Jan  3, 1995","Wed, Jan  4, 1995"
3747,Chicago Midway International,Chicago,United States,MDW,KMDW,41.785972,-87.752417,620,-6,A,"Chicago, IL",4042,4072,4373,4377,4.62097971301335,10.002946954813352,40.0,113.0,"Mon, Jan  2, 1995","Fri, Jan 27, 1995"
3473,Memphis International,Memphis,United States,MEM,KMEM,35.042417,-89.976667,341,-6,A,"Memphis, TN",4481,4476,4572,4567,4.787993751394786,13.15571939231457,63.0,63.0,"Wed, Jan 25, 1995","Tue, Jan 17, 1995"
3826,McAllen Miller International,Mcallen,United States,MFE,KMFE,26.175833,-98.238611,107,-6,A,"Mission/McAllen/Edinburg, TX",325,324,333,332,4.076923076923075,9.293209876543198,9.0,73.0,"Tue, Jan 10, 1995","Fri, Jan 20, 1995"
4101,Rogue Valley International Medford,Medford,United States,MFR,KMFR,42.374228,-122.8735,1335,-8,A,"Medford, OR",123,122,124,124,2.951219512195123,8.016393442622952,7.0,34.0,"Fri, Jan 27, 1995","Sun, Jan  8, 1995"
4115,Montgomery Regional Airport ,MONTGOMERY,United States,MGM,KMGM,32.3006389,-86.3939722,221,-6,A,"Montgomery, AL",211,211,216,217,3.758293838862558,7.454976303317536,21.0,23.0,"Sun, Jan  8, 1995","Fri, Jan  6, 1995"
4011,Manchester Regional Airport,Manchester NH,United States,MHT,KMHT,42.932556,-71.435667,266,-5,A,"Manchester, NH",377,379,403,403,3.909814323607427,10.021108179419528,13.0,82.0,"Fri, Jan 13, 1995","Sun, Jan 22, 1995"
3576,Miami International,Miami,United States,MIA,KMIA,25.79325,-80.290556,8,-5,A,"Miami, FL",6353,6378,6440,6439,7.149220840547768,20.15443712762619,58.0,121.0,"Sat, Jan 14, 1995","Sun, Jan 15, 1995"
3717,General Mitchell International,Milwaukee,United States,MKE,KMKE,42.947222,-87.896583,723,-6,A,"Milwaukee, WI",1498,1495,1601,1599,4.580774365821108,11.939799331103679,23.0,87.0,"Sun, Jan  1, 1995","Sun, Jan 22, 1995"
3671,Melbourne International,Melbourne,United States,MLB,KMLB,28.102753,-80.645258,33,-5,A,"Melbourne, FL",303,301,306,304,4.075907590759076,8.17607973421927,10.0,28.0,"Sun, Jan 22, 1995","Thu, Jan  5, 1995"
4072,Quad City International,Moline,United States,MLI,KMLI,41.448528,-90.507539,590,-6,A,"Moline, IL",210,210,238,237,3.519047619047619,7.552380952380951,10.0,38.0,"Fri, Jan 27, 1995","Fri, Jan 13, 1995"
3732,Monroe Regional,Monroe,United States,MLU,KMLU,32.510864,-92.037689,79,-6,A,"Monroe, LA",186,185,186,185,3.6344086021505375,7.508108108108108,8.0,16.0,"Tue, Jan 17, 1995","Thu, Jan 26, 1995"
3782,Mobile Regional,Mobile,United States,MOB,KMOB,30.691231,-88.242814,219,-6,A,"Mobile, AL",513,511,526,526,3.6003898635477585,7.320939334637965,11.0,53.0,"Sun, Jan 22, 1995","Sat, Jan 28, 1995"
3498,Minot International,Minot,United States,MOT,KMOT,48.259378,-101.280333,1716,-6,A,"Minot, ND",93,93,93,93,4.634408602150538,8.322580645161294,9.0,80.0,"Sat, Jan 14, 1995","Thu, Jan 12, 1995"
3948,Monterey Peninsula,Monterey,United States,MRY,KMRY,36.587,-121.842944,257,-8,A,"Monterey, CA",109,109,119,119,2.6330275229357802,7.669724770642202,4.0,43.0,"Sun, Jan 15, 1995","Thu, Jan 26, 1995"
3459,Dane County Regional-Truax Field,Madison,United States,MSN,KMSN,43.139858,-89.337514,887,-6,A,"Madison, WI",309,307,328,327,4.336569579288028,11.420195439739413,11.0,80.0,"Thu, Jan 12, 1995","Sat, Jan 21, 1995"
4216,Missoula International,Missoula,United States,MSO,KMSO,46.916306,-114.090556,3205,-7,A,"Missoula, MT",149,147,155,155,4.02013422818792,8.360544217687075,8.0,27.0,"Sat, Jan  7, 1995","Wed, Jan 11, 1995"
3858,Minneapolis St. Paul International,Minneapolis,United States,MSP,KMSP,44.881956,-93.221767,841,-6,A,"Minneapolis, MN",10606,10668,11060,11060,5.537525928719589,15.62720284964381,51.0,118.0,"Thu, Jan 12, 1995","Sun, Jan 22, 1995"
3861,Louis Armstrong New Orleans International,New Orleans,United States,MSY,KMSY,29.993389,-90.258028,4,-6,A,"New Orleans, LA",4378,4386,4485,4484,3.9575148469620838,8.653898768809828,42.0,57.0,"Fri, Jan 20, 1995","Tue, Jan 24, 1995"
6880,Montrose Regional Airport,Montrose CO,United States,MTJ,KMTJ,38.509794,-107.894242,5759,-7,A,"Montrose/Delta, CO",11,11,11,11,3.3636363636363638,8.363636363636363,4.0,15.0,"Sat, Jan 21, 1995","Sat, Jan  7, 1995"
3515,Myrtle Beach International,Myrtle Beach,United States,MYR,KMYR,33.67975,-78.928333,25,-5,A,"Myrtle Beach, SC",182,182,186,186,3.840659340659341,5.972527472527473,6.0,18.0,"Sat, Jan 28, 1995","Sun, Jan 22, 1995"
4386,Albert J. Ellis,Jacksonville NC,United States,OAJ,KOAJ,34.829164,-77.612139,94,-5,A,"Jacksonville/Camp Lejeune, NC",85,85,93,93,2.7529411764705887,6.541176470588238,7.0,15.0,"Mon, Jan 30, 1995","Tue, Jan  3, 1995"
3453,Metropolitan Oakland International,Oakland,United States,OAK,KOAK,37.721278,-122.220722,9,-8,A,"Oakland, CA",5215,5239,5393,5395,3.5906040268456363,9.942546287459459,38.0,53.0,"Sat, Jan 21, 1995","Sun, Jan 22, 1995"
3456,Kahului,Kahului,United States,OGG,PHOG,20.89865,-156.430458,54,-10,N,"Kahului, HI",218,220,220,220,4.201834862385323,9.704545454545455,13.0,22.0,"Sun, Jan  1, 1995","Wed, Jan  4, 1995"
3863,Will Rogers World,Oklahoma City,United States,OKC,KOKC,35.393089,-97.600733,1295,-6,A,"Oklahoma City, OK",2041,2050,2108,2109,3.4409603135717783,8.35414634146342,31.0,77.0,"Tue, Jan  3, 1995","Tue, Jan 10, 1995"
3454,Eppley Airfield,Omaha,United States,OMA,KOMA,41.303167,-95.894069,984,-6,A,"Omaha, NE",1330,1333,1372,1371,3.4526315789473685,10.770442610652667,16.0,56.0,"Wed, Jan 11, 1995","Thu, Jan 26, 1995"
3615,Nome,Nome,United States,OME,PAOM,64.512203,-165.445247,37,-9,A,"Nome, AK",62,63,63,63,3.0,6.365079365079365,5.0,15.0,"Tue, Jan 17, 1995","Fri, Jan 13, 1995"
3734,Ontario International,Ontario,United States,ONT,KONT,34.056,-117.601194,944,-8,A,"Ontario, CA",3430,3435,3521,3518,2.7830903790087476,10.094032023289644,26.0,64.0,"Fri, Jan 20, 1995","Wed, Jan 18, 1995"
3830,Chicago O'Hare International,Chicago,United States,ORD,KORD,41.978603,-87.904842,668,-6,A,"Chicago, IL",23615,23733,24784,24784,7.462206224857083,16.088779336788363,232.0,160.0,"Tue, Jan 10, 1995","Thu, Jan 19, 1995"
3611,Norfolk International,Norfolk,United States,ORF,KORF,36.894611,-76.201222,26,-5,A,"Norfolk, VA",1940,1939,1997,1997,3.331958762886597,8.641052088705514,14.0,62.0,"Fri, Jan 20, 1995","Fri, Jan 27, 1995"
3693,Ralph WienMemorial,Kotzebue,United States,OTZ,PAOT,66.884678,-162.59855,11,-9,A,"Kotzebue, AK",58,60,63,63,2.8965517241379306,7.033333333333333,6.0,16.0,"Mon, Jan 23, 1995","Tue, Jan 10, 1995"
3722,Palm Beach International,West Palm Beach,United States,PBI,KPBI,26.683161,-80.095589,19,-5,A,"West Palm Beach/Palm Beach, FL",2346,2342,2376,2380,4.286018755328222,11.091374893253619,68.0,76.0,"Sun, Jan 29, 1995","Thu, Jan 19, 1995"
3720,Portland International,Portland,United States,PDX,KPDX,45.588722,-122.5975,30,-8,A,"Portland, OR",3644,3643,3691,3692,3.940450054884746,10.094976667581664,63.0,69.0,"Wed, Jan 25, 1995","Sat, Jan 28, 1995"
4073,Panama City Bay County International,Panama City,United States,PFN,KPFN,30.212083,-85.682806,20,-6,A,"Panama City, FL",121,121,124,124,3.669421487603306,8.148760330578515,11.0,27.0,"Sun, Jan  1, 1995","Thu, Jan 19, 1995"
3633,Newport News Williamsburg International,Newport News,United States,PHF,KPHF,37.131894,-76.492989,43,-5,A,"Newport News/Williamsburg, VA",139,138,151,151,3.8345323741007196,6.253623188405797,7.0,17.0,"Wed, Jan  4, 1995","Mon, Jan 16, 1995"
3752,Philadelphia International,Philadelphia,United States,PHL,KPHL,39.871944,-75.241139,36,-5,A,"Philadelphia, PA",7926,7915,8156,8121,5.013121372697472,12.996588755527476,35.0,80.0,"Sun, Jan 15, 1995","Thu, Jan 12, 1995"
3462,Phoenix Sky Harbor International,Phoenix,United States,PHX,KPHX,33.434278,-112.011583,1135,-7,N,"Phoenix, AZ",13029,13098,13343,13342,3.7184741729986963,11.71316231485723,45.0,135.0,"Sun, Jan 29, 1995","Wed, Jan 18, 1995"
4046,Peoria Regional,Peoria,United States,PIA,KPIA,40.664203,-89.693258,660,-6,A,"Peoria, IL",57,58,62,62,3.3508771929824563,9.60344827586207,6.0,34.0,"Thu, Jan 19, 1995","Fri, Jan 20, 1995"
3570,Pittsburgh International,Pittsburgh (pennsylva),United States,PIT,KPIT,40.491467,-80.232872,1204,-5,A,"Pittsburgh, PA",10873,10942,11355,11357,6.249885036328492,14.586638640102358,33.0,92.0,"Wed, Jan 18, 1995","Sat, Jan 21, 1995"
3564,Pensacola Regional,Pensacola,United States,PNS,KPNS,30.473425,-87.186611,121,-6,A,"Pensacola, FL",575,578,580,583,3.659130434782609,7.717993079584779,9.0,63.0,"Sun, Jan 15, 1995","Thu, Jan 12, 1995"
6133,Tri Cities Airport,Pasco,United States,PSC,PSC,46.2647,-119.119,410,-8,A,"Pasco/Kennewick/Richland, WA",123,123,124,124,3.910569105691057,7.32520325203252,10.0,25.0,"Thu, Jan 12, 1995","Sun, Jan 15, 1995"
4147,Petersburg James A. Johnson,Petersburg,United States,PSG,PAPG,56.801667,-132.945278,105,-9,A,"Petersburg, AK",54,55,62,62,3.074074074074074,7.327272727272727,5.0,22.0,"Thu, Jan 19, 1995","Sat, Jan  7, 1995"
3839,Palm Springs International,Palm Springs,United States,PSP,KPSP,33.829667,-116.506694,477,-8,A,"Palm Springs, CA",362,367,374,375,3.75414364640884,9.790190735694816,7.0,43.0,"Fri, Jan 13, 1995","Wed, Jan  4, 1995"
3641,Theodore Francis Green State,Providence,United States,PVD,KPVD,41.732581,-71.420383,55,-5,A,"Providence, RI",1057,1054,1093,1093,4.376537369914846,10.391840607210634,25.0,92.0,"Fri, Jan 20, 1995","Wed, Jan 18, 1995"
3862,Portland International Jetport,Portland,United States,PWM,KPWM,43.646161,-70.309281,77,-5,A,"Portland, ME",410,412,433,432,3.624390243902439,10.6359223300971,16.0,127.0,"Wed, Jan 18, 1995","Sat, Jan 14, 1995"
4087,Rapid City Regional Airport,Rapid City,United States,RAP,KRAP,44.045278,-103.057222,3204,-7,A,"Rapid City, SD",60,60,62,62,4.299999999999998,8.249999999999998,10.0,29.0,"Thu, Jan 12, 1995","Thu, Jan 12, 1995"
3626,Raleigh Durham International,Raleigh-durham,United States,RDU,KRDU,35.877639,-78.787472,435,-5,A,"Raleigh/Durham, NC",3235,3240,3302,3301,3.45564142194745,10.485493827160498,23.0,102.0,"Fri, Jan 20, 1995","Mon, Jan 23, 1995"
3608,Richmond International,Richmond,United States,RIC,KRIC,37.505167,-77.319667,167,-5,A,"Richmond, VA",1423,1422,1462,1461,4.0583274771609315,9.281293952180029,16.0,69.0,"Tue, Jan 31, 1995","Thu, Jan 19, 1995"
3807,Reno Tahoe International,Reno,United States,RNO,KRNO,39.499108,-119.768108,4415,-8,A,"Reno, NV",1484,1492,1520,1526,4.109164420485176,9.083780160857902,21.0,81.0,"Sun, Jan 29, 1995","Sat, Jan 28, 1995"
4016,Roanoke Regional,Roanoke VA,United States,ROA,KROA,37.325472,-79.975417,1175,-5,A,"Roanoke, VA",285,285,302,302,3.9614035087719297,7.515789473684211,10.0,27.0,"Sat, Jan 28, 1995","Sat, Jan  7, 1995"
3622,Greater Rochester International,Rochester,United States,ROC,KROC,43.118866,-77.672389,559,-5,A,"Rochester, NY",1427,1434,1469,1474,5.177295024526986,8.334728033472802,18.0,78.0,"Tue, Jan 24, 1995","Fri, Jan 20, 1995"
4048,Rochester,Rochester,United States,RST,KRST,43.908283,-92.500014,1317,-6,A,"Rochester, MN",284,284,300,300,4.066901408450702,8.404929577464786,34.0,42.0,"Tue, Jan 17, 1995","Sun, Jan  8, 1995"
3793,Southwest Florida International,Fort Myers,United States,RSW,KRSW,26.536167,-81.755167,30,-5,A,"Fort Myers, FL",1529,1534,1548,1549,3.872465663832569,10.910691003911339,49.0,45.0,"Sat, Jan  7, 1995","Thu, Jan 12, 1995"
3731,San Diego International,San Diego,United States,SAN,KSAN,32.733556,-117.189667,17,-8,A,"San Diego, CA",5356,5390,5541,5551,3.1990291262135884,11.594248608534317,41.0,93.0,"Thu, Jan 12, 1995","Tue, Jan  3, 1995"
3621,San Antonio International,San Antonio,United States,SAT,KSAT,29.533694,-98.469778,809,-6,A,"San Antonio, TX",3335,3338,3399,3400,3.1997001499250364,8.032654284002394,23.0,54.0,"Thu, Jan 12, 1995","Thu, Jan 19, 1995"
3613,Savannah Hilton Head International,Savannah,United States,SAV,KSAV,32.127583,-81.202139,51,-5,A,"Savannah, GA",580,584,585,586,4.4120689655172365,9.193493150684938,10.0,72.0,"Sun, Jan  1, 1995","Sun, Jan 22, 1995"
3949,Santa Barbara Municipal,Santa Barbara,United States,SBA,KSBA,34.426211,-119.840372,10,-8,A,"Santa Barbara, CA",145,146,181,181,2.9655172413793105,5.630136986301368,54.0,16.0,"Tue, Jan  3, 1995","Sun, Jan  1, 1995"
4359,South Bend Regional,South Bend,United States,SBN,KSBN,41.708661,-86.31725,799,-5,A,"South Bend, IN",277,280,304,305,3.584837545126354,7.760714285714291,6.0,31.0,"Wed, Jan 11, 1995","Sun, Jan 22, 1995"
3620,Deadhorse,Deadhorse,United States,SCC,PASC,70.19475,-148.465167,64,-9,A,"Deadhorse, AK",61,61,65,65,2.557377049180328,7.213114754098361,5.0,29.0,"Sat, Jan  7, 1995","Tue, Jan 10, 1995"
4014,Louisville International Airport,Louisville,United States,SDF,KSDF,38.1740858,-85.7364989,501,-5,A,"Louisville, KY",2050,2062,2120,2122,3.727804878048781,8.670223084384082,22.0,43.0,"Wed, Jan 11, 1995","Sun, Jan 15, 1995"
3577,Seattle Tacoma International,Seattle,United States,SEA,KSEA,47.449,-122.309306,433,-8,A,"Seattle, WA",6769,6792,6900,6906,4.0298419264293015,13.065076560659605,34.0,59.0,"Sun, Jan 29, 1995","Fri, Jan 13, 1995"
3469,San Francisco International,San Francisco,United States,SFO,KSFO,37.618972,-122.374889,13,-8,A,"San Francisco, CA",9917,9953,10344,10338,5.19098517696885,16.181151411634556,46.0,90.0,"Wed, Jan 18, 1995","Mon, Jan 23, 1995"
4348,Springfield Branson National,Springfield,United States,SGF,KSGF,37.245667,-93.388639,1268,-6,A,"Springfield, MO",142,144,154,154,3.359154929577465,9.555555555555555,35.0,99.0,"Thu, Jan 19, 1995","Fri, Jan  6, 1995"
3609,Shreveport Regional,Shreveport,United States,SHV,KSHV,32.446629,-93.8256,258,-6,A,"Shreveport, LA",386,387,401,403,3.7538860103626943,7.801033591731266,16.0,37.0,"Fri, Jan 13, 1995","Wed, Jan 18, 1995"
3856,Sitka Rocky Gutierrez,Sitka,United States,SIT,PASI,57.047138,-135.361611,21,-9,A,"Sitka, AK",87,92,93,93,3.1264367816091956,7.521739130434782,5.0,15.0,"Thu, Jan 12, 1995","Fri, Jan 20, 1995"
3748,Norman Y. Mineta San Jose International,San Jose,United States,SJC,KSJC,37.3626,-121.929022,62,-8,A,"San Jose, CA",3189,3194,3263,3267,3.6086547507055533,10.509079524107696,63.0,91.0,"Sun, Jan  8, 1995","Thu, Jan 19, 1995"
3536,Salt Lake City International,Salt Lake City,United States,SLC,KSLC,40.788389,-111.977772,4227,-7,A,"Salt Lake City, UT",6800,6805,6897,6891,4.321911764705847,16.147979426892014,69.0,228.0,"Thu, Jan 12, 1995","Wed, Jan 11, 1995"
3817,Sacramento International,Sacramento,United States,SMF,KSMF,38.695417,-121.590778,27,-8,A,"Sacramento, CA",2911,2905,2948,2944,3.2820336654070768,9.070567986230646,28.0,51.0,"Fri, Jan 27, 1995","Fri, Jan 13, 1995"
3867,John Wayne Airport Orange County,Santa Ana,United States,SNA,KSNA,33.675667,-117.868222,56,-8,A,"Santa Ana, CA",2989,2988,3048,3043,5.081632653061224,11.320950468540866,27.0,86.0,"Wed, Jan 18, 1995","Fri, Jan 27, 1995"
4067,Sarasota Bradenton International,Sarasota,United States,SRQ,KSRQ,27.395444,-82.554389,30,-5,A,"Sarasota/Bradenton, FL",642,641,650,649,3.844236760124611,9.126365054602184,19.0,42.0,"Thu, Jan 26, 1995","Tue, Jan 10, 1995"
3678,Lambert St. Louis International,St. Louis,United States,STL,KSTL,38.748697,-90.370028,618,-6,A,"St. Louis, MO",13327,13445,14618,14639,6.406918286185934,19.456749721085934,62.0,134.0,"Sun, Jan  8, 1995","Sun, Jan 22, 1995"
3753,Sioux Gateway-Colonel Bud Day Field,Sioux City,United States,SUX,KSUX,42.402603,-96.384367,1098,-6,A,"Sioux City, IA",59,59,62,62,3.694915254237288,8.288135593220343,7.0,19.0,"Fri, Jan 27, 1995","Fri, Jan  6, 1995"
3661,Stewart International,Newburgh,United States,SWF,KSWF,41.504094,-74.104839,491,-5,A,"Newburgh/Poughkeepsie, NY",357,358,368,368,4.666666666666666,11.122905027932962,13.0,38.0,"Sun, Jan 22, 1995","Thu, Jan 12, 1995"
3745,Syracuse Hancock International,Syracuse,United States,SYR,KSYR,43.111187,-76.106311,421,-5,A,"Syracuse, NY",1313,1318,1363,1365,3.942878903274936,9.075113808801222,23.0,63.0,"Wed, Jan 11, 1995","Wed, Jan  4, 1995"
3698,Tallahassee Regional,Tallahassee,United States,TLH,KTLH,30.396528,-84.350333,81,-5,A,"Tallahassee, FL",561,559,575,575,3.263814616755794,6.123434704830052,10.0,59.0,"Sun, Jan 15, 1995","Sat, Jan 14, 1995"
4040,Toledo,Toledo,United States,TOL,KTOL,41.586806,-83.807833,684,-5,A,"Toledo, OH",205,207,213,213,3.2487804878048774,6.985507246376812,8.0,25.0,"Tue, Jan 24, 1995","Wed, Jan 25, 1995"
3646,Tampa International,Tampa,United States,TPA,KTPA,27.975472,-82.53325,26,-5,A,"Tampa, FL",4876,4876,4950,4949,3.8863822805578327,11.598851517637414,24.0,63.0,"Sun, Jan  8, 1995","Thu, Jan 12, 1995"
4116,Tri-Cities Regional Airport,BRISTOL,United States,TRI,KTRI,36.4752222,-82.4074167,1519,-5,A,"Bristol/Johnson City/Kingsport, TN",263,261,270,270,3.7034220532319395,7.295019157088123,6.0,36.0,"Mon, Jan  9, 1995","Fri, Jan 20, 1995"
3855,Tulsa International,Tulsa,United States,TUL,KTUL,36.198389,-95.888111,677,-6,A,"Tulsa, OK",1784,1797,1848,1849,3.410874439461884,8.776293823038399,23.0,89.0,"Wed, Jan 11, 1995","Tue, Jan 10, 1995"
3636,Tucson International,Tucson,United States,TUS,KTUS,32.116083,-110.941028,2643,-7,N,"Tucson, AZ",1707,1704,1729,1729,3.6104276508494433,8.870305164319241,23.0,82.0,"Wed, Jan 18, 1995","Thu, Jan 12, 1995"
4023,Cherry Capital Airport,Traverse City,United States,TVC,KTVC,44.741445,-85.582235,624,-5,A,"Traverse City, MI",86,85,89,88,2.7441860465116275,8.223529411764705,6.0,30.0,"Tue, Jan 10, 1995","Wed, Jan  4, 1995"
4263,Magic Valley Regional Airport,Twin Falls,United States,TWF,KTWF,42.481803,-114.487733,4151,-7,A,"Twin Falls, ID",8,8,8,8,3.125,7.5,6.0,10.0,"Sat, Jan 28, 1995","Sat, Jan 14, 1995"
3676,McGhee Tyson,Knoxville,United States,TYS,KTYS,35.810972,-83.994028,981,-5,A,"Knoxville, TN",766,761,788,786,3.4281984334203663,8.33508541392902,10.0,41.0,"Fri, Jan 27, 1995","Sun, Jan 22, 1995"
3873,Eglin AFB,Valparaiso,United States,VPS,KVPS,30.48325,-86.5254,87,-6,A,"Valparaiso, FL",92,92,93,93,7.032608695652174,9.96739130434783,17.0,30.0,"Fri, Jan 20, 1995","Fri, Jan 20, 1995"
5969,Wrangell Airport,Wrangell,United States,WRG,PAWG,56.4843,-132.37,44,-9,A,"Wrangell, AK",56,59,62,62,2.8035714285714284,5.898305084745763,7.0,10.0,"Sun, Jan  1, 1995","Fri, Jan  6, 1995"
6803,Yakutat,Yakutat,United States,YAK,PAYA,59.3012,-139.3937,33,-9,A,"Yakutat, AK",58,62,62,62,3.6379310344827585,6.693548387096774,7.0,20.0,"Thu, Jan 19, 1995","Mon, Jan 23, 1995"
