airport_id,name,city,country,iata_faa,iaco,latitude,longitude,altitude,zone,dst,city_state,avg_able_landings,avg_able_takeoffs,total_landings,total_takeoffs,avg_taxi_in,avg_taxi_out,longest_taxi_in,longest_taxi_out,lng_tx_in_date,lng_tx_out_date
4355,Lehigh Valley International,Allentown,United States,ABE,KABE,40.652083,-75.440806,393,-5,A,"Allentown/Bethlehem/Easton, PA",582,580,608,606,3.745704467353951,7.95,14.0,92.0,"Tue, Aug 27, 1996","Thu, Aug 22, 1996"
4019,Albuquerque International Sunport,Albuquerque,United States,ABQ,KABQ,35.0402222,-106.6091944,5355,-7,A,"Albuquerque, NM",3234,3235,3255,3256,4.435064935064944,11.19999999999999,51.0,187.0,"Sat, Aug  3, 1996","Sat, Aug 31, 1996"
3517,Nantucket Memorial,Nantucket,United States,ACK,KACK,41.253053,-70.060181,48,-5,A,"Nantucket, MA",7,8,9,9,5.428571428571429,8.125,6.0,13.0,"Sun, Aug  4, 1996","Mon, Aug 26, 1996"
3531,Kodiak,Kodiak,United States,ADQ,PADQ,57.749967,-152.493856,78,-9,A,"Kodiak, AK",60,60,62,62,2.2666666666666675,7.166666666666667,5.0,15.0,"Fri, Aug 30, 1996","Thu, Aug 15, 1996"
3658,Augusta Regional At Bush Field,Bush Field,United States,AGS,KAGS,33.369944,-81.9645,144,-5,A,"Augusta, GA",181,181,184,184,3.994475138121547,9.861878453038674,7.0,56.0,"Sat, Aug  3, 1996","Wed, Aug  7, 1996"
3794,King Salmon,King Salmon,United States,AKN,PAKN,58.676778,-156.649278,68,-9,A,"King Salmon, AK",67,67,71,71,2.9402985074626864,7.104477611940299,7.0,28.0,"Mon, Aug 19, 1996","Fri, Aug 16, 1996"
3864,Albany International,Albany,United States,ALB,KALB,42.748267,-73.801692,285,-5,A,"Albany, NY",929,932,941,941,4.021528525296022,9.257510729613738,12.0,37.0,"Sat, Aug 17, 1996","Thu, Aug 15, 1996"
5718,Waterloo Regional Airport,Waterloo,United States,ALO,KALO,42.5571,-92.4003,873,-6,A,"Waterloo, IA",53,54,57,58,2.9622641509433962,5.814814814814815,6.0,10.0,"Thu, Aug  8, 1996","Fri, Aug  2, 1996"
3840,Rick Husband Amarillo International,Amarillo,United States,AMA,KAMA,35.219369,-101.705931,3607,-6,A,"Amarillo, TX",417,419,422,423,3.6306954436450836,7.109785202863962,10.0,23.0,"Sun, Aug 11, 1996","Sat, Aug 17, 1996"
3774,Ted Stevens Anchorage International,Anchorage,United States,ANC,PANC,61.174361,-149.996361,152,-9,A,"Anchorage, AK",2278,2295,2358,2358,4.00395083406497,12.071459694989109,51.0,45.0,"Sat, Aug 10, 1996","Thu, Aug  8, 1996"
3682,Hartsfield Jackson Atlanta International,Atlanta,United States,ATL,KATL,33.636719,-84.428067,1026,-5,A,"Atlanta, GA",20227,20302,20515,20494,7.095614772334024,17.22583981873707,85.0,166.0,"Sat, Aug 24, 1996","Fri, Aug 23, 1996"
3673,Austin Bergstrom International,Austin,United States,AUS,KAUS,30.194528,-97.669889,542,-6,A,"Austin, TX",3123,3122,3165,3166,3.35094460454691,9.963484945547721,29.0,181.0,"Thu, Aug 22, 1996","Sat, Aug 31, 1996"
4007,Asheville Regional Airport,Asheville,United States,AVL,KAVL,35.436194,-82.541806,2165,-5,A,"Asheville, NC",179,179,181,181,3.452513966480447,9.56983240223464,9.0,59.0,"Sat, Aug 10, 1996","Mon, Aug 12, 1996"
4286,Wilkes Barre Scranton International,Scranton,United States,AVP,KAVP,41.338478,-75.723403,962,-5,A,"Scranton/Wilkes-Barre, PA",267,272,275,278,3.749063670411985,7.790441176470595,8.0,66.0,"Sat, Aug  3, 1996","Thu, Aug 29, 1996"
4039,Kalamazoo,Kalamazoo,United States,AZO,KAZO,42.234875,-85.552058,874,-5,A,"Kalamazoo, MI",172,172,179,180,4.36627906976744,8.069767441860469,17.0,29.0,"Sun, Aug 18, 1996","Tue, Aug 20, 1996"
3825,Bradley International,Windsor Locks,United States,BDL,KBDL,41.938889,-72.683222,173,-5,A,"Hartford, CT",2178,2173,2207,2205,4.337924701561069,11.321214910262313,24.0,128.0,"Mon, Aug 26, 1996","Thu, Aug 22, 1996"
3599,Bethel,Bethel,United States,BET,PABE,60.779778,-161.838,121,-9,A,"Bethel, AK",78,78,80,80,2.76923076923077,7.064102564102564,10.0,16.0,"Wed, Aug 21, 1996","Thu, Aug 15, 1996"
3558,Meadows Field,Bakersfield,United States,BFL,KBFL,35.433598,-119.05677,507,-8,A,"Bakersfield, CA",31,31,31,31,7.354838709677419,9.193548387096774,10.0,33.0,"Wed, Aug 14, 1996","Wed, Aug 28, 1996"
4129,Greater Binghamton-Edwin A. Link Field,Binghamton,United States,BGM,KBGM,42.208689,-75.979839,1636,-5,A,"Binghamton, NY",112,112,119,118,3.7142857142857144,6.723214285714286,5.0,94.0,"Thu, Aug 22, 1996","Thu, Aug 29, 1996"
3463,Bangor International,Bangor,United States,BGR,KBGR,44.807444,-68.828139,192,-5,A,"Bangor, ME",153,154,155,155,4.117647058823529,9.636363636363633,7.0,23.0,"Tue, Aug  6, 1996","Sat, Aug  3, 1996"
3811,Birmingham International,Birmingham,United States,BHM,KBHM,33.562942,-86.75355,644,-6,A,"Birmingham, AL",1602,1597,1613,1611,3.073033707865166,9.804633688165303,15.0,51.0,"Sun, Aug 25, 1996","Thu, Aug  8, 1996"
4021,Billings Logan International Airport,Billings,United States,BIL,KBIL,45.80921,-108.537654,3652,-7,A,"Billings, MT",297,297,302,302,3.670033670033671,10.057239057239052,15.0,35.0,"Tue, Aug 27, 1996","Mon, Aug  5, 1996"
4083,Bismarck Municipal Airport,Bismarck,United States,BIS,KBIS,46.775842,-100.757931,1661,-6,A,"Bismarck/Mandan, ND",123,124,124,124,3.7073170731707323,7.911290322580645,7.0,89.0,"Thu, Aug  8, 1996","Thu, Aug 29, 1996"
3690,Nashville International,Nashville,United States,BNA,KBNA,36.124472,-86.678194,599,-6,A,"Nashville, TN",3687,3681,3717,3715,4.951993490642791,10.770442814452581,33.0,77.0,"Fri, Aug 16, 1996","Wed, Aug  7, 1996"
3495,Boise Air Terminal,Boise,United States,BOI,KBOI,43.564361,-116.222861,2871,-7,A,"Boise, ID",1077,1078,1081,1082,3.5134633240482827,8.509276437847854,10.0,24.0,"Fri, Aug  9, 1996","Mon, Aug 26, 1996"
3448,General Edward Lawrence Logan International,Boston,United States,BOS,KBOS,42.364347,-71.005181,19,-5,A,"Boston, MA",7706,7717,7927,7928,6.905398390864267,15.963457302060386,65.0,257.0,"Sat, Aug 17, 1996","Fri, Aug 23, 1996"
3738,Brownsville South Padre Island International,Brownsville,United States,BRO,KBRO,25.906833,-97.425861,22,-6,A,"Brownsville, TX",61,62,61,62,4.606557377049179,7.5,11.0,46.0,"Sun, Aug 25, 1996","Sat, Aug 24, 1996"
3571,Wiley Post Will RogersMemorial,Barrow,United States,BRW,PABR,71.285446,-156.766003,44,-9,A,"Barrow, AK",89,90,93,93,2.764044943820224,7.888888888888889,5.0,19.0,"Wed, Aug 14, 1996","Thu, Aug  1, 1996"
3846,Baton Rouge Metro-Ryan Field,Baton Rouge,United States,BTR,KBTR,30.533167,-91.149639,70,-6,A,"Baton Rouge, LA",423,424,425,426,3.865248226950354,8.422169811320758,45.0,93.0,"Thu, Aug 29, 1996","Sat, Aug 10, 1996"
3711,Burlington International,Burlington,United States,BTV,KBTV,44.471861,-73.153278,335,-5,A,"Burlington, VT",300,301,304,305,3.76,7.9435215946843885,7.0,54.0,"Thu, Aug 15, 1996","Thu, Aug 22, 1996"
3820,Buffalo Niagara International,Buffalo,United States,BUF,KBUF,42.940525,-78.732167,724,-5,A,"Buffalo, NY",1583,1579,1602,1600,3.176879343019584,9.488917036098794,18.0,133.0,"Tue, Aug 13, 1996","Thu, Aug  8, 1996"
3644,Bob Hope,Burbank,United States,BUR,KBUR,34.200667,-118.358667,778,-8,A,"Burbank, CA",2562,2561,2601,2599,1.9972677595628459,9.489652479500197,29.0,31.0,"Sun, Aug 25, 1996","Thu, Aug 22, 1996"
3849,Baltimore Washington International,Baltimore,United States,BWI,KBWI,39.175361,-76.668333,146,-5,A,"Baltimore, MD",5196,5198,5244,5245,4.519822940723625,12.17833782223932,31.0,142.0,"Sat, Aug 31, 1996","Fri, Aug 16, 1996"
4020,Gallatin Field,Bozeman,United States,BZN,KBZN,45.777643,-111.160151,4500,-7,A,"Bozeman, MT",209,213,215,215,4.267942583732056,10.154929577464785,22.0,27.0,"Fri, Aug 16, 1996","Mon, Aug 19, 1996"
3561,Columbia Metropolitan,Colombia,United States,CAE,KCAE,33.938833,-81.119528,236,-5,A,"Columbia, SC",637,634,658,658,4.3108320251177386,9.9211356466877,15.0,91.0,"Sat, Aug 24, 1996","Mon, Aug  5, 1996"
4112,Akron Canton Regional Airport,Akron,United States,CAK,KCAK,40.9160833,-81.4421944,1228,-5,A,"Akron, OH",88,88,88,88,3.909090909090909,6.249999999999999,8.0,15.0,"Wed, Aug  7, 1996","Mon, Aug  5, 1996"
3610,Merle K. Mudhole Smith,Cordova,United States,CDV,PACV,60.491778,-145.477556,48,-9,A,"Cordova, AK",59,59,62,62,2.9152542372881354,6.322033898305085,12.0,16.0,"Thu, Aug 15, 1996","Wed, Aug 21, 1996"
3578,Lovell Field,Chattanooga,United States,CHA,KCHA,35.035278,-85.203808,683,-5,A,"Chattanooga, TN",110,109,114,114,3.618181818181818,5.926605504587156,9.0,17.0,"Thu, Aug 29, 1996","Sat, Aug 10, 1996"
3806,Charleston AFB International,Charleston,United States,CHS,KCHS,32.898647,-80.040528,45,-5,A,"Charleston, SC",635,635,643,645,4.376377952755904,9.472440944881887,14.0,71.0,"Thu, Aug 15, 1996","Sat, Aug 24, 1996"
4043,Cedar Rapids,Cedar Rapids,United States,CID,KCID,41.884694,-91.710806,869,-6,A,"Cedar Rapids/Iowa City, IA",449,448,465,465,3.8574610244988863,8.12723214285714,11.0,72.0,"Mon, Aug 26, 1996","Thu, Aug 15, 1996"
3486,Cleveland Hopkins International,Cleveland,United States,CLE,KCLE,41.411689,-81.849794,791,-5,A,"Cleveland, OH",5691,5699,5784,5780,4.155157265858373,14.051587997894352,63.0,294.0,"Tue, Aug 20, 1996","Tue, Aug 20, 1996"
3876,Charlotte Douglas International,Charlotte,United States,CLT,KCLT,35.214,-80.943139,748,-5,A,"Charlotte, NC",11000,11037,11237,11236,5.621272727272742,14.719670200235571,74.0,153.0,"Sat, Aug 24, 1996","Sat, Aug 24, 1996"
3759,Port Columbus International,Columbus,United States,CMH,KCMH,39.997972,-82.891889,815,-5,A,"Columbus, OH",3261,3269,3336,3335,4.0137994480220875,10.658611196084422,28.0,103.0,"Fri, Aug  2, 1996","Thu, Aug 15, 1996"
3819,City Of Colorado Springs Municipal,Colorado Springs,United States,COS,KCOS,38.805805,-104.700778,6187,-7,A,"Colorado Springs, CO",1443,1445,1470,1473,6.65696465696466,13.96539792387543,39.0,109.0,"Thu, Aug 22, 1996","Fri, Aug 23, 1996"
3744,Corpus Christi International,Corpus Christi,United States,CRP,KCRP,27.770361,-97.501222,44,-6,A,"Corpus Christi, TX",314,317,317,319,3.0000000000000013,7.56466876971609,6.0,64.0,"Sat, Aug 24, 1996","Fri, Aug 30, 1996"
4285,Yeager,Charleston,United States,CRW,KCRW,38.373147,-81.593189,981,-5,A,"Charleston/Dunbar, WV",133,134,136,137,2.8045112781954886,6.0970149253731325,6.0,18.0,"Fri, Aug  9, 1996","Mon, Aug 26, 1996"
3488,Cincinnati Northern Kentucky International,Cincinnati,United States,CVG,KCVG,39.048836,-84.667822,896,-5,A,"Cincinnati, OH",7240,7260,7376,7363,6.048480662983425,13.886639118457293,56.0,132.0,"Tue, Aug  6, 1996","Thu, Aug  8, 1996"
3950,Daytona Beach International,Daytona Beach,United States,DAB,KDAB,29.179917,-81.058056,34,-5,A,"Daytona Beach, FL",340,341,341,341,3.258823529411766,10.020527859237532,9.0,29.0,"Tue, Aug 20, 1996","Mon, Aug  5, 1996"
3502,Dallas Love Field,Dallas,United States,DAL,KDAL,32.847111,-96.851778,487,-6,A,"Dallas, TX",4062,4070,4165,4161,2.7080256031511536,8.196314496314528,22.0,112.0,"Sat, Aug 17, 1996","Fri, Aug  9, 1996"
3627,James M. Cox Dayton International,Dayton,United States,DAY,KDAY,39.902375,-84.219375,1009,-5,A,"Dayton, OH",1116,1115,1157,1156,4.702508960573476,10.05560538116592,21.0,76.0,"Mon, Aug  5, 1996","Wed, Aug  7, 1996"
3520,Ronald Reagan Washington National,Washington,United States,DCA,KDCA,38.852083,-77.037722,15,-5,A,"Washington, DC",6813,6826,7119,7118,5.420226038455884,15.419425725168473,72.0,236.0,"Fri, Aug 16, 1996","Thu, Aug  8, 1996"
3751,Denver International,Denver,United States,DEN,KDEN,39.861656,-104.673178,5431,-7,A,"Denver, CO",11432,11471,11597,11602,6.4556508047585694,14.366402231714758,73.0,149.0,"Fri, Aug 30, 1996","Sat, Aug 31, 1996"
3670,Dallas Fort Worth International,Dallas-fort Worth,United States,DFW,KDFW,32.896828,-97.037997,607,-6,A,"Dallas/Fort Worth, TX",20798,20945,21408,21420,11.328637368977782,20.47505371210329,121.0,237.0,"Fri, Aug  9, 1996","Fri, Aug  9, 1996"
3460,Dillingham,Dillingham,United States,DLG,PADL,59.044667,-158.5055,74,-9,A,"Dillingham, AK",61,60,62,62,2.5573770491803285,8.116666666666674,5.0,27.0,"Sun, Aug 11, 1996","Fri, Aug 16, 1996"
3598,Duluth International,Duluth,United States,DLH,KDLH,46.842091,-92.193649,1428,-6,A,"Duluth, MN",150,150,154,154,3.32,7.48,8.0,37.0,"Wed, Aug 14, 1996","Mon, Aug 19, 1996"
3729,Des Moines International,Des Moines,United States,DSM,KDSM,41.533972,-93.663083,958,-6,A,"Des Moines, IA",772,772,785,786,4.361398963730567,9.977979274611407,23.0,141.0,"Sat, Aug 10, 1996","Mon, Aug 12, 1996"
3645,Detroit Metro Wayne County,Detroit,United States,DTW,KDTW,42.212444,-83.353389,645,-5,A,"Detroit, MI",12769,12832,13288,13297,9.185762393296324,16.78787406483772,100.0,196.0,"Tue, Aug 13, 1996","Fri, Aug 23, 1996"
3860,Unalaska,Unalaska,United States,DUT,PADU,53.900139,-166.5435,22,-9,A,"Unalaska, AK",50,50,55,55,2.5800000000000005,6.520000000000001,5.0,13.0,"Fri, Aug 30, 1996","Thu, Aug  8, 1996"
3946,Elmira Corning Regional,Elmira,United States,ELM,KELM,42.159889,-76.891611,954,-5,A,"Elmira/Corning, NY",112,114,115,115,3.6785714285714284,6.482456140350878,7.0,18.0,"Sun, Aug 11, 1996","Sat, Aug  3, 1996"
3559,El Paso International,El Paso,United States,ELP,KELP,31.80725,-106.377583,3958,-7,A,"El Paso, TX",2169,2169,2177,2179,2.9349930843706793,8.724757952973732,30.0,124.0,"Thu, Aug  8, 1996","Sat, Aug 31, 1996"
4276,Erie International-Tom Ridge Field,Erie,United States,ERI,KERI,42.082022,-80.176217,733,-5,A,"Erie, PA",118,118,119,119,3.14406779661017,6.305084745762713,6.0,23.0,"Sat, Aug 17, 1996","Thu, Aug 22, 1996"
4099,Mahlon Sweet Field,Eugene,United States,EUG,KEUG,44.124583,-123.211972,374,-8,A,"Eugene, OR",214,212,217,217,3.121495327102804,8.608490566037737,6.0,37.0,"Wed, Aug 21, 1996","Thu, Aug 22, 1996"
3494,Newark Liberty International,Newark,United States,EWR,KEWR,40.6925,-74.168667,18,-5,A,"Newark, NJ",10218,10263,10508,10512,7.919357995693874,27.120335184643867,160.0,332.0,"Thu, Aug 15, 1996","Thu, Aug 15, 1996"
3832,Fairbanks International,Fairbanks,United States,FAI,PAFA,64.815114,-147.856267,434,-9,A,"Fairbanks, AK",545,542,554,554,3.0440366972477073,10.446494464944651,22.0,38.0,"Fri, Aug 16, 1996","Thu, Aug  1, 1996"
4292,Hector International Airport,Fargo,United States,FAR,KFAR,46.92065,-96.8157639,902,-6,A,"Fargo, ND",214,213,215,215,4.369158878504677,9.272300469483572,13.0,49.0,"Tue, Aug  6, 1996","Mon, Aug 19, 1996"
3687,Fresno Yosemite International,Fresno,United States,FAT,KFAT,36.776194,-119.71814,336,-8,A,"Fresno, CA",186,186,186,186,4.978494623655917,8.419354838709678,17.0,27.0,"Thu, Aug 15, 1996","Wed, Aug 28, 1996"
5738,Fayetteville Regional-Grannis Field,Fayetteville,United States,FAY,KFAY,34.9912,-78.8803,189,-5,A,"Fayetteville, NC",179,178,182,182,4.273743016759774,6.707865168539326,6.0,44.0,"Mon, Aug 12, 1996","Thu, Aug  8, 1996"
4127,Glacier Park International,Kalispell,United States,FCA,KFCA,48.310472,-114.256,2977,-7,A,"Kalispell, MT",151,151,155,154,4.072847682119206,9.556291390728473,8.0,28.0,"Thu, Aug 15, 1996","Wed, Aug 21, 1996"
3533,Fort Lauderdale Hollywood International,Fort Lauderdale,United States,FLL,KFLL,26.072583,-80.15275,9,-5,A,"Fort Lauderdale, FL",2591,2602,2609,2611,3.5793130065611747,11.622598001537263,25.0,162.0,"Fri, Aug 23, 1996","Fri, Aug 23, 1996"
4009,Sioux Falls,Sioux Falls,United States,FSD,KFSD,43.582014,-96.741914,1429,-6,A,"Sioux Falls, SD",389,390,392,393,4.683804627249357,9.207692307692314,10.0,42.0,"Thu, Aug  1, 1996","Sat, Aug 17, 1996"
4041,Fort Wayne,Fort Wayne,United States,FWA,KFWA,40.978472,-85.195139,815,-5,A,"Fort Wayne, IN",171,175,176,178,4.16374269005848,9.571428571428573,8.0,53.0,"Thu, Aug 22, 1996","Thu, Aug 22, 1996"
3467,Spokane International,Spokane,United States,GEG,KGEG,47.619861,-117.533833,2376,-8,A,"Spokane, WA",1291,1291,1299,1302,3.3865220759101473,9.39659178931062,16.0,37.0,"Sat, Aug 31, 1996","Mon, Aug  5, 1996"
3442,Grand Forks International,Grand Forks,United States,GFK,KGFK,47.949256,-97.176111,845,-6,A,"Grand Forks, ND",91,92,92,93,3.8351648351648353,6.565217391304348,10.0,37.0,"Fri, Aug  2, 1996","Mon, Aug 19, 1996"
3472,Gainesville Regional,Gainesville,United States,GNV,KGNV,29.690056,-82.271778,152,-5,A,"Gainesville, FL",145,145,152,152,3.579310344827586,6.606896551724138,8.0,35.0,"Mon, Aug 19, 1996","Sun, Aug 25, 1996"
3653,Austin Straubel International,Green Bay,United States,GRB,KGRB,44.485072,-88.129589,695,-6,A,"Green Bay, WI",259,259,264,264,3.382239382239382,9.11969111969112,7.0,49.0,"Thu, Aug  1, 1996","Tue, Aug 20, 1996"
3685,Gerald R. Ford International,Grand Rapids,United States,GRR,KGRR,42.880833,-85.522806,794,-5,A,"Grand Rapids, MI",769,772,797,801,4.0039011703511065,10.453367875647677,11.0,167.0,"Wed, Aug 14, 1996","Fri, Aug  2, 1996"
4008,Piedmont Triad,Greensboro,United States,GSO,KGSO,36.09775,-79.937306,925,-5,A,"Greensboro/High Point, NC",1347,1355,1396,1394,3.9643652561247222,11.75793357933581,57.0,72.0,"Thu, Aug 22, 1996","Sat, Aug 24, 1996"
4034,Greenville-Spartanburg International,Greenville,United States,GSP,KGSP,34.895556,-82.218889,964,-5,A,"Greer, SC",742,744,765,766,3.9878706199460905,10.775537634408584,14.0,89.0,"Sun, Aug 11, 1996","Sun, Aug  4, 1996"
5960,Gustavus Airport,Gustavus,United States,GST,PAGS,58.4253,-135.707,34,-9,A,"Gustavus, AK",30,30,31,31,3.2333333333333334,9.566666666666666,13.0,25.0,"Fri, Aug 30, 1996","Sat, Aug  3, 1996"
3880,Great Falls International,Great Falls,United States,GTF,KGTF,47.482,-111.370689,3677,-7,A,"Great Falls, MT",179,179,181,181,3.949720670391061,8.307262569832398,8.0,47.0,"Thu, Aug 15, 1996","Fri, Aug  2, 1996"
3504,Helena Regional,Helena,United States,HLN,KHLN,46.606806,-111.98275,3877,-7,A,"Helena, MT",91,91,93,93,2.6043956043956045,7.373626373626375,5.0,22.0,"Fri, Aug 16, 1996","Fri, Aug 30, 1996"
3728,Honolulu International,Honolulu,United States,HNL,PHNL,21.318681,-157.922428,13,-10,N,"Honolulu, HI",1067,1070,1080,1083,4.97750702905342,18.984112149532702,46.0,91.0,"Wed, Aug 28, 1996","Thu, Aug 22, 1996"
3566,William P. Hobby,Houston,United States,HOU,KHOU,29.645419,-95.278889,46,-6,A,"Houston, TX",4782,4786,4882,4880,3.548933500627354,8.301922273297116,25.0,95.0,"Sat, Aug 10, 1996","Tue, Aug 20, 1996"
3589,Westchester County,White Plains,United States,HPN,KHPN,41.066959,-73.707575,439,-5,A,"White Plains, NY",478,479,502,504,4.7552301255230125,15.400835073068894,35.0,212.0,"Fri, Aug 16, 1996","Thu, Aug 15, 1996"
3560,Valley International,Harlingen,United States,HRL,KHRL,26.2285,-97.654389,36,-6,A,"Harlingen/San Benito, TX",459,460,466,466,2.159041394335511,6.736956521739129,8.0,44.0,"Thu, Aug 22, 1996","Sat, Aug 31, 1996"
4113,Huntsville International Airport-Carl T. Jones Field,Huntsville,United States,HSV,KHSV,34.6371944,-86.7750556,629,-6,A,"Huntsville, AL",480,480,483,484,5.260416666666669,10.881250000000003,11.0,118.0,"Wed, Aug  7, 1996","Fri, Aug  9, 1996"
3714,Washington Dulles International,Washington,United States,IAD,KIAD,38.944533,-77.455811,313,-5,A,"Washington, DC",3245,3256,3311,3315,5.984591679506927,16.678746928746936,37.0,208.0,"Fri, Aug 16, 1996","Thu, Aug  8, 1996"
3550,George Bush Intercontinental Houston,Houston,United States,IAH,KIAH,29.984433,-95.341442,97,-6,A,"Houston, TX",10662,10705,10817,10821,6.021478146689166,15.314712751050903,54.0,134.0,"Fri, Aug 23, 1996","Sat, Aug 10, 1996"
3457,Wichita Mid Continent,Wichita,United States,ICT,KICT,37.649944,-97.433056,1333,-6,A,"Wichita, KS",583,578,594,594,4.7101200686106335,11.03979238754325,18.0,151.0,"Sat, Aug  3, 1996","Thu, Aug 22, 1996"
4100,Idaho Falls Regional,Idaho Falls,United States,IDA,KIDA,43.514556,-112.07075,4744,-7,A,"Idaho Falls, ID",91,92,92,93,3.5494505494505493,8.782608695652176,10.0,15.0,"Fri, Aug 30, 1996","Tue, Aug 13, 1996"
3845,Wilmington International,Wilmington,United States,ILM,KILM,34.270615,-77.902569,32,-5,A,"Wilmington, NC",175,176,177,177,4.1657142857142855,6.7102272727272725,13.0,16.0,"Mon, Aug  5, 1996","Tue, Aug 27, 1996"
3585,Indianapolis International,Indianapolis,United States,IND,KIND,39.717331,-86.294383,797,-5,A,"Indianapolis, IN",2844,2850,2887,2890,6.972573839662445,10.764561403508788,22.0,164.0,"Sat, Aug  3, 1996","Tue, Aug 20, 1996"
3857,Long Island MacArthur,Islip,United States,ISP,KISP,40.79525,-73.100222,99,-5,A,"Islip, NY",267,269,271,271,4.524344569288393,10.423791821561334,15.0,59.0,"Sat, Aug 10, 1996","Sun, Aug 18, 1996"
3947,Ithaca Tompkins Regional,Ithaca,United States,ITH,KITH,42.491028,-76.458444,1099,-5,A,"Ithaca/Cortland, NY",113,113,115,115,3.7964601769911503,8.778761061946902,5.0,16.0,"Wed, Aug  7, 1996","Sun, Aug 11, 1996"
4027,Jackson Hole Airport,Jacksn Hole,United States,JAC,KJAC,43.60733333,-110.73775,6451,-7,A,"Jackson, WY",159,160,160,160,3.3710691823899372,9.187500000000002,7.0,104.0,"Sat, Aug  3, 1996","Fri, Aug  9, 1996"
3580,Jackson Evers International,Jackson,United States,JAN,KJAN,32.311167,-90.075889,346,-6,A,"Jackson/Vicksburg, MS",509,510,512,513,4.766208251473479,10.103921568627465,13.0,88.0,"Thu, Aug 29, 1996","Sat, Aug 24, 1996"
3712,Jacksonville International,Jacksonville,United States,JAX,KJAX,30.494056,-81.687861,30,-5,A,"Jacksonville, FL",1314,1321,1328,1330,4.865296803652967,10.626797880393635,21.0,59.0,"Sun, Aug 25, 1996","Tue, Aug 13, 1996"
3797,John F. Kennedy International,New York,United States,JFK,KJFK,40.639751,-73.778925,13,-5,A,"New York, NY",4021,4020,4117,4113,9.677692116388975,29.39900497512438,77.0,297.0,"Thu, Aug  8, 1996","Thu, Aug 15, 1996"
3492,Juneau International,Juneau,United States,JNU,PAJN,58.354972,-134.576278,21,-9,A,"Juneau, AK",565,569,589,589,3.208849557522124,13.19683655536028,13.0,48.0,"Sat, Aug 10, 1996","Wed, Aug 28, 1996"
3514,Kona International At Keahole,Kona,United States,KOA,PHKO,19.738767,-156.045631,47,-10,N,"Kona, HI",62,62,62,62,3.032258064516129,8.645161290322577,6.0,23.0,"Thu, Aug  1, 1996","Wed, Aug 28, 1996"
3808,Ketchikan International,Ketchikan,United States,KTN,PAKT,55.355556,-131.71375,88,-9,A,"Ketchikan, AK",266,270,279,279,3.537593984962405,11.0074074074074,15.0,26.0,"Wed, Aug 28, 1996","Wed, Aug 21, 1996"
3544,Capital City,Lansing,United States,LAN,KLAN,42.7787,-84.587357,861,-5,A,"Lansing, MI",171,172,182,181,4.0409356725146175,8.761627906976749,8.0,171.0,"Mon, Aug 19, 1996","Fri, Aug  2, 1996"
3877,McCarran International,Las Vegas,United States,LAS,KLAS,36.080056,-115.15225,2141,-8,A,"Las Vegas, NV",10169,10166,10286,10282,4.378994984757607,13.609974424552412,60.0,155.0,"Thu, Aug  1, 1996","Sat, Aug 31, 1996"
3484,Los Angeles International,Los Angeles,United States,LAX,KLAX,33.942536,-118.408075,126,-8,A,"Los Angeles, CA",15904,15919,16205,16195,8.437122736418464,15.776933224448749,75.0,97.0,"Fri, Aug 23, 1996","Mon, Aug 26, 1996"
3829,Lubbock Preston Smith International,Lubbock,United States,LBB,KLBB,33.663639,-101.822778,3282,-6,A,"Lubbock, TX",612,613,618,619,2.5310457516339873,7.02120717781403,14.0,21.0,"Fri, Aug  2, 1996","Wed, Aug  7, 1996"
4017,Blue Grass,Lexington KY,United States,LEX,KLEX,38.0365,-84.605889,979,-5,A,"Lexington, KY",349,350,355,357,3.942693409742121,8.01714285714285,11.0,31.0,"Thu, Aug  8, 1996","Thu, Aug 22, 1996"
3493,Lafayette Regional,Lafayette,United States,LFT,KLFT,30.205278,-91.987611,43,-6,A,"Lafayette, LA",56,58,57,58,4.696428571428571,9.206896551724133,12.0,33.0,"Wed, Aug 14, 1996","Mon, Aug 26, 1996"
3697,LaGuardia Airport,New York,United States,LGA,KLGA,40.777245,-73.872608,22,-5,A,"New York, NY",7934,7988,8181,8176,6.490547012856058,21.298572859288882,79.0,302.0,"Wed, Aug 21, 1996","Thu, Aug 15, 1996"
3582,Long Beach,Long Beach,United States,LGB,KLGB,33.817722,-118.151611,60,-8,A,"Long Beach, CA",142,141,149,148,3.859154929577465,9.489361702127658,14.0,19.0,"Fri, Aug  2, 1996","Mon, Aug  5, 1996"
3660,Adams Field,Little Rock,United States,LIT,KLIT,34.729444,-92.224306,262,-6,A,"Little Rock, AR",1161,1162,1166,1168,4.237726098191226,9.061962134251262,12.0,43.0,"Sat, Aug  3, 1996","Fri, Aug  9, 1996"
3543,Lincoln,Lincoln,United States,LNK,KLNK,40.850971,-96.75925,1219,-6,A,"Lincoln, NE",290,293,294,295,3.5586206896551724,9.41979522184301,18.0,110.0,"Fri, Aug 16, 1996","Mon, Aug 12, 1996"
4044,LaCrosse Municipal,LaCrosse,United States,LSE,KLSE,43.878986,-91.256711,654,-6,A,"La Crosse, WI",61,61,61,61,2.4918032786885247,6.377049180327869,6.0,15.0,"Wed, Aug 14, 1996","Thu, Aug 22, 1996"
6958,Greenbrier Valley Airport,Lewisburg,United States,LWB,KLWB,37.858333,-80.399444,2302,-5,U,"Lewisburg, WV",12,12,13,13,3.75,4.416666666666667,5.0,9.0,"Sat, Aug  3, 1996","Wed, Aug 21, 1996"
3652,Midland International,Midland,United States,MAF,KMAF,31.942528,-102.201914,2871,-6,A,"Midland/Odessa, TX",557,557,564,564,2.3070017953321367,6.933572710951526,15.0,25.0,"Mon, Aug  5, 1996","Thu, Aug  8, 1996"
4128,MBS International,Saginaw,United States,MBS,KMBS,43.532913,-84.079647,668,-5,A,"Saginaw/Bay City/Midland, MI",354,351,365,365,3.494350282485876,8.133903133903145,12.0,45.0,"Wed, Aug  7, 1996","Thu, Aug 22, 1996"
3458,Kansas City International,Kansas City,United States,MCI,KMCI,39.297606,-94.713905,1026,-6,A,"Kansas City, MO",4729,4726,4784,4782,4.890886022414887,10.665679221328848,34.0,151.0,"Sun, Aug 11, 1996","Tue, Aug 20, 1996"
3878,Orlando International,Orlando,United States,MCO,KMCO,28.429394,-81.308994,96,-5,A,"Orlando, FL",6117,6132,6173,6174,5.282818375020439,14.088225701239395,52.0,113.0,"Mon, Aug 26, 1996","Thu, Aug  1, 1996"
3542,Harrisburg International,Harrisburg,United States,MDT,KMDT,40.193494,-76.763403,310,-5,A,"Harrisburg, PA",701,701,726,725,4.212553495007137,9.382310984308134,15.0,47.0,"Sat, Aug  3, 1996","Thu, Aug 22, 1996"
3747,Chicago Midway International,Chicago,United States,MDW,KMDW,41.785972,-87.752417,620,-6,A,"Chicago, IL",3737,3744,3784,3783,3.9545089644099467,9.665865384615389,69.0,93.0,"Wed, Aug 21, 1996","Fri, Aug 23, 1996"
3473,Memphis International,Memphis,United States,MEM,KMEM,35.042417,-89.976667,341,-6,A,"Memphis, TN",4321,4320,4416,4411,4.924091645452442,13.751620370370373,45.0,97.0,"Sun, Aug  4, 1996","Mon, Aug 26, 1996"
3826,McAllen Miller International,Mcallen,United States,MFE,KMFE,26.175833,-98.238611,107,-6,A,"Mission/McAllen/Edinburg, TX",293,291,295,293,4.156996587030711,9.027491408934706,55.0,91.0,"Thu, Aug  1, 1996","Thu, Aug 22, 1996"
4101,Rogue Valley International Medford,Medford,United States,MFR,KMFR,42.374228,-122.8735,1335,-8,A,"Medford, OR",120,120,124,124,3.7666666666666666,6.208333333333333,6.0,18.0,"Thu, Aug 15, 1996","Mon, Aug 19, 1996"
4115,Montgomery Regional Airport ,MONTGOMERY,United States,MGM,KMGM,32.3006389,-86.3939722,221,-6,A,"Montgomery, AL",183,183,183,183,3.819672131147541,10.109289617486342,8.0,56.0,"Sun, Aug 11, 1996","Wed, Aug 21, 1996"
4011,Manchester Regional Airport,Manchester NH,United States,MHT,KMHT,42.932556,-71.435667,266,-5,A,"Manchester, NH",388,385,392,392,3.7731958762886597,10.522077922077923,10.0,108.0,"Sun, Aug  4, 1996","Thu, Aug 29, 1996"
3576,Miami International,Miami,United States,MIA,KMIA,25.79325,-80.290556,8,-5,A,"Miami, FL",5623,5632,5743,5745,7.13106882447093,19.623046875000025,111.0,131.0,"Fri, Aug 23, 1996","Fri, Aug  9, 1996"
3717,General Mitchell International,Milwaukee,United States,MKE,KMKE,42.947222,-87.896583,723,-6,A,"Milwaukee, WI",1387,1388,1418,1420,4.12184571016582,10.269452449567723,18.0,46.0,"Fri, Aug 30, 1996","Fri, Aug 23, 1996"
3671,Melbourne International,Melbourne,United States,MLB,KMLB,28.102753,-80.645258,33,-5,A,"Melbourne, FL",276,275,277,277,3.9094202898550723,9.520000000000005,9.0,33.0,"Sat, Aug 24, 1996","Tue, Aug 13, 1996"
4072,Quad City International,Moline,United States,MLI,KMLI,41.448528,-90.507539,590,-6,A,"Moline, IL",116,116,119,119,2.9913793103448274,7.206896551724138,7.0,16.0,"Wed, Aug 21, 1996","Fri, Aug 23, 1996"
3732,Monroe Regional,Monroe,United States,MLU,KMLU,32.510864,-92.037689,79,-6,A,"Monroe, LA",217,213,217,217,3.783410138248848,8.568075117370897,7.0,36.0,"Fri, Aug  2, 1996","Fri, Aug  2, 1996"
3782,Mobile Regional,Mobile,United States,MOB,KMOB,30.691231,-88.242814,219,-6,A,"Mobile, AL",339,339,339,340,3.6755162241887906,8.51032448377582,9.0,27.0,"Fri, Aug 16, 1996","Wed, Aug 14, 1996"
3498,Minot International,Minot,United States,MOT,KMOT,48.259378,-101.280333,1716,-6,A,"Minot, ND",92,92,92,92,4.967391304347827,7.0978260869565215,52.0,12.0,"Sun, Aug 18, 1996","Fri, Aug  2, 1996"
3948,Monterey Peninsula,Monterey,United States,MRY,KMRY,36.587,-121.842944,257,-8,A,"Monterey, CA",60,60,62,62,2.9833333333333334,7.05,4.0,16.0,"Sun, Aug  4, 1996","Fri, Aug 30, 1996"
3459,Dane County Regional-Truax Field,Madison,United States,MSN,KMSN,43.139858,-89.337514,887,-6,A,"Madison, WI",383,385,392,392,3.8537859007832886,10.06233766233765,9.0,46.0,"Mon, Aug  5, 1996","Thu, Aug 15, 1996"
4216,Missoula International,Missoula,United States,MSO,KMSO,46.916306,-114.090556,3205,-7,A,"Missoula, MT",152,152,155,155,4.769736842105264,8.677631578947368,14.0,21.0,"Sat, Aug 10, 1996","Fri, Aug 16, 1996"
3858,Minneapolis St. Paul International,Minneapolis,United States,MSP,KMSP,44.881956,-93.221767,841,-6,A,"Minneapolis, MN",12082,12156,12466,12481,5.630359212050973,16.49744981901942,59.0,197.0,"Fri, Aug  9, 1996","Thu, Aug 15, 1996"
3861,Louis Armstrong New Orleans International,New Orleans,United States,MSY,KMSY,29.993389,-90.258028,4,-6,A,"New Orleans, LA",3864,3868,3886,3888,3.519151138716355,9.468459152016573,41.0,142.0,"Tue, Aug  6, 1996","Wed, Aug 28, 1996"
3515,Myrtle Beach International,Myrtle Beach,United States,MYR,KMYR,33.67975,-78.928333,25,-5,A,"Myrtle Beach, SC",235,234,236,236,4.042553191489361,7.62820512820513,16.0,26.0,"Fri, Aug 23, 1996","Thu, Aug  8, 1996"
3453,Metropolitan Oakland International,Oakland,United States,OAK,KOAK,37.721278,-122.220722,9,-8,A,"Oakland, CA",5129,5130,5180,5181,3.8853577695457218,9.323196881091626,33.0,143.0,"Fri, Aug  9, 1996","Sat, Aug 31, 1996"
3456,Kahului,Kahului,United States,OGG,PHOG,20.89865,-156.430458,54,-10,N,"Kahului, HI",245,243,248,248,5.163265306122446,9.641975308641975,10.0,37.0,"Wed, Aug 14, 1996","Sat, Aug 10, 1996"
3863,Will Rogers World,Oklahoma City,United States,OKC,KOKC,35.393089,-97.600733,1295,-6,A,"Oklahoma City, OK",1807,1818,1824,1826,3.7753182069728832,9.00605060506049,24.0,87.0,"Sat, Aug 31, 1996","Fri, Aug  2, 1996"
3454,Eppley Airfield,Omaha,United States,OMA,KOMA,41.303167,-95.894069,984,-6,A,"Omaha, NE",1550,1552,1563,1564,3.14193548387097,10.514819587628873,15.0,138.0,"Thu, Aug  8, 1996","Mon, Aug 12, 1996"
3615,Nome,Nome,United States,OME,PAOM,64.512203,-165.445247,37,-9,A,"Nome, AK",120,121,124,124,2.933333333333333,7.909090909090908,6.0,23.0,"Sat, Aug 10, 1996","Wed, Aug 28, 1996"
3734,Ontario International,Ontario,United States,ONT,KONT,34.056,-117.601194,944,-8,A,"Ontario, CA",3228,3230,3278,3279,2.6654275092936746,10.133126934984533,26.0,56.0,"Mon, Aug 12, 1996","Fri, Aug 23, 1996"
3830,Chicago O'Hare International,Chicago,United States,ORD,KORD,41.978603,-87.904842,668,-6,A,"Chicago, IL",25218,25329,25840,25844,7.125346974383376,18.137826207114266,62.0,245.0,"Sun, Aug 11, 1996","Thu, Aug 15, 1996"
3611,Norfolk International,Norfolk,United States,ORF,KORF,36.894611,-76.201222,26,-5,A,"Norfolk, VA",1511,1508,1526,1528,3.729980145598941,9.446949602122018,102.0,94.0,"Wed, Aug 14, 1996","Thu, Aug 29, 1996"
3693,Ralph WienMemorial,Kotzebue,United States,OTZ,PAOT,66.884678,-162.59855,11,-9,A,"Kotzebue, AK",113,113,120,120,2.5752212389380538,8.061946902654869,7.0,16.0,"Wed, Aug 21, 1996","Fri, Aug  2, 1996"
3722,Palm Beach International,West Palm Beach,United States,PBI,KPBI,26.683161,-80.095589,19,-5,A,"West Palm Beach/Palm Beach, FL",1499,1499,1506,1505,4.2781854569713165,10.889926617745154,24.0,37.0,"Fri, Aug  9, 1996","Wed, Aug  7, 1996"
3720,Portland International,Portland,United States,PDX,KPDX,45.588722,-122.5975,30,-8,A,"Portland, OR",4725,4719,4762,4760,3.5348148148148146,12.179487179487172,37.0,125.0,"Sun, Aug 25, 1996","Fri, Aug 23, 1996"
3752,Philadelphia International,Philadelphia,United States,PHL,KPHL,39.871944,-75.241139,36,-5,A,"Philadelphia, PA",7973,7994,8186,8185,5.58597767465195,16.621591193395023,69.0,137.0,"Tue, Aug 27, 1996","Thu, Aug  8, 1996"
3462,Phoenix Sky Harbor International,Phoenix,United States,PHX,KPHX,33.434278,-112.011583,1135,-7,N,"Phoenix, AZ",13472,13531,13748,13756,4.562574228028495,13.685610819599438,56.0,110.0,"Sat, Aug 10, 1996","Wed, Aug 14, 1996"
3570,Pittsburgh International,Pittsburgh (pennsylva),United States,PIT,KPIT,40.491467,-80.232872,1204,-5,A,"Pittsburgh, PA",10027,10076,10305,10304,6.154682357634387,14.892020643112335,33.0,198.0,"Wed, Aug 14, 1996","Thu, Aug 15, 1996"
3564,Pensacola Regional,Pensacola,United States,PNS,KPNS,30.473425,-87.186611,121,-6,A,"Pensacola, FL",518,516,520,521,4.081081081081081,8.374031007751949,9.0,27.0,"Thu, Aug 29, 1996","Tue, Aug 27, 1996"
6133,Tri Cities Airport,Pasco,United States,PSC,PSC,46.2647,-119.119,410,-8,A,"Pasco/Kennewick/Richland, WA",122,123,123,123,4.213114754098361,8.853658536585362,10.0,20.0,"Thu, Aug  1, 1996","Thu, Aug 15, 1996"
4147,Petersburg James A. Johnson,Petersburg,United States,PSG,PAPG,56.801667,-132.945278,105,-9,A,"Petersburg, AK",62,62,62,62,2.903225806451613,7.70967741935484,7.0,17.0,"Mon, Aug 12, 1996","Mon, Aug 26, 1996"
3839,Palm Springs International,Palm Springs,United States,PSP,KPSP,33.829667,-116.506694,477,-8,A,"Palm Springs, CA",91,91,93,93,3.8461538461538463,10.27472527472527,7.0,39.0,"Sat, Aug 31, 1996","Sun, Aug 11, 1996"
3641,Theodore Francis Green State,Providence,United States,PVD,KPVD,41.732581,-71.420383,55,-5,A,"Providence, RI",1099,1101,1116,1118,4.556869881710649,10.027247956403276,11.0,98.0,"Tue, Aug 13, 1996","Tue, Aug 20, 1996"
3862,Portland International Jetport,Portland,United States,PWM,KPWM,43.646161,-70.309281,77,-5,A,"Portland, ME",538,545,558,558,3.6263940520446103,9.533944954128438,10.0,60.0,"Thu, Aug 22, 1996","Sat, Aug  3, 1996"
4087,Rapid City Regional Airport,Rapid City,United States,RAP,KRAP,44.045278,-103.057222,3204,-7,A,"Rapid City, SD",124,124,124,124,5.927419354838709,11.064516129032262,13.0,32.0,"Mon, Aug 12, 1996","Wed, Aug 28, 1996"
3626,Raleigh Durham International,Raleigh-durham,United States,RDU,KRDU,35.877639,-78.787472,435,-5,A,"Raleigh/Durham, NC",2256,2268,2301,2303,3.7850177304964556,10.477954144620806,30.0,109.0,"Sat, Aug  3, 1996","Fri, Aug 16, 1996"
3608,Richmond International,Richmond,United States,RIC,KRIC,37.505167,-77.319667,167,-5,A,"Richmond, VA",1294,1290,1324,1325,6.309891808346212,12.297674418604638,24.0,139.0,"Wed, Aug 28, 1996","Fri, Aug 16, 1996"
3807,Reno Tahoe International,Reno,United States,RNO,KRNO,39.499108,-119.768108,4415,-8,A,"Reno, NV",2140,2141,2148,2149,3.8373831775700933,9.439514245679579,25.0,43.0,"Fri, Aug 16, 1996","Sat, Aug 17, 1996"
4016,Roanoke Regional,Roanoke VA,United States,ROA,KROA,37.325472,-79.975417,1175,-5,A,"Roanoke, VA",262,262,270,270,4.206106870229006,7.435114503816794,7.0,25.0,"Mon, Aug 12, 1996","Wed, Aug  7, 1996"
3622,Greater Rochester International,Rochester,United States,ROC,KROC,43.118866,-77.672389,559,-5,A,"Rochester, NY",1339,1337,1372,1368,4.639283047050035,8.579655946148096,16.0,69.0,"Wed, Aug 14, 1996","Wed, Aug  7, 1996"
4048,Rochester,Rochester,United States,RST,KRST,43.908283,-92.500014,1317,-6,A,"Rochester, MN",262,262,267,268,3.4770992366412217,8.633587786259541,12.0,83.0,"Thu, Aug 15, 1996","Wed, Aug  7, 1996"
3793,Southwest Florida International,Fort Myers,United States,RSW,KRSW,26.536167,-81.755167,30,-5,A,"Fort Myers, FL",1035,1035,1046,1046,3.2647342995169075,11.340096618357485,30.0,89.0,"Sun, Aug 18, 1996","Fri, Aug 23, 1996"
3731,San Diego International,San Diego,United States,SAN,KSAN,32.733556,-117.189667,17,-8,A,"San Diego, CA",5846,5846,5904,5903,2.950393431406088,12.20372904550122,57.0,100.0,"Thu, Aug 29, 1996","Fri, Aug  9, 1996"
3621,San Antonio International,San Antonio,United States,SAT,KSAT,29.533694,-98.469778,809,-6,A,"San Antonio, TX",3317,3316,3347,3346,2.963822731383781,9.429131483715318,56.0,94.0,"Tue, Aug 13, 1996","Fri, Aug 30, 1996"
3613,Savannah Hilton Head International,Savannah,United States,SAV,KSAV,32.127583,-81.202139,51,-5,A,"Savannah, GA",461,461,470,470,4.819956616052063,10.034707158351402,15.0,83.0,"Sat, Aug 10, 1996","Wed, Aug  7, 1996"
3949,Santa Barbara Municipal,Santa Barbara,United States,SBA,KSBA,34.426211,-119.840372,10,-8,A,"Santa Barbara, CA",113,113,119,119,3.026548672566371,6.044247787610617,6.0,23.0,"Sat, Aug 24, 1996","Sun, Aug 25, 1996"
4359,South Bend Regional,South Bend,United States,SBN,KSBN,41.708661,-86.31725,799,-5,A,"South Bend, IN",299,300,311,312,3.508361204013378,7.2033333333333305,7.0,26.0,"Mon, Aug 19, 1996","Tue, Aug 20, 1996"
3620,Deadhorse,Deadhorse,United States,SCC,PASC,70.19475,-148.465167,64,-9,A,"Deadhorse, AK",30,30,31,31,2.4000000000000004,6.833333333333333,4.0,13.0,"Mon, Aug 12, 1996","Thu, Aug  8, 1996"
4014,Louisville International Airport,Louisville,United States,SDF,KSDF,38.1740858,-85.7364989,501,-5,A,"Louisville, KY",2092,2100,2114,2119,4.698852772466538,9.014285714285705,21.0,55.0,"Tue, Aug  6, 1996","Thu, Aug  8, 1996"
3577,Seattle Tacoma International,Seattle,United States,SEA,KSEA,47.449,-122.309306,433,-8,A,"Seattle, WA",8993,9004,9098,9091,4.338485488713466,14.625055530875164,185.0,169.0,"Thu, Aug 15, 1996","Thu, Aug  1, 1996"
3469,San Francisco International,San Francisco,United States,SFO,KSFO,37.618972,-122.374889,13,-8,A,"San Francisco, CA",11628,11653,11892,11891,5.551513587891301,17.297348322320616,69.0,106.0,"Fri, Aug  9, 1996","Sat, Aug 31, 1996"
4348,Springfield Branson National,Springfield,United States,SGF,KSGF,37.245667,-93.388639,1268,-6,A,"Springfield, MO",146,146,149,149,3.2123287671232874,8.643835616438354,7.0,33.0,"Thu, Aug 22, 1996","Mon, Aug 26, 1996"
3609,Shreveport Regional,Shreveport,United States,SHV,KSHV,32.446629,-93.8256,258,-6,A,"Shreveport, LA",354,358,361,362,4.774011299435036,7.32122905027933,26.0,22.0,"Thu, Aug 15, 1996","Thu, Aug 29, 1996"
3856,Sitka Rocky Gutierrez,Sitka,United States,SIT,PASI,57.047138,-135.361611,21,-9,A,"Sitka, AK",151,154,155,155,3.1523178807947025,8.915584415584412,6.0,24.0,"Wed, Aug 14, 1996","Thu, Aug  1, 1996"
3748,Norman Y. Mineta San Jose International,San Jose,United States,SJC,KSJC,37.3626,-121.929022,62,-8,A,"San Jose, CA",4109,4110,4147,4145,3.4519347773180824,11.337956204379573,35.0,78.0,"Thu, Aug  8, 1996","Thu, Aug  8, 1996"
3536,Salt Lake City International,Salt Lake City,United States,SLC,KSLC,40.788389,-111.977772,4227,-7,A,"Salt Lake City, UT",7577,7583,7626,7624,5.754916193744223,15.728207833311352,60.0,192.0,"Sun, Aug 11, 1996","Sat, Aug 31, 1996"
3817,Sacramento International,Sacramento,United States,SMF,KSMF,38.695417,-121.590778,27,-8,A,"Sacramento, CA",3299,3294,3318,3313,3.5434980297059706,9.360048573163349,42.0,42.0,"Sun, Aug 18, 1996","Mon, Aug  5, 1996"
3867,John Wayne Airport Orange County,Santa Ana,United States,SNA,KSNA,33.675667,-117.868222,56,-8,A,"Santa Ana, CA",3042,3057,3111,3114,5.54536489151873,11.863591756624146,41.0,97.0,"Sat, Aug 10, 1996","Fri, Aug  9, 1996"
4067,Sarasota Bradenton International,Sarasota,United States,SRQ,KSRQ,27.395444,-82.554389,30,-5,A,"Sarasota/Bradenton, FL",595,596,601,602,3.870588235294119,9.436241610738259,14.0,37.0,"Thu, Aug 29, 1996","Tue, Aug  6, 1996"
3678,Lambert St. Louis International,St. Louis,United States,STL,KSTL,38.748697,-90.370028,618,-6,A,"St. Louis, MO",15022,15054,15456,15424,6.247037678072159,19.42746113989625,82.0,166.0,"Fri, Aug 23, 1996","Tue, Aug 20, 1996"
3753,Sioux Gateway-Colonel Bud Day Field,Sioux City,United States,SUX,KSUX,42.402603,-96.384367,1098,-6,A,"Sioux City, IA",60,60,62,62,2.4166666666666665,6.516666666666667,5.0,12.0,"Wed, Aug  7, 1996","Sun, Aug 18, 1996"
3661,Stewart International,Newburgh,United States,SWF,KSWF,41.504094,-74.104839,491,-5,A,"Newburgh/Poughkeepsie, NY",362,360,367,366,4.767955801104973,11.19722222222222,10.0,49.0,"Fri, Aug 16, 1996","Sun, Aug  4, 1996"
3745,Syracuse Hancock International,Syracuse,United States,SYR,KSYR,43.111187,-76.106311,421,-5,A,"Syracuse, NY",951,951,974,972,4.150368033648792,9.381703470031542,18.0,77.0,"Mon, Aug  5, 1996","Thu, Aug 15, 1996"
3698,Tallahassee Regional,Tallahassee,United States,TLH,KTLH,30.396528,-84.350333,81,-5,A,"Tallahassee, FL",208,208,215,216,4.692307692307691,7.927884615384618,31.0,77.0,"Mon, Aug 19, 1996","Sat, Aug 24, 1996"
4040,Toledo,Toledo,United States,TOL,KTOL,41.586806,-83.807833,684,-5,A,"Toledo, OH",196,196,203,203,3.311224489795918,8.637755102040817,7.0,171.0,"Wed, Aug  7, 1996","Fri, Aug 23, 1996"
3646,Tampa International,Tampa,United States,TPA,KTPA,27.975472,-82.53325,26,-5,A,"Tampa, FL",3976,3982,4015,4015,4.2552816901408415,12.437719738824711,25.0,105.0,"Mon, Aug 12, 1996","Mon, Aug 12, 1996"
4116,Tri-Cities Regional Airport,BRISTOL,United States,TRI,KTRI,36.4752222,-82.4074167,1519,-5,A,"Bristol/Johnson City/Kingsport, TN",165,163,171,172,4.103030303030298,6.50920245398773,10.0,23.0,"Sat, Aug 17, 1996","Wed, Aug 21, 1996"
3855,Tulsa International,Tulsa,United States,TUL,KTUL,36.198389,-95.888111,677,-6,A,"Tulsa, OK",1662,1662,1679,1680,2.9115523465704,9.49518652226233,14.0,59.0,"Sun, Aug  4, 1996","Mon, Aug  5, 1996"
3636,Tucson International,Tucson,United States,TUS,KTUS,32.116083,-110.941028,2643,-7,N,"Tucson, AZ",1441,1446,1468,1468,3.9167244968771624,9.7627939142462,38.0,91.0,"Thu, Aug 22, 1996","Thu, Aug 22, 1996"
4023,Cherry Capital Airport,Traverse City,United States,TVC,KTVC,44.741445,-85.582235,624,-5,A,"Traverse City, MI",92,92,93,93,2.641304347826086,8.771739130434778,6.0,25.0,"Fri, Aug 30, 1996","Sat, Aug  3, 1996"
3676,McGhee Tyson,Knoxville,United States,TYS,KTYS,35.810972,-83.994028,981,-5,A,"Knoxville, TN",754,754,770,770,3.717506631299735,9.123342175066304,12.0,59.0,"Thu, Aug  1, 1996","Fri, Aug 23, 1996"
3873,Eglin AFB,Valparaiso,United States,VPS,KVPS,30.48325,-86.5254,87,-6,A,"Valparaiso, FL",92,92,93,93,6.782608695652174,8.26086956521739,12.0,19.0,"Mon, Aug  5, 1996","Fri, Aug  9, 1996"
5969,Wrangell Airport,Wrangell,United States,WRG,PAWG,56.4843,-132.37,44,-9,A,"Wrangell, AK",60,61,62,62,3.066666666666667,7.262295081967213,6.0,16.0,"Sat, Aug 17, 1996","Wed, Aug 28, 1996"
6803,Yakutat,Yakutat,United States,YAK,PAYA,59.3012,-139.3937,33,-9,A,"Yakutat, AK",59,60,62,62,2.6779661016949152,8.616666666666665,6.0,23.0,"Mon, Aug 26, 1996","Mon, Aug 19, 1996"
