airport_id,name,city,country,iata_faa,iaco,latitude,longitude,altitude,zone,dst,city_state,avg_able_landings,avg_able_takeoffs,total_landings,total_takeoffs,avg_taxi_in,avg_taxi_out,longest_taxi_in,longest_taxi_out,lng_tx_in_date,lng_tx_out_date
4355,Lehigh Valley International,Allentown,United States,ABE,KABE,40.652083,-75.440806,393,-5,A,"Allentown/Bethlehem/Easton, PA",575,575,588,590,3.8347826086956474,7.765217391304348,14.0,76.0,"Mon, Sep  9, 1996","Thu, Sep 12, 1996"
4019,Albuquerque International Sunport,Albuquerque,United States,ABQ,KABQ,35.0402222,-106.6091944,5355,-7,A,"Albuquerque, NM",3122,3122,3136,3136,4.085522101217177,10.866752081998714,27.0,101.0,"Mon, Sep 23, 1996","Tue, Sep 10, 1996"
3517,Nantucket Memorial,Nantucket,United States,ACK,KACK,41.253053,-70.060181,48,-5,A,"Nantucket, MA",0,0,1,1,0,0,0,0,"Mon, Sep  2, 1996","Tue, Sep  3, 1996"
3531,Kodiak,Kodiak,United States,ADQ,PADQ,57.749967,-152.493856,78,-9,A,"Kodiak, AK",53,53,56,56,2.6792452830188678,7.528301886792453,5.0,17.0,"Tue, Sep 17, 1996","Sat, Sep  7, 1996"
3658,Augusta Regional At Bush Field,Bush Field,United States,AGS,KAGS,33.369944,-81.9645,144,-5,A,"Augusta, GA",175,175,177,177,4.205714285714282,9.188571428571429,23.0,32.0,"Thu, Sep  5, 1996","Mon, Sep 30, 1996"
3794,King Salmon,King Salmon,United States,AKN,PAKN,58.676778,-156.649278,68,-9,A,"King Salmon, AK",37,37,37,37,2.8648648648648645,7.135135135135135,5.0,17.0,"Tue, Sep 17, 1996","Sat, Sep 21, 1996"
3864,Albany International,Albany,United States,ALB,KALB,42.748267,-73.801692,285,-5,A,"Albany, NY",899,899,917,917,3.9110122358175747,9.355951056729698,24.0,59.0,"Wed, Sep 18, 1996","Fri, Sep  6, 1996"
5718,Waterloo Regional Airport,Waterloo,United States,ALO,KALO,42.5571,-92.4003,873,-6,A,"Waterloo, IA",53,52,55,54,2.886792452830189,5.980769230769231,5.0,11.0,"Fri, Sep 27, 1996","Sat, Sep  7, 1996"
3840,Rick Husband Amarillo International,Amarillo,United States,AMA,KAMA,35.219369,-101.705931,3607,-6,A,"Amarillo, TX",396,397,405,404,3.5934343434343434,7.0025188916876555,22.0,52.0,"Tue, Sep 10, 1996","Fri, Sep  6, 1996"
3774,Ted Stevens Anchorage International,Anchorage,United States,ANC,PANC,61.174361,-149.996361,152,-9,A,"Anchorage, AK",1696,1713,1754,1758,3.7234669811320753,11.93345008756567,19.0,50.0,"Sun, Sep  1, 1996","Sun, Sep 22, 1996"
3682,Hartsfield Jackson Atlanta International,Atlanta,United States,ATL,KATL,33.636719,-84.428067,1026,-5,A,"Atlanta, GA",19305,19380,19617,19634,6.889199689199689,16.433333333333334,81.0,150.0,"Wed, Sep 25, 1996","Sun, Sep  8, 1996"
3673,Austin Bergstrom International,Austin,United States,AUS,KAUS,30.194528,-97.669889,542,-6,A,"Austin, TX",2979,2976,3022,3020,3.381336018798258,9.664650537634428,25.0,135.0,"Fri, Sep 20, 1996","Tue, Sep 24, 1996"
4007,Asheville Regional Airport,Asheville,United States,AVL,KAVL,35.436194,-82.541806,2165,-5,A,"Asheville, NC",170,171,180,180,3.4058823529411764,8.461988304093568,7.0,24.0,"Mon, Sep 23, 1996","Tue, Sep 10, 1996"
4286,Wilkes Barre Scranton International,Scranton,United States,AVP,KAVP,41.338478,-75.723403,962,-5,A,"Scranton/Wilkes-Barre, PA",260,260,268,268,3.707692307692306,7.580769230769226,11.0,98.0,"Wed, Sep 11, 1996","Wed, Sep  4, 1996"
4039,Kalamazoo,Kalamazoo,United States,AZO,KAZO,42.234875,-85.552058,874,-5,A,"Kalamazoo, MI",184,184,193,192,3.9782608695652186,8.336956521739127,19.0,53.0,"Sun, Sep  1, 1996","Mon, Sep  9, 1996"
3825,Bradley International,Windsor Locks,United States,BDL,KBDL,41.938889,-72.683222,173,-5,A,"Hartford, CT",2086,2088,2120,2124,4.595877277085328,10.309865900383157,21.0,54.0,"Wed, Sep 11, 1996","Sun, Sep  8, 1996"
3599,Bethel,Bethel,United States,BET,PABE,60.779778,-161.838,121,-9,A,"Bethel, AK",73,73,76,76,2.589041095890411,7.191780821917808,5.0,20.0,"Fri, Sep  6, 1996","Tue, Sep 24, 1996"
3558,Meadows Field,Bakersfield,United States,BFL,KBFL,35.433598,-119.05677,507,-8,A,"Bakersfield, CA",30,30,30,30,7.033333333333333,7.2,10.0,20.0,"Sun, Sep  1, 1996","Thu, Sep 26, 1996"
4129,Greater Binghamton-Edwin A. Link Field,Binghamton,United States,BGM,KBGM,42.208689,-75.979839,1636,-5,A,"Binghamton, NY",118,119,120,120,3.6949152542372885,6.714285714285714,9.0,31.0,"Tue, Sep 24, 1996","Tue, Sep 24, 1996"
3463,Bangor International,Bangor,United States,BGR,KBGR,44.807444,-68.828139,192,-5,A,"Bangor, ME",96,95,97,97,4.333333333333333,9.705263157894732,12.0,21.0,"Mon, Sep  2, 1996","Wed, Sep 11, 1996"
3811,Birmingham International,Birmingham,United States,BHM,KBHM,33.562942,-86.75355,644,-6,A,"Birmingham, AL",1529,1529,1545,1547,3.0614780902550676,9.25179856115109,23.0,67.0,"Thu, Sep 12, 1996","Tue, Sep  3, 1996"
4021,Billings Logan International Airport,Billings,United States,BIL,KBIL,45.80921,-108.537654,3652,-7,A,"Billings, MT",295,298,298,298,3.3559322033898304,9.845637583892618,7.0,49.0,"Thu, Sep 26, 1996","Tue, Sep 17, 1996"
4083,Bismarck Municipal Airport,Bismarck,United States,BIS,KBIS,46.775842,-100.757931,1661,-6,A,"Bismarck/Mandan, ND",114,113,115,115,3.6228070175438596,6.743362831858405,7.0,14.0,"Sun, Sep 29, 1996","Sun, Sep  1, 1996"
3690,Nashville International,Nashville,United States,BNA,KBNA,36.124472,-86.678194,599,-6,A,"Nashville, TN",3563,3561,3584,3586,4.816446814482174,10.458298230834023,28.0,77.0,"Sun, Sep 15, 1996","Thu, Sep 26, 1996"
3495,Boise Air Terminal,Boise,United States,BOI,KBOI,43.564361,-116.222861,2871,-7,A,"Boise, ID",1013,1010,1013,1012,3.3879565646594276,8.357425742574264,14.0,34.0,"Wed, Sep 25, 1996","Wed, Sep  4, 1996"
3448,General Edward Lawrence Logan International,Boston,United States,BOS,KBOS,42.364347,-71.005181,19,-5,A,"Boston, MA",7354,7332,7613,7613,6.983138428066357,15.246453900709223,90.0,136.0,"Thu, Sep 19, 1996","Wed, Sep 11, 1996"
3738,Brownsville South Padre Island International,Brownsville,United States,BRO,KBRO,25.906833,-97.425861,22,-6,A,"Brownsville, TX",33,32,33,32,5.090909090909091,8.624999999999998,10.0,14.0,"Thu, Sep  5, 1996","Fri, Sep 20, 1996"
3571,Wiley Post Will RogersMemorial,Barrow,United States,BRW,PABR,71.285446,-156.766003,44,-9,A,"Barrow, AK",75,75,82,82,3.3466666666666667,7.026666666666666,6.0,18.0,"Mon, Sep  2, 1996","Fri, Sep 13, 1996"
3846,Baton Rouge Metro-Ryan Field,Baton Rouge,United States,BTR,KBTR,30.533167,-91.149639,70,-6,A,"Baton Rouge, LA",412,410,413,412,3.849514563106796,8.38292682926829,13.0,66.0,"Thu, Sep 12, 1996","Thu, Sep  5, 1996"
3711,Burlington International,Burlington,United States,BTV,KBTV,44.471861,-73.153278,335,-5,A,"Burlington, VT",273,274,276,276,3.5384615384615388,7.45985401459854,7.0,22.0,"Sun, Sep  8, 1996","Mon, Sep 23, 1996"
3820,Buffalo Niagara International,Buffalo,United States,BUF,KBUF,42.940525,-78.732167,724,-5,A,"Buffalo, NY",1496,1493,1522,1521,3.302139037433154,8.94038847957132,17.0,95.0,"Sat, Sep  7, 1996","Wed, Sep 11, 1996"
3644,Bob Hope,Burbank,United States,BUR,KBUR,34.200667,-118.358667,778,-8,A,"Burbank, CA",2429,2435,2460,2462,1.968299711815566,9.328542094455859,8.0,55.0,"Sat, Sep 28, 1996","Tue, Sep 24, 1996"
3849,Baltimore Washington International,Baltimore,United States,BWI,KBWI,39.175361,-76.668333,146,-5,A,"Baltimore, MD",4886,4881,4957,4939,4.446786737617671,12.368367137881583,24.0,106.0,"Sun, Sep  8, 1996","Wed, Sep 11, 1996"
4020,Gallatin Field,Bozeman,United States,BZN,KBZN,45.777643,-111.160151,4500,-7,A,"Bozeman, MT",187,188,189,189,4.171122994652405,10.015957446808505,15.0,50.0,"Fri, Sep  6, 1996","Tue, Sep 17, 1996"
3561,Columbia Metropolitan,Colombia,United States,CAE,KCAE,33.938833,-81.119528,236,-5,A,"Columbia, SC",612,612,642,642,4.0915032679738585,9.446078431372563,9.0,62.0,"Mon, Sep 16, 1996","Wed, Sep  4, 1996"
4112,Akron Canton Regional Airport,Akron,United States,CAK,KCAK,40.9160833,-81.4421944,1228,-5,A,"Akron, OH",85,85,86,86,3.976470588235294,6.988235294117647,12.0,33.0,"Sat, Sep  7, 1996","Wed, Sep 18, 1996"
3610,Merle K. Mudhole Smith,Cordova,United States,CDV,PACV,60.491778,-145.477556,48,-9,A,"Cordova, AK",60,60,60,60,2.85,6.533333333333333,6.0,14.0,"Wed, Sep 25, 1996","Wed, Sep 11, 1996"
3578,Lovell Field,Chattanooga,United States,CHA,KCHA,35.035278,-85.203808,683,-5,A,"Chattanooga, TN",112,112,116,116,3.3839285714285716,5.875,7.0,14.0,"Sun, Sep 22, 1996","Thu, Sep 19, 1996"
3806,Charleston AFB International,Charleston,United States,CHS,KCHS,32.898647,-80.040528,45,-5,A,"Charleston, SC",599,595,624,622,4.355592654424042,9.134453781512592,13.0,35.0,"Fri, Sep 27, 1996","Mon, Sep  2, 1996"
4043,Cedar Rapids,Cedar Rapids,United States,CID,KCID,41.884694,-91.710806,869,-6,A,"Cedar Rapids/Iowa City, IA",429,427,445,444,3.7435897435897436,7.941451990632317,12.0,30.0,"Thu, Sep 26, 1996","Thu, Sep 26, 1996"
3486,Cleveland Hopkins International,Cleveland,United States,CLE,KCLE,41.411689,-81.849794,791,-5,A,"Cleveland, OH",5313,5323,5424,5423,4.218520609824979,13.464587638549707,48.0,126.0,"Tue, Sep 10, 1996","Tue, Sep 17, 1996"
3876,Charlotte Douglas International,Charlotte,United States,CLT,KCLT,35.214,-80.943139,748,-5,A,"Charlotte, NC",10541,10591,11001,10998,5.253486386490823,14.464734208290052,37.0,88.0,"Fri, Sep 27, 1996","Thu, Sep 26, 1996"
3759,Port Columbus International,Columbus,United States,CMH,KCMH,39.997972,-82.891889,815,-5,A,"Columbus, OH",3205,3205,3250,3250,4.072386895475808,10.455538221528808,40.0,79.0,"Sat, Sep 14, 1996","Thu, Sep  5, 1996"
3819,City Of Colorado Springs Municipal,Colorado Springs,United States,COS,KCOS,38.805805,-104.700778,6187,-7,A,"Colorado Springs, CO",1372,1372,1392,1390,6.537900874635569,13.392857142857142,40.0,75.0,"Wed, Sep 25, 1996","Thu, Sep  5, 1996"
3744,Corpus Christi International,Corpus Christi,United States,CRP,KCRP,27.770361,-97.501222,44,-6,A,"Corpus Christi, TX",292,295,301,299,3.1404109589041096,7.1084745762711865,30.0,35.0,"Sun, Sep 15, 1996","Mon, Sep  9, 1996"
4285,Yeager,Charleston,United States,CRW,KCRW,38.373147,-81.593189,981,-5,A,"Charleston/Dunbar, WV",140,141,141,141,3.0,6.333333333333333,11.0,24.0,"Mon, Sep 23, 1996","Fri, Sep 20, 1996"
3488,Cincinnati Northern Kentucky International,Cincinnati,United States,CVG,KCVG,39.048836,-84.667822,896,-5,A,"Cincinnati, OH",6960,6983,7056,7070,5.646120689655174,14.817843333810675,180.0,164.0,"Mon, Sep 30, 1996","Sun, Sep  8, 1996"
3950,Daytona Beach International,Daytona Beach,United States,DAB,KDAB,29.179917,-81.058056,34,-5,A,"Daytona Beach, FL",322,323,330,330,3.4347826086956506,10.055727554179567,14.0,24.0,"Mon, Sep  9, 1996","Tue, Sep  3, 1996"
3502,Dallas Love Field,Dallas,United States,DAL,KDAL,32.847111,-96.851778,487,-6,A,"Dallas, TX",3825,3834,3919,3923,2.7330718954248323,8.123630672926465,25.0,76.0,"Tue, Sep 10, 1996","Wed, Sep 18, 1996"
3627,James M. Cox Dayton International,Dayton,United States,DAY,KDAY,39.902375,-84.219375,1009,-5,A,"Dayton, OH",1094,1094,1119,1120,4.679159049360149,10.07769652650822,37.0,120.0,"Thu, Sep 12, 1996","Tue, Sep 17, 1996"
3520,Ronald Reagan Washington National,Washington,United States,DCA,KDCA,38.852083,-77.037722,15,-5,A,"Washington, DC",6539,6550,6814,6819,5.296069735433546,15.481068702290079,59.0,191.0,"Fri, Sep  6, 1996","Sun, Sep  8, 1996"
3751,Denver International,Denver,United States,DEN,KDEN,39.861656,-104.673178,5431,-7,A,"Denver, CO",10624,10661,10848,10842,6.344503012048184,13.816246130756964,73.0,109.0,"Sat, Sep 14, 1996","Wed, Sep 18, 1996"
3670,Dallas Fort Worth International,Dallas-fort Worth,United States,DFW,KDFW,32.896828,-97.037997,607,-6,A,"Dallas/Fort Worth, TX",20087,20115,20467,20458,9.868621496490235,18.97454635843898,131.0,165.0,"Tue, Sep  3, 1996","Wed, Sep 18, 1996"
3460,Dillingham,Dillingham,United States,DLG,PADL,59.044667,-158.5055,74,-9,A,"Dillingham, AK",37,37,37,37,3.108108108108108,7.594594594594595,5.0,14.0,"Wed, Sep 18, 1996","Thu, Sep  5, 1996"
3598,Duluth International,Duluth,United States,DLH,KDLH,46.842091,-92.193649,1428,-6,A,"Duluth, MN",141,141,145,145,3.0921985815602837,7.7304964539007095,8.0,47.0,"Wed, Sep 11, 1996","Tue, Sep 10, 1996"
3729,Des Moines International,Des Moines,United States,DSM,KDSM,41.533972,-93.663083,958,-6,A,"Des Moines, IA",692,693,703,703,4.248554913294796,9.606060606060602,21.0,59.0,"Sat, Sep 14, 1996","Thu, Sep 26, 1996"
3645,Detroit Metro Wayne County,Detroit,United States,DTW,KDTW,42.212444,-83.353389,645,-5,A,"Detroit, MI",12476,12486,12765,12757,8.638826546970208,17.623338138715223,93.0,236.0,"Wed, Sep 11, 1996","Wed, Sep 11, 1996"
3860,Unalaska,Unalaska,United States,DUT,PADU,53.900139,-166.5435,22,-9,A,"Unalaska, AK",45,45,53,53,2.755555555555556,6.333333333333333,9.0,15.0,"Tue, Sep 10, 1996","Sun, Sep 22, 1996"
3946,Elmira Corning Regional,Elmira,United States,ELM,KELM,42.159889,-76.891611,954,-5,A,"Elmira/Corning, NY",104,105,107,107,3.673076923076923,6.9904761904761905,12.0,81.0,"Mon, Sep 30, 1996","Tue, Sep 10, 1996"
3559,El Paso International,El Paso,United States,ELP,KELP,31.80725,-106.377583,3958,-7,A,"El Paso, TX",2043,2040,2052,2050,2.8100832109642635,8.983333333333325,26.0,82.0,"Sat, Sep 21, 1996","Fri, Sep 27, 1996"
4276,Erie International-Tom Ridge Field,Erie,United States,ERI,KERI,42.082022,-80.176217,733,-5,A,"Erie, PA",116,116,120,120,3.163793103448275,6.336206896551724,6.0,36.0,"Thu, Sep  5, 1996","Thu, Sep 12, 1996"
4099,Mahlon Sweet Field,Eugene,United States,EUG,KEUG,44.124583,-123.211972,374,-8,A,"Eugene, OR",188,187,189,189,3.1382978723404267,8.465240641711224,30.0,28.0,"Wed, Sep 18, 1996","Thu, Sep  5, 1996"
3494,Newark Liberty International,Newark,United States,EWR,KEWR,40.6925,-74.168667,18,-5,A,"Newark, NJ",9777,9847,10129,10135,7.439091745934339,24.57784096679189,52.0,150.0,"Fri, Sep 13, 1996","Thu, Sep 26, 1996"
3832,Fairbanks International,Fairbanks,United States,FAI,PAFA,64.815114,-147.856267,434,-9,A,"Fairbanks, AK",384,390,402,404,2.9921874999999987,10.333333333333323,14.0,32.0,"Wed, Sep 25, 1996","Mon, Sep 30, 1996"
4292,Hector International Airport,Fargo,United States,FAR,KFAR,46.92065,-96.8157639,902,-6,A,"Fargo, ND",201,200,205,205,4.472636815920397,8.659999999999997,24.0,29.0,"Sun, Sep  8, 1996","Tue, Sep 10, 1996"
3687,Fresno Yosemite International,Fresno,United States,FAT,KFAT,36.776194,-119.71814,336,-8,A,"Fresno, CA",151,152,153,153,4.860927152317882,8.361842105263156,10.0,57.0,"Fri, Sep  6, 1996","Thu, Sep 26, 1996"
5738,Fayetteville Regional-Grannis Field,Fayetteville,United States,FAY,KFAY,34.9912,-78.8803,189,-5,A,"Fayetteville, NC",164,163,175,175,4.19512195121951,6.196319018404909,10.0,23.0,"Sun, Sep  8, 1996","Fri, Sep 13, 1996"
4127,Glacier Park International,Kalispell,United States,FCA,KFCA,48.310472,-114.256,2977,-7,A,"Kalispell, MT",119,121,121,122,3.8151260504201683,10.471074380165286,8.0,40.0,"Fri, Sep 13, 1996","Fri, Sep 20, 1996"
3533,Fort Lauderdale Hollywood International,Fort Lauderdale,United States,FLL,KFLL,26.072583,-80.15275,9,-5,A,"Fort Lauderdale, FL",2459,2458,2477,2475,3.587637250915006,11.40398698128561,16.0,91.0,"Sun, Sep 29, 1996","Sun, Sep 22, 1996"
4089,Bishop International,Flint,United States,FNT,KFNT,42.965424,-83.743629,782,-5,A,"Flint, MI",39,38,39,38,4.051282051282051,9.657894736842104,8.0,29.0,"Fri, Sep 27, 1996","Thu, Sep 19, 1996"
4009,Sioux Falls,Sioux Falls,United States,FSD,KFSD,43.582014,-96.741914,1429,-6,A,"Sioux Falls, SD",369,369,378,377,4.520325203252035,9.401084010840105,9.0,56.0,"Tue, Sep 24, 1996","Sun, Sep  8, 1996"
4041,Fort Wayne,Fort Wayne,United States,FWA,KFWA,40.978472,-85.195139,815,-5,A,"Fort Wayne, IN",171,169,172,170,4.105263157894737,9.313609467455626,8.0,32.0,"Sun, Sep  8, 1996","Thu, Sep  5, 1996"
3467,Spokane International,Spokane,United States,GEG,KGEG,47.619861,-117.533833,2376,-8,A,"Spokane, WA",1261,1261,1271,1269,3.3068992862807294,9.007137192704192,18.0,67.0,"Mon, Sep 16, 1996","Sun, Sep 29, 1996"
3442,Grand Forks International,Grand Forks,United States,GFK,KGFK,47.949256,-97.176111,845,-6,A,"Grand Forks, ND",105,104,107,106,3.6952380952380954,7.413461538461539,7.0,97.0,"Sat, Sep 14, 1996","Mon, Sep  2, 1996"
3472,Gainesville Regional,Gainesville,United States,GNV,KGNV,29.690056,-82.271778,152,-5,A,"Gainesville, FL",142,143,148,148,3.647887323943662,6.496503496503497,7.0,21.0,"Mon, Sep 16, 1996","Wed, Sep 11, 1996"
3653,Austin Straubel International,Green Bay,United States,GRB,KGRB,44.485072,-88.129589,695,-6,A,"Green Bay, WI",247,248,250,251,3.4129554655870447,9.608870967741936,10.0,33.0,"Sat, Sep 14, 1996","Tue, Sep 10, 1996"
3685,Gerald R. Ford International,Grand Rapids,United States,GRR,KGRR,42.880833,-85.522806,794,-5,A,"Grand Rapids, MI",743,738,759,756,3.8559892328398377,10.020325203252016,9.0,106.0,"Fri, Sep 20, 1996","Sat, Sep  7, 1996"
4008,Piedmont Triad,Greensboro,United States,GSO,KGSO,36.09775,-79.937306,925,-5,A,"Greensboro/High Point, NC",1297,1288,1359,1360,3.8565921356977664,11.403726708074549,22.0,92.0,"Tue, Sep  3, 1996","Sun, Sep 22, 1996"
4034,Greenville-Spartanburg International,Greenville,United States,GSP,KGSP,34.895556,-82.218889,964,-5,A,"Greer, SC",706,705,738,737,4.128895184135974,9.824113475177304,16.0,50.0,"Tue, Sep 24, 1996","Sun, Sep 22, 1996"
5960,Gustavus Airport,Gustavus,United States,GST,PAGS,58.4253,-135.707,34,-9,A,"Gustavus, AK",7,7,7,7,2.4285714285714284,6.714285714285714,4.0,11.0,"Sun, Sep  1, 1996","Fri, Sep  6, 1996"
3880,Great Falls International,Great Falls,United States,GTF,KGTF,47.482,-111.370689,3677,-7,A,"Great Falls, MT",197,198,199,200,3.766497461928934,8.727272727272732,8.0,21.0,"Sat, Sep 14, 1996","Thu, Sep  5, 1996"
3504,Helena Regional,Helena,United States,HLN,KHLN,46.606806,-111.98275,3877,-7,A,"Helena, MT",89,90,90,91,2.5393258426966288,7.411111111111111,6.0,17.0,"Sun, Sep  8, 1996","Sat, Sep 14, 1996"
3728,Honolulu International,Honolulu,United States,HNL,PHNL,21.318681,-157.922428,13,-10,N,"Honolulu, HI",1003,1001,1013,1010,5.5054835493519425,18.369630369630347,74.0,47.0,"Sun, Sep 15, 1996","Sun, Sep 15, 1996"
3566,William P. Hobby,Houston,United States,HOU,KHOU,29.645419,-95.278889,46,-6,A,"Houston, TX",4460,4478,4561,4563,3.563004484304933,8.728896828941501,17.0,80.0,"Tue, Sep  3, 1996","Tue, Sep 24, 1996"
3589,Westchester County,White Plains,United States,HPN,KHPN,41.066959,-73.707575,439,-5,A,"White Plains, NY",460,458,489,487,4.743478260869572,12.539301310043669,37.0,103.0,"Wed, Sep 11, 1996","Tue, Sep 17, 1996"
3560,Valley International,Harlingen,United States,HRL,KHRL,26.2285,-97.654389,36,-6,A,"Harlingen/San Benito, TX",433,435,441,442,2.2032332563510377,6.593103448275863,13.0,39.0,"Thu, Sep  5, 1996","Wed, Sep 18, 1996"
4113,Huntsville International Airport-Carl T. Jones Field,Huntsville,United States,HSV,KHSV,34.6371944,-86.7750556,629,-6,A,"Huntsville, AL",465,464,470,469,5.03010752688172,10.46120689655172,13.0,41.0,"Thu, Sep  5, 1996","Mon, Sep  2, 1996"
3714,Washington Dulles International,Washington,United States,IAD,KIAD,38.944533,-77.455811,313,-5,A,"Washington, DC",3081,3080,3147,3145,6.038623823433945,15.440909090909091,32.0,172.0,"Sun, Sep  1, 1996","Sun, Sep  8, 1996"
3550,George Bush Intercontinental Houston,Houston,United States,IAH,KIAH,29.984433,-95.341442,97,-6,A,"Houston, TX",10054,10085,10206,10199,6.011736622239905,15.408031730292514,48.0,153.0,"Thu, Sep 26, 1996","Thu, Sep 26, 1996"
3457,Wichita Mid Continent,Wichita,United States,ICT,KICT,37.649944,-97.433056,1333,-6,A,"Wichita, KS",548,546,563,563,4.6204379562043805,10.326007326007321,20.0,106.0,"Mon, Sep  9, 1996","Mon, Sep 16, 1996"
4100,Idaho Falls Regional,Idaho Falls,United States,IDA,KIDA,43.514556,-112.07075,4744,-7,A,"Idaho Falls, ID",89,88,90,89,3.2808988764044944,10.272727272727273,6.0,43.0,"Sun, Sep 22, 1996","Tue, Sep 17, 1996"
3845,Wilmington International,Wilmington,United States,ILM,KILM,34.270615,-77.902569,32,-5,A,"Wilmington, NC",171,171,179,179,3.9064327485380117,7.046783625730995,7.0,19.0,"Tue, Sep 10, 1996","Sat, Sep  7, 1996"
3585,Indianapolis International,Indianapolis,United States,IND,KIND,39.717331,-86.294383,797,-5,A,"Indianapolis, IN",2768,2762,2795,2793,6.786127167630055,10.939536567704547,19.0,120.0,"Wed, Sep 11, 1996","Thu, Sep 12, 1996"
3857,Long Island MacArthur,Islip,United States,ISP,KISP,40.79525,-73.100222,99,-5,A,"Islip, NY",267,268,270,270,4.558052434456927,9.899253731343286,16.0,68.0,"Thu, Sep 26, 1996","Sun, Sep  8, 1996"
3947,Ithaca Tompkins Regional,Ithaca,United States,ITH,KITH,42.491028,-76.458444,1099,-5,A,"Ithaca/Cortland, NY",105,105,107,107,3.761904761904762,8.142857142857146,5.0,14.0,"Sun, Sep  8, 1996","Sun, Sep 15, 1996"
4027,Jackson Hole Airport,Jacksn Hole,United States,JAC,KJAC,43.60733333,-110.73775,6451,-7,A,"Jackson, WY",123,123,123,123,2.894308943089431,8.504065040650406,5.0,32.0,"Fri, Sep 20, 1996","Mon, Sep 16, 1996"
3580,Jackson Evers International,Jackson,United States,JAN,KJAN,32.311167,-90.075889,346,-6,A,"Jackson/Vicksburg, MS",486,485,492,492,4.304526748971192,9.094845360824742,21.0,51.0,"Fri, Sep 13, 1996","Mon, Sep 16, 1996"
3712,Jacksonville International,Jacksonville,United States,JAX,KJAX,30.494056,-81.687861,30,-5,A,"Jacksonville, FL",1305,1304,1321,1317,4.979310344827586,10.5782208588957,22.0,39.0,"Tue, Sep 24, 1996","Thu, Sep 12, 1996"
3797,John F. Kennedy International,New York,United States,JFK,KJFK,40.639751,-73.778925,13,-5,A,"New York, NY",3502,3524,3594,3595,9.166761850371257,26.872587968217935,99.0,185.0,"Wed, Sep  4, 1996","Tue, Sep 17, 1996"
3492,Juneau International,Juneau,United States,JNU,PAJN,58.354972,-134.576278,21,-9,A,"Juneau, AK",418,418,448,448,3.014354066985646,11.050239234449755,13.0,43.0,"Wed, Sep 18, 1996","Sun, Sep  1, 1996"
3514,Kona International At Keahole,Kona,United States,KOA,PHKO,19.738767,-156.045631,47,-10,N,"Kona, HI",59,60,60,60,3.3728813559322033,8.716666666666669,16.0,35.0,"Sat, Sep  7, 1996","Thu, Sep  5, 1996"
3808,Ketchikan International,Ketchikan,United States,KTN,PAKT,55.355556,-131.71375,88,-9,A,"Ketchikan, AK",232,234,247,247,3.383620689655173,10.188034188034187,15.0,46.0,"Tue, Sep  3, 1996","Thu, Sep 12, 1996"
3544,Capital City,Lansing,United States,LAN,KLAN,42.7787,-84.587357,861,-5,A,"Lansing, MI",168,168,174,174,3.9166666666666634,8.285714285714286,8.0,69.0,"Wed, Sep 11, 1996","Sat, Sep  7, 1996"
3877,McCarran International,Las Vegas,United States,LAS,KLAS,36.080056,-115.15225,2141,-8,A,"Las Vegas, NV",10073,10074,10141,10143,4.4388960587709825,13.703891205082414,115.0,85.0,"Fri, Sep  6, 1996","Mon, Sep 16, 1996"
3484,Los Angeles International,Los Angeles,United States,LAX,KLAX,33.942536,-118.408075,126,-8,A,"Los Angeles, CA",14985,15009,15317,15323,7.9070403737070825,14.688520221200621,74.0,104.0,"Mon, Sep 23, 1996","Wed, Sep 18, 1996"
3829,Lubbock Preston Smith International,Lubbock,United States,LBB,KLBB,33.663639,-101.822778,3282,-6,A,"Lubbock, TX",577,575,582,581,2.6880415944540745,7.233043478260867,14.0,69.0,"Fri, Sep 20, 1996","Fri, Sep  6, 1996"
4017,Blue Grass,Lexington KY,United States,LEX,KLEX,38.0365,-84.605889,979,-5,A,"Lexington, KY",347,347,351,350,3.9020172910662843,8.319884726224773,10.0,23.0,"Tue, Sep 10, 1996","Thu, Sep 12, 1996"
3493,Lafayette Regional,Lafayette,United States,LFT,KLFT,30.205278,-91.987611,43,-6,A,"Lafayette, LA",54,53,54,53,4.814814814814815,10.415094339622645,9.0,37.0,"Tue, Sep 17, 1996","Sat, Sep 14, 1996"
3697,LaGuardia Airport,New York,United States,LGA,KLGA,40.777245,-73.872608,22,-5,A,"New York, NY",7675,7742,7916,7924,6.195960912052111,20.817618186515052,63.0,245.0,"Sun, Sep  8, 1996","Wed, Sep 11, 1996"
3582,Long Beach,Long Beach,United States,LGB,KLGB,33.817722,-118.151611,60,-8,A,"Long Beach, CA",118,115,120,117,4.228813559322033,9.695652173913043,9.0,17.0,"Thu, Sep 12, 1996","Sun, Sep  8, 1996"
3660,Adams Field,Little Rock,United States,LIT,KLIT,34.729444,-92.224306,262,-6,A,"Little Rock, AR",1101,1106,1114,1113,4.321525885558581,9.084990958408682,22.0,35.0,"Sun, Sep 15, 1996","Wed, Sep 18, 1996"
3543,Lincoln,Lincoln,United States,LNK,KLNK,40.850971,-96.75925,1219,-6,A,"Lincoln, NE",262,260,265,265,3.5610687022900764,8.257692307692308,12.0,44.0,"Tue, Sep 17, 1996","Thu, Sep 26, 1996"
4044,LaCrosse Municipal,LaCrosse,United States,LSE,KLSE,43.878986,-91.256711,654,-6,A,"La Crosse, WI",78,78,80,80,2.782051282051282,6.038461538461538,7.0,23.0,"Tue, Sep 17, 1996","Mon, Sep 23, 1996"
6958,Greenbrier Valley Airport,Lewisburg,United States,LWB,KLWB,37.858333,-80.399444,2302,-5,U,"Lewisburg, WV",13,13,13,13,3.3846153846153846,5.384615384615385,5.0,12.0,"Wed, Sep 25, 1996","Sat, Sep 28, 1996"
3652,Midland International,Midland,United States,MAF,KMAF,31.942528,-102.201914,2871,-6,A,"Midland/Odessa, TX",526,526,532,532,2.288973384030418,6.973384030418251,10.0,21.0,"Sun, Sep 15, 1996","Sat, Sep 28, 1996"
4128,MBS International,Saginaw,United States,MBS,KMBS,43.532913,-84.079647,668,-5,A,"Saginaw/Bay City/Midland, MI",335,336,342,343,3.5970149253731343,8.41964285714286,8.0,67.0,"Thu, Sep 19, 1996","Sat, Sep  7, 1996"
3458,Kansas City International,Kansas City,United States,MCI,KMCI,39.297606,-94.713905,1026,-6,A,"Kansas City, MO",4453,4447,4492,4494,4.88726701100381,10.234315268720517,27.0,92.0,"Wed, Sep 25, 1996","Tue, Sep 10, 1996"
3878,Orlando International,Orlando,United States,MCO,KMCO,28.429394,-81.308994,96,-5,A,"Orlando, FL",5697,5707,5762,5761,4.9627874319817495,12.393727001927479,27.0,137.0,"Mon, Sep  9, 1996","Fri, Sep 13, 1996"
3542,Harrisburg International,Harrisburg,United States,MDT,KMDT,40.193494,-76.763403,310,-5,A,"Harrisburg, PA",692,692,705,706,4.137283236994224,10.07803468208093,11.0,107.0,"Fri, Sep  6, 1996","Sat, Sep 21, 1996"
3747,Chicago Midway International,Chicago,United States,MDW,KMDW,41.785972,-87.752417,620,-6,A,"Chicago, IL",3527,3542,3561,3564,4.029486815990919,9.418690005646527,48.0,54.0,"Sun, Sep  8, 1996","Wed, Sep 11, 1996"
3473,Memphis International,Memphis,United States,MEM,KMEM,35.042417,-89.976667,341,-6,A,"Memphis, TN",4120,4121,4184,4187,4.891504854368939,13.882552778451839,28.0,69.0,"Sun, Sep  1, 1996","Tue, Sep 10, 1996"
3826,McAllen Miller International,Mcallen,United States,MFE,KMFE,26.175833,-98.238611,107,-6,A,"Mission/McAllen/Edinburg, TX",287,290,288,290,3.9790940766550524,8.42758620689654,13.0,39.0,"Sun, Sep  8, 1996","Sun, Sep 15, 1996"
4101,Rogue Valley International Medford,Medford,United States,MFR,KMFR,42.374228,-122.8735,1335,-8,A,"Medford, OR",98,99,98,99,3.5816326530612246,6.454545454545454,6.0,23.0,"Sat, Sep 14, 1996","Mon, Sep 30, 1996"
4115,Montgomery Regional Airport ,MONTGOMERY,United States,MGM,KMGM,32.3006389,-86.3939722,221,-6,A,"Montgomery, AL",172,173,177,177,3.9011627906976742,9.416184971098268,8.0,31.0,"Fri, Sep 27, 1996","Thu, Sep 12, 1996"
4011,Manchester Regional Airport,Manchester NH,United States,MHT,KMHT,42.932556,-71.435667,266,-5,A,"Manchester, NH",380,379,384,384,3.9078947368421053,10.316622691292872,16.0,28.0,"Wed, Sep 11, 1996","Thu, Sep  5, 1996"
3576,Miami International,Miami,United States,MIA,KMIA,25.79325,-80.290556,8,-5,A,"Miami, FL",5137,5160,5258,5259,7.025695931477519,18.41259689922484,86.0,164.0,"Thu, Sep 19, 1996","Wed, Sep 11, 1996"
3717,General Mitchell International,Milwaukee,United States,MKE,KMKE,42.947222,-87.896583,723,-6,A,"Milwaukee, WI",1283,1278,1312,1309,3.9789555728760675,10.622848200312983,17.0,101.0,"Tue, Sep 24, 1996","Wed, Sep 11, 1996"
3671,Melbourne International,Melbourne,United States,MLB,KMLB,28.102753,-80.645258,33,-5,A,"Melbourne, FL",265,265,268,268,3.8075471698113206,9.283018867924529,9.0,22.0,"Wed, Sep 11, 1996","Mon, Sep 16, 1996"
4072,Quad City International,Moline,United States,MLI,KMLI,41.448528,-90.507539,590,-6,A,"Moline, IL",104,103,109,109,3.0961538461538463,7.2718446601941755,7.0,35.0,"Tue, Sep 17, 1996","Mon, Sep 16, 1996"
3732,Monroe Regional,Monroe,United States,MLU,KMLU,32.510864,-92.037689,79,-6,A,"Monroe, LA",206,207,210,210,3.9757281553398056,8.193236714975848,8.0,21.0,"Wed, Sep  4, 1996","Tue, Sep  3, 1996"
3782,Mobile Regional,Mobile,United States,MOB,KMOB,30.691231,-88.242814,219,-6,A,"Mobile, AL",326,325,327,326,3.7423312883435584,8.116923076923078,10.0,24.0,"Fri, Sep  6, 1996","Mon, Sep 16, 1996"
3498,Minot International,Minot,United States,MOT,KMOT,48.259378,-101.280333,1716,-6,A,"Minot, ND",87,87,90,90,4.4367816091954,7.068965517241379,7.0,12.0,"Sun, Sep  8, 1996","Thu, Sep 12, 1996"
3948,Monterey Peninsula,Monterey,United States,MRY,KMRY,36.587,-121.842944,257,-8,A,"Monterey, CA",58,58,60,60,3.0,12.137931034482758,11.0,105.0,"Thu, Sep 12, 1996","Mon, Sep  9, 1996"
3459,Dane County Regional-Truax Field,Madison,United States,MSN,KMSN,43.139858,-89.337514,887,-6,A,"Madison, WI",347,348,353,353,3.844380403458213,10.382183908045976,8.0,135.0,"Mon, Sep 30, 1996","Sun, Sep  8, 1996"
4216,Missoula International,Missoula,United States,MSO,KMSO,46.916306,-114.090556,3205,-7,A,"Missoula, MT",148,149,150,150,4.560810810810809,8.510067114093962,11.0,19.0,"Tue, Sep 24, 1996","Mon, Sep  2, 1996"
3858,Minneapolis St. Paul International,Minneapolis,United States,MSP,KMSP,44.881956,-93.221767,841,-6,A,"Minneapolis, MN",11358,11376,11635,11621,5.563655573164276,15.930819268635753,64.0,191.0,"Fri, Sep  6, 1996","Wed, Sep 11, 1996"
3861,Louis Armstrong New Orleans International,New Orleans,United States,MSY,KMSY,29.993389,-90.258028,4,-6,A,"New Orleans, LA",3805,3810,3841,3838,3.678055190538765,9.297900262467174,24.0,151.0,"Mon, Sep 16, 1996","Tue, Sep 24, 1996"
3515,Myrtle Beach International,Myrtle Beach,United States,MYR,KMYR,33.67975,-78.928333,25,-5,A,"Myrtle Beach, SC",182,182,193,193,3.8351648351648353,6.906593406593407,6.0,25.0,"Sat, Sep 28, 1996","Thu, Sep 12, 1996"
3453,Metropolitan Oakland International,Oakland,United States,OAK,KOAK,37.721278,-122.220722,9,-8,A,"Oakland, CA",4892,4893,4961,4958,3.8710139002453,8.85693848354795,27.0,71.0,"Sun, Sep 29, 1996","Mon, Sep  2, 1996"
3456,Kahului,Kahului,United States,OGG,PHOG,20.89865,-156.430458,54,-10,N,"Kahului, HI",240,240,240,240,5.504166666666666,9.704166666666662,11.0,22.0,"Tue, Sep 17, 1996","Sat, Sep 21, 1996"
3863,Will Rogers World,Oklahoma City,United States,OKC,KOKC,35.393089,-97.600733,1295,-6,A,"Oklahoma City, OK",1753,1749,1763,1761,3.688533941814034,8.716981132075475,32.0,92.0,"Thu, Sep  5, 1996","Sun, Sep  8, 1996"
3454,Eppley Airfield,Omaha,United States,OMA,KOMA,41.303167,-95.894069,984,-6,A,"Omaha, NE",1475,1471,1486,1484,3.298983050847456,9.789259007477892,60.0,55.0,"Mon, Sep  2, 1996","Wed, Sep 25, 1996"
3615,Nome,Nome,United States,OME,PAOM,64.512203,-165.445247,37,-9,A,"Nome, AK",89,89,92,92,3.101123595505618,6.303370786516855,17.0,14.0,"Tue, Sep  3, 1996","Tue, Sep 17, 1996"
3734,Ontario International,Ontario,United States,ONT,KONT,34.056,-117.601194,944,-8,A,"Ontario, CA",3033,3034,3096,3094,2.625453346521595,10.235332893869495,17.0,51.0,"Fri, Sep 27, 1996","Sat, Sep 21, 1996"
3830,Chicago O'Hare International,Chicago,United States,ORD,KORD,41.978603,-87.904842,668,-6,A,"Chicago, IL",23579,23679,24061,24056,6.756181347809489,16.745175049622066,69.0,156.0,"Thu, Sep 12, 1996","Mon, Sep 23, 1996"
3611,Norfolk International,Norfolk,United States,ORF,KORF,36.894611,-76.201222,26,-5,A,"Norfolk, VA",1383,1378,1426,1427,3.4605929139551694,8.682148040638609,14.0,87.0,"Mon, Sep 23, 1996","Thu, Sep 26, 1996"
3693,Ralph WienMemorial,Kotzebue,United States,OTZ,PAOT,66.884678,-162.59855,11,-9,A,"Kotzebue, AK",79,79,81,81,3.1012658227848102,7.6075949367088604,13.0,19.0,"Thu, Sep  5, 1996","Fri, Sep 20, 1996"
3722,Palm Beach International,West Palm Beach,United States,PBI,KPBI,26.683161,-80.095589,19,-5,A,"West Palm Beach/Palm Beach, FL",1452,1448,1462,1460,4.221763085399459,10.748618784530363,23.0,58.0,"Sat, Sep 21, 1996","Mon, Sep  2, 1996"
3720,Portland International,Portland,United States,PDX,KPDX,45.588722,-122.5975,30,-8,A,"Portland, OR",4505,4508,4527,4529,3.609988901220866,11.20208518189885,32.0,56.0,"Sun, Sep 29, 1996","Thu, Sep 19, 1996"
3752,Philadelphia International,Philadelphia,United States,PHL,KPHL,39.871944,-75.241139,36,-5,A,"Philadelphia, PA",7830,7883,8081,8080,5.5243933588761305,17.05251807687434,54.0,244.0,"Sun, Sep  8, 1996","Wed, Sep 11, 1996"
3462,Phoenix Sky Harbor International,Phoenix,United States,PHX,KPHX,33.434278,-112.011583,1135,-7,N,"Phoenix, AZ",13071,13118,13264,13273,4.50126233647002,13.965695990242414,66.0,166.0,"Sat, Sep 21, 1996","Fri, Sep  6, 1996"
3570,Pittsburgh International,Pittsburgh (pennsylva),United States,PIT,KPIT,40.491467,-80.232872,1204,-5,A,"Pittsburgh, PA",9876,9912,10090,10092,6.425779667881719,15.771892655367218,28.0,145.0,"Thu, Sep 26, 1996","Thu, Sep 12, 1996"
3564,Pensacola Regional,Pensacola,United States,PNS,KPNS,30.473425,-87.186611,121,-6,A,"Pensacola, FL",498,496,504,503,4.040160642570284,8.322580645161283,10.0,44.0,"Wed, Sep  4, 1996","Fri, Sep 27, 1996"
6133,Tri Cities Airport,Pasco,United States,PSC,PSC,46.2647,-119.119,410,-8,A,"Pasco/Kennewick/Richland, WA",119,119,120,120,4.235294117647058,8.621848739495798,11.0,17.0,"Mon, Sep 23, 1996","Sun, Sep 15, 1996"
4147,Petersburg James A. Johnson,Petersburg,United States,PSG,PAPG,56.801667,-132.945278,105,-9,A,"Petersburg, AK",55,59,60,60,2.5454545454545463,6.254237288135593,5.0,13.0,"Sun, Sep  1, 1996","Wed, Sep  4, 1996"
3839,Palm Springs International,Palm Springs,United States,PSP,KPSP,33.829667,-116.506694,477,-8,A,"Palm Springs, CA",92,92,92,92,3.815217391304347,9.749999999999998,7.0,29.0,"Thu, Sep 12, 1996","Thu, Sep 26, 1996"
3641,Theodore Francis Green State,Providence,United States,PVD,KPVD,41.732581,-71.420383,55,-5,A,"Providence, RI",1055,1053,1081,1081,4.637914691943124,10.054131054131055,19.0,83.0,"Fri, Sep 20, 1996","Thu, Sep  5, 1996"
3862,Portland International Jetport,Portland,United States,PWM,KPWM,43.646161,-70.309281,77,-5,A,"Portland, ME",529,528,538,539,3.580340264650284,9.515151515151524,11.0,54.0,"Sat, Sep 14, 1996","Sun, Sep  8, 1996"
4087,Rapid City Regional Airport,Rapid City,United States,RAP,KRAP,44.045278,-103.057222,3204,-7,A,"Rapid City, SD",97,98,99,99,5.896907216494846,8.68367346938775,16.0,27.0,"Tue, Sep  3, 1996","Thu, Sep  5, 1996"
3626,Raleigh Durham International,Raleigh-durham,United States,RDU,KRDU,35.877639,-78.787472,435,-5,A,"Raleigh/Durham, NC",2123,2129,2228,2228,3.7348092322185584,10.28417097228745,31.0,127.0,"Sun, Sep  8, 1996","Tue, Sep 10, 1996"
3608,Richmond International,Richmond,United States,RIC,KRIC,37.505167,-77.319667,167,-5,A,"Richmond, VA",1280,1279,1329,1329,6.064062500000001,11.798279906176713,25.0,48.0,"Sun, Sep  8, 1996","Fri, Sep 13, 1996"
3807,Reno Tahoe International,Reno,United States,RNO,KRNO,39.499108,-119.768108,4415,-8,A,"Reno, NV",2069,2066,2071,2071,3.9942000966650486,9.52178121974831,32.0,49.0,"Sun, Sep 29, 1996","Sun, Sep 29, 1996"
4016,Roanoke Regional,Roanoke VA,United States,ROA,KROA,37.325472,-79.975417,1175,-5,A,"Roanoke, VA",231,230,243,243,4.099567099567093,7.613043478260869,8.0,77.0,"Sun, Sep  8, 1996","Tue, Sep 10, 1996"
3622,Greater Rochester International,Rochester,United States,ROC,KROC,43.118866,-77.672389,559,-5,A,"Rochester, NY",1308,1307,1335,1338,4.573394495412846,8.471308339709266,15.0,74.0,"Sun, Sep 29, 1996","Thu, Sep  5, 1996"
4048,Rochester,Rochester,United States,RST,KRST,43.908283,-92.500014,1317,-6,A,"Rochester, MN",276,275,280,279,3.528985507246377,8.643636363636363,8.0,44.0,"Sat, Sep  7, 1996","Wed, Sep 11, 1996"
3793,Southwest Florida International,Fort Myers,United States,RSW,KRSW,26.536167,-81.755167,30,-5,A,"Fort Myers, FL",967,968,971,972,3.2905894519131316,10.892561983471074,21.0,79.0,"Sat, Sep 28, 1996","Sun, Sep 22, 1996"
3731,San Diego International,San Diego,United States,SAN,KSAN,32.733556,-117.189667,17,-8,A,"San Diego, CA",5527,5525,5575,5578,2.863578795006329,11.380814479638012,76.0,65.0,"Tue, Sep 10, 1996","Tue, Sep 10, 1996"
3621,San Antonio International,San Antonio,United States,SAT,KSAT,29.533694,-98.469778,809,-6,A,"San Antonio, TX",3161,3166,3192,3193,2.972160708636505,9.165508528111193,16.0,117.0,"Thu, Sep 12, 1996","Mon, Sep  9, 1996"
3613,Savannah Hilton Head International,Savannah,United States,SAV,KSAV,32.127583,-81.202139,51,-5,A,"Savannah, GA",434,436,449,449,4.762672811059904,9.403669724770646,10.0,50.0,"Wed, Sep 18, 1996","Mon, Sep 16, 1996"
3949,Santa Barbara Municipal,Santa Barbara,United States,SBA,KSBA,34.426211,-119.840372,10,-8,A,"Santa Barbara, CA",110,110,116,116,2.981818181818183,6.081818181818182,5.0,25.0,"Thu, Sep 19, 1996","Sat, Sep 21, 1996"
4359,South Bend Regional,South Bend,United States,SBN,KSBN,41.708661,-86.31725,799,-5,A,"South Bend, IN",307,306,314,313,3.7100977198697067,7.277777777777776,18.0,20.0,"Wed, Sep 25, 1996","Sat, Sep 21, 1996"
3620,Deadhorse,Deadhorse,United States,SCC,PASC,70.19475,-148.465167,64,-9,A,"Deadhorse, AK",30,30,30,30,2.6666666666666665,7.2,4.0,12.0,"Mon, Sep  2, 1996","Sat, Sep 21, 1996"
4014,Louisville International Airport,Louisville,United States,SDF,KSDF,38.1740858,-85.7364989,501,-5,A,"Louisville, KY",1979,1982,1999,1995,4.456291056088917,9.63118062563068,14.0,78.0,"Thu, Sep 26, 1996","Thu, Sep 12, 1996"
3577,Seattle Tacoma International,Seattle,United States,SEA,KSEA,47.449,-122.309306,433,-8,A,"Seattle, WA",8030,8064,8130,8138,4.19240348692404,13.650793650793641,42.0,58.0,"Fri, Sep 20, 1996","Thu, Sep 26, 1996"
3469,San Francisco International,San Francisco,United States,SFO,KSFO,37.618972,-122.374889,13,-8,A,"San Francisco, CA",10970,10987,11187,11175,5.16918869644484,16.317921179575894,57.0,67.0,"Wed, Sep  4, 1996","Thu, Sep 12, 1996"
4348,Springfield Branson National,Springfield,United States,SGF,KSGF,37.245667,-93.388639,1268,-6,A,"Springfield, MO",140,140,143,143,3.3500000000000005,8.049999999999995,7.0,24.0,"Tue, Sep 10, 1996","Mon, Sep  9, 1996"
3609,Shreveport Regional,Shreveport,United States,SHV,KSHV,32.446629,-93.8256,258,-6,A,"Shreveport, LA",344,342,347,346,4.296511627906972,7.8888888888888955,17.0,26.0,"Sun, Sep 29, 1996","Thu, Sep 26, 1996"
3856,Sitka Rocky Gutierrez,Sitka,United States,SIT,PASI,57.047138,-135.361611,21,-9,A,"Sitka, AK",123,126,127,127,3.032520325203252,7.666666666666667,5.0,20.0,"Fri, Sep  6, 1996","Mon, Sep 30, 1996"
3748,Norman Y. Mineta San Jose International,San Jose,United States,SJC,KSJC,37.3626,-121.929022,62,-8,A,"San Jose, CA",3888,3888,3926,3925,3.3449074074074083,11.412551440329214,30.0,108.0,"Sun, Sep 29, 1996","Wed, Sep 18, 1996"
3536,Salt Lake City International,Salt Lake City,United States,SLC,KSLC,40.788389,-111.977772,4227,-7,A,"Salt Lake City, UT",7199,7208,7253,7254,6.197805250729266,17.73612652608222,45.0,115.0,"Tue, Sep 24, 1996","Mon, Sep 30, 1996"
3817,Sacramento International,Sacramento,United States,SMF,KSMF,38.695417,-121.590778,27,-8,A,"Sacramento, CA",3043,3050,3060,3066,3.3963194216233954,8.95704918032788,23.0,48.0,"Fri, Sep 27, 1996","Thu, Sep 19, 1996"
3867,John Wayne Airport Orange County,Santa Ana,United States,SNA,KSNA,33.675667,-117.868222,56,-8,A,"Santa Ana, CA",2924,2927,2963,2959,5.217852257181936,12.066279467031075,41.0,97.0,"Tue, Sep 10, 1996","Mon, Sep 30, 1996"
4067,Sarasota Bradenton International,Sarasota,United States,SRQ,KSRQ,27.395444,-82.554389,30,-5,A,"Sarasota/Bradenton, FL",565,566,576,575,3.7716814159292036,9.289752650176684,10.0,35.0,"Sun, Sep  8, 1996","Mon, Sep 30, 1996"
3678,Lambert St. Louis International,St. Louis,United States,STL,KSTL,38.748697,-90.370028,618,-6,A,"St. Louis, MO",14032,14098,14478,14495,5.689495438996558,18.325932756419405,59.0,152.0,"Tue, Sep 10, 1996","Mon, Sep 23, 1996"
3753,Sioux Gateway-Colonel Bud Day Field,Sioux City,United States,SUX,KSUX,42.402603,-96.384367,1098,-6,A,"Sioux City, IA",55,55,57,57,2.7272727272727266,6.9818181818181815,5.0,17.0,"Wed, Sep 11, 1996","Tue, Sep  3, 1996"
3661,Stewart International,Newburgh,United States,SWF,KSWF,41.504094,-74.104839,491,-5,A,"Newburgh/Poughkeepsie, NY",347,348,355,355,4.899135446685881,11.117816091954035,14.0,92.0,"Sat, Sep  7, 1996","Wed, Sep 11, 1996"
3745,Syracuse Hancock International,Syracuse,United States,SYR,KSYR,43.111187,-76.106311,421,-5,A,"Syracuse, NY",919,922,942,945,3.956474428726879,8.839479392624728,31.0,89.0,"Sat, Sep 21, 1996","Tue, Sep 10, 1996"
3698,Tallahassee Regional,Tallahassee,United States,TLH,KTLH,30.396528,-84.350333,81,-5,A,"Tallahassee, FL",200,199,207,206,4.2,7.653266331658291,32.0,30.0,"Fri, Sep  6, 1996","Tue, Sep 17, 1996"
4040,Toledo,Toledo,United States,TOL,KTOL,41.586806,-83.807833,684,-5,A,"Toledo, OH",199,198,204,204,3.35678391959799,8.11111111111111,6.0,71.0,"Sun, Sep  8, 1996","Mon, Sep  9, 1996"
3646,Tampa International,Tampa,United States,TPA,KTPA,27.975472,-82.53325,26,-5,A,"Tampa, FL",3778,3792,3835,3831,4.2654843832715565,11.933280590717308,39.0,128.0,"Sun, Sep 15, 1996","Sun, Sep 22, 1996"
4116,Tri-Cities Regional Airport,BRISTOL,United States,TRI,KTRI,36.4752222,-82.4074167,1519,-5,A,"Bristol/Johnson City/Kingsport, TN",169,166,176,175,3.8698224852071004,6.481927710843372,10.0,35.0,"Sun, Sep  8, 1996","Wed, Sep  4, 1996"
3855,Tulsa International,Tulsa,United States,TUL,KTUL,36.198389,-95.888111,677,-6,A,"Tulsa, OK",1584,1586,1596,1595,3.295454545454546,8.981715006305153,27.0,71.0,"Fri, Sep 20, 1996","Thu, Sep 19, 1996"
3636,Tucson International,Tucson,United States,TUS,KTUS,32.116083,-110.941028,2643,-7,N,"Tucson, AZ",1430,1430,1446,1446,4.719580419580412,10.517482517482513,20.0,73.0,"Fri, Sep 13, 1996","Fri, Sep 13, 1996"
4023,Cherry Capital Airport,Traverse City,United States,TVC,KTVC,44.741445,-85.582235,624,-5,A,"Traverse City, MI",87,87,87,87,2.735632183908047,8.31034482758621,8.0,19.0,"Thu, Sep 26, 1996","Wed, Sep  4, 1996"
3676,McGhee Tyson,Knoxville,United States,TYS,KTYS,35.810972,-83.994028,981,-5,A,"Knoxville, TN",735,733,745,744,3.602721088435374,9.268758526603007,12.0,48.0,"Sat, Sep 21, 1996","Wed, Sep  4, 1996"
3873,Eglin AFB,Valparaiso,United States,VPS,KVPS,30.48325,-86.5254,87,-6,A,"Valparaiso, FL",85,86,86,86,6.694117647058824,8.441860465116276,11.0,25.0,"Thu, Sep 26, 1996","Mon, Sep  9, 1996"
5969,Wrangell Airport,Wrangell,United States,WRG,PAWG,56.4843,-132.37,44,-9,A,"Wrangell, AK",58,58,60,60,2.5172413793103448,6.344827586206897,5.0,21.0,"Mon, Sep  2, 1996","Wed, Sep 25, 1996"
6803,Yakutat,Yakutat,United States,YAK,PAYA,59.3012,-139.3937,33,-9,A,"Yakutat, AK",58,59,60,60,2.7586206896551717,9.59322033898305,6.0,22.0,"Mon, Sep  9, 1996","Fri, Sep  6, 1996"
