airport_id,name,city,country,iata_faa,iaco,latitude,longitude,altitude,zone,dst,city_state,avg_able_landings,avg_able_takeoffs,total_landings,total_takeoffs,avg_taxi_in,avg_taxi_out,longest_taxi_in,longest_taxi_out,lng_tx_in_date,lng_tx_out_date
4355,Lehigh Valley International,Allentown,United States,ABE,KABE,40.652083,-75.440806,393,-5,A,"Allentown/Bethlehem/Easton, PA",569,567,580,579,4.286467486818985,9.126984126984125,11.0,52.0,"Mon, May 19, 1997","Mon, May 19, 1997"
4019,Albuquerque International Sunport,Albuquerque,United States,ABQ,KABQ,35.0402222,-106.6091944,5355,-7,A,"Albuquerque, NM",3171,3167,3194,3194,4.228319142226428,9.77486580359961,31.0,135.0,"Tue, May 27, 1997","Fri, May 16, 1997"
3531,Kodiak,Kodiak,United States,ADQ,PADQ,57.749967,-152.493856,78,-9,A,"Kodiak, AK",62,62,62,62,2.1935483870967736,7.145161290322581,7.0,25.0,"Sun, May 11, 1997","Thu, May  8, 1997"
3658,Augusta Regional At Bush Field,Bush Field,United States,AGS,KAGS,33.369944,-81.9645,144,-5,A,"Augusta, GA",180,180,186,186,4.572222222222223,10.894444444444446,8.0,36.0,"Thu, May 29, 1997","Thu, May 29, 1997"
3794,King Salmon,King Salmon,United States,AKN,PAKN,58.676778,-156.649278,68,-9,A,"King Salmon, AK",47,47,52,52,2.5319148936170217,6.000000000000001,6.0,13.0,"Sun, May 11, 1997","Sat, May 10, 1997"
3864,Albany International,Albany,United States,ALB,KALB,42.748267,-73.801692,285,-5,A,"Albany, NY",943,942,950,949,3.767762460233299,9.180467091295116,13.0,37.0,"Wed, May 28, 1997","Tue, May  6, 1997"
3840,Rick Husband Amarillo International,Amarillo,United States,AMA,KAMA,35.219369,-101.705931,3607,-6,A,"Amarillo, TX",413,414,416,417,3.4430992736077473,7.106280193236717,28.0,35.0,"Mon, May 19, 1997","Mon, May 19, 1997"
3774,Ted Stevens Anchorage International,Anchorage,United States,ANC,PANC,61.174361,-149.996361,152,-9,A,"Anchorage, AK",1634,1634,1672,1671,3.771113831089351,10.793757649938803,52.0,40.0,"Wed, May 14, 1997","Mon, May 12, 1997"
3682,Hartsfield Jackson Atlanta International,Atlanta,United States,ATL,KATL,33.636719,-84.428067,1026,-5,A,"Atlanta, GA",20709,20763,20955,20952,7.287845864117059,17.52025237200786,75.0,150.0,"Thu, May 22, 1997","Thu, May  1, 1997"
3673,Austin Bergstrom International,Austin,United States,AUS,KAUS,30.194528,-97.669889,542,-6,A,"Austin, TX",3119,3126,3159,3162,3.497595383135618,9.55342290467053,36.0,98.0,"Mon, May 19, 1997","Thu, May 15, 1997"
4007,Asheville Regional Airport,Asheville,United States,AVL,KAVL,35.436194,-82.541806,2165,-5,A,"Asheville, NC",175,175,175,175,3.422857142857143,8.285714285714283,9.0,38.0,"Tue, May  6, 1997","Tue, May 27, 1997"
4286,Wilkes Barre Scranton International,Scranton,United States,AVP,KAVP,41.338478,-75.723403,962,-5,A,"Scranton/Wilkes-Barre, PA",154,154,155,155,3.4675324675324677,6.805194805194803,8.0,71.0,"Sat, May 31, 1997","Mon, May 19, 1997"
4039,Kalamazoo,Kalamazoo,United States,AZO,KAZO,42.234875,-85.552058,874,-5,A,"Kalamazoo, MI",173,173,176,176,3.6763005780346822,7.919075144508669,11.0,15.0,"Sun, May 11, 1997","Tue, May 13, 1997"
3825,Bradley International,Windsor Locks,United States,BDL,KBDL,41.938889,-72.683222,173,-5,A,"Hartford, CT",2225,2218,2244,2242,3.919101123595506,10.871505861136155,18.0,138.0,"Fri, May 23, 1997","Sun, May 18, 1997"
3599,Bethel,Bethel,United States,BET,PABE,60.779778,-161.838,121,-9,A,"Bethel, AK",76,76,78,78,2.789473684210526,7.4868421052631575,5.0,18.0,"Thu, May  8, 1997","Wed, May 14, 1997"
3558,Meadows Field,Bakersfield,United States,BFL,KBFL,35.433598,-119.05677,507,-8,A,"Bakersfield, CA",31,31,31,31,6.451612903225806,7.483870967741935,10.0,20.0,"Tue, May 27, 1997","Tue, May  6, 1997"
4129,Greater Binghamton-Edwin A. Link Field,Binghamton,United States,BGM,KBGM,42.208689,-75.979839,1636,-5,A,"Binghamton, NY",90,90,93,93,3.7555555555555555,5.622222222222224,6.0,16.0,"Sun, May 11, 1997","Wed, May  7, 1997"
3463,Bangor International,Bangor,United States,BGR,KBGR,44.807444,-68.828139,192,-5,A,"Bangor, ME",92,92,93,93,4.4782608695652195,9.31521739130435,8.0,25.0,"Fri, May  2, 1997","Fri, May 16, 1997"
3811,Birmingham International,Birmingham,United States,BHM,KBHM,33.562942,-86.75355,644,-6,A,"Birmingham, AL",1596,1598,1606,1606,3.3032581453634076,9.148310387984987,15.0,49.0,"Thu, May  8, 1997","Fri, May  2, 1997"
4021,Billings Logan International Airport,Billings,United States,BIL,KBIL,45.80921,-108.537654,3652,-7,A,"Billings, MT",308,308,308,308,3.47077922077922,9.136363636363637,16.0,31.0,"Wed, May 28, 1997","Tue, May 27, 1997"
4083,Bismarck Municipal Airport,Bismarck,United States,BIS,KBIS,46.775842,-100.757931,1661,-6,A,"Bismarck/Mandan, ND",119,119,119,120,3.5798319327731094,7.773109243697479,9.0,20.0,"Wed, May 14, 1997","Thu, May  8, 1997"
3690,Nashville International,Nashville,United States,BNA,KBNA,36.124472,-86.678194,599,-6,A,"Nashville, TN",4167,4164,4184,4181,4.982481401487876,10.218780019212312,23.0,114.0,"Wed, May 28, 1997","Mon, May 19, 1997"
3495,Boise Air Terminal,Boise,United States,BOI,KBOI,43.564361,-116.222861,2871,-7,A,"Boise, ID",1003,1001,1004,1004,3.5204386839481554,8.66733266733267,13.0,47.0,"Mon, May  5, 1997","Thu, May 29, 1997"
3448,General Edward Lawrence Logan International,Boston,United States,BOS,KBOS,42.364347,-71.005181,19,-5,A,"Boston, MA",8104,8092,8270,8278,6.244323790720632,15.69871478002966,59.0,167.0,"Wed, May  7, 1997","Sun, May 18, 1997"
3738,Brownsville South Padre Island International,Brownsville,United States,BRO,KBRO,25.906833,-97.425861,22,-6,A,"Brownsville, TX",29,29,29,29,6.0344827586206895,6.793103448275862,27.0,10.0,"Wed, May 21, 1997","Wed, May 21, 1997"
3571,Wiley Post Will RogersMemorial,Barrow,United States,BRW,PABR,71.285446,-156.766003,44,-9,A,"Barrow, AK",82,82,85,85,3.036585365853659,6.158536585365853,6.0,14.0,"Wed, May 28, 1997","Tue, May 13, 1997"
3846,Baton Rouge Metro-Ryan Field,Baton Rouge,United States,BTR,KBTR,30.533167,-91.149639,70,-6,A,"Baton Rouge, LA",395,395,396,396,3.962025316455696,9.129113924050634,19.0,45.0,"Fri, May 30, 1997","Thu, May 15, 1997"
3711,Burlington International,Burlington,United States,BTV,KBTV,44.471861,-73.153278,335,-5,A,"Burlington, VT",245,244,248,248,3.620408163265306,7.30327868852459,6.0,16.0,"Tue, May 13, 1997","Tue, May 20, 1997"
3820,Buffalo Niagara International,Buffalo,United States,BUF,KBUF,42.940525,-78.732167,724,-5,A,"Buffalo, NY",1466,1459,1483,1478,2.9959072305593475,8.936257710760804,15.0,45.0,"Sat, May 10, 1997","Fri, May  2, 1997"
3644,Bob Hope,Burbank,United States,BUR,KBUR,34.200667,-118.358667,778,-8,A,"Burbank, CA",2467,2467,2498,2496,2.0498581272800998,9.201459262261853,10.0,52.0,"Fri, May  9, 1997","Fri, May  9, 1997"
3849,Baltimore Washington International,Baltimore,United States,BWI,KBWI,39.175361,-76.668333,146,-5,A,"Baltimore, MD",5414,5417,5438,5443,4.344846693756929,10.956987262322372,21.0,93.0,"Mon, May 26, 1997","Sun, May 25, 1997"
4020,Gallatin Field,Bozeman,United States,BZN,KBZN,45.777643,-111.160151,4500,-7,A,"Bozeman, MT",181,181,184,184,3.850828729281768,9.679558011049721,10.0,35.0,"Mon, May 26, 1997","Thu, May  1, 1997"
3561,Columbia Metropolitan,Colombia,United States,CAE,KCAE,33.938833,-81.119528,236,-5,A,"Columbia, SC",510,510,513,513,5.7294117647058815,12.358823529411765,15.0,81.0,"Thu, May 29, 1997","Thu, May  1, 1997"
4112,Akron Canton Regional Airport,Akron,United States,CAK,KCAK,40.9160833,-81.4421944,1228,-5,A,"Akron, OH",87,87,88,88,4.172413793103446,5.701149425287357,8.0,13.0,"Thu, May 15, 1997","Mon, May 26, 1997"
3610,Merle K. Mudhole Smith,Cordova,United States,CDV,PACV,60.491778,-145.477556,48,-9,A,"Cordova, AK",62,62,62,62,2.935483870967742,6.241935483870968,6.0,16.0,"Thu, May 29, 1997","Sun, May 18, 1997"
3578,Lovell Field,Chattanooga,United States,CHA,KCHA,35.035278,-85.203808,683,-5,A,"Chattanooga, TN",106,107,115,115,3.4245283018867925,7.252336448598131,6.0,14.0,"Sat, May  3, 1997","Sun, May 25, 1997"
3806,Charleston AFB International,Charleston,United States,CHS,KCHS,32.898647,-80.040528,45,-5,A,"Charleston, SC",644,643,646,647,4.281055900621115,9.76205287713841,27.0,153.0,"Tue, May 27, 1997","Tue, May  6, 1997"
4043,Cedar Rapids,Cedar Rapids,United States,CID,KCID,41.884694,-91.710806,869,-6,A,"Cedar Rapids/Iowa City, IA",503,506,509,513,4.075546719681907,8.06521739130434,15.0,61.0,"Thu, May 15, 1997","Wed, May  7, 1997"
3486,Cleveland Hopkins International,Cleveland,United States,CLE,KCLE,41.411689,-81.849794,791,-5,A,"Cleveland, OH",5372,5363,5443,5438,4.470402084884571,13.744545963080348,33.0,192.0,"Sun, May 18, 1997","Thu, May  1, 1997"
3876,Charlotte Douglas International,Charlotte,United States,CLT,KCLT,35.214,-80.943139,748,-5,A,"Charlotte, NC",10877,10899,10993,10991,5.266617633538653,13.667675933571887,33.0,102.0,"Sun, May 18, 1997","Wed, May 14, 1997"
3759,Port Columbus International,Columbus,United States,CMH,KCMH,39.997972,-82.891889,815,-5,A,"Columbus, OH",3432,3426,3475,3475,4.6305361305361625,10.278166958552228,46.0,80.0,"Sun, May 18, 1997","Tue, May 27, 1997"
3819,City Of Colorado Springs Municipal,Colorado Springs,United States,COS,KCOS,38.805805,-104.700778,6187,-7,A,"Colorado Springs, CO",1465,1461,1484,1483,6.312627986348115,12.902121834360022,30.0,61.0,"Thu, May 29, 1997","Thu, May 15, 1997"
3744,Corpus Christi International,Corpus Christi,United States,CRP,KCRP,27.770361,-97.501222,44,-6,A,"Corpus Christi, TX",307,307,309,310,2.9185667752443005,8.022801302931596,10.0,80.0,"Thu, May 15, 1997","Wed, May 28, 1997"
4285,Yeager,Charleston,United States,CRW,KCRW,38.373147,-81.593189,981,-5,A,"Charleston/Dunbar, WV",144,143,145,145,2.9722222222222223,6.195804195804196,7.0,19.0,"Mon, May 26, 1997","Mon, May 19, 1997"
3488,Cincinnati Northern Kentucky International,Cincinnati,United States,CVG,KCVG,39.048836,-84.667822,896,-5,A,"Cincinnati, OH",7145,7148,7258,7257,5.6057382785164585,14.760352546166759,81.0,74.0,"Thu, May 22, 1997","Mon, May 26, 1997"
3950,Daytona Beach International,Daytona Beach,United States,DAB,KDAB,29.179917,-81.058056,34,-5,A,"Daytona Beach, FL",341,341,341,341,3.5454545454545454,10.351906158357764,43.0,36.0,"Fri, May 30, 1997","Fri, May  9, 1997"
3502,Dallas Love Field,Dallas,United States,DAL,KDAL,32.847111,-96.851778,487,-6,A,"Dallas, TX",3886,3892,3987,3985,2.6922285126093644,7.536228160328879,29.0,83.0,"Fri, May 16, 1997","Mon, May 19, 1997"
3627,James M. Cox Dayton International,Dayton,United States,DAY,KDAY,39.902375,-84.219375,1009,-5,A,"Dayton, OH",1046,1049,1059,1060,4.6711281070745665,10.200190657769317,15.0,70.0,"Thu, May  1, 1997","Mon, May 26, 1997"
3520,Ronald Reagan Washington National,Washington,United States,DCA,KDCA,38.852083,-77.037722,15,-5,A,"Washington, DC",7074,7072,7188,7189,5.222646310432569,13.778563348416293,42.0,150.0,"Thu, May 29, 1997","Sun, May 18, 1997"
3751,Denver International,Denver,United States,DEN,KDEN,39.861656,-104.673178,5431,-7,A,"Denver, CO",11170,11187,11321,11320,6.1715308863025715,13.253776705104123,67.0,114.0,"Sun, May 25, 1997","Mon, May 19, 1997"
3670,Dallas Fort Worth International,Dallas-fort Worth,United States,DFW,KDFW,32.896828,-97.037997,607,-6,A,"Dallas/Fort Worth, TX",20915,21008,21267,21266,9.70867798230935,17.843488194973155,69.0,160.0,"Mon, May 19, 1997","Thu, May  1, 1997"
3460,Dillingham,Dillingham,United States,DLG,PADL,59.044667,-158.5055,74,-9,A,"Dillingham, AK",52,52,52,52,2.3461538461538463,6.038461538461538,4.0,14.0,"Sun, May 11, 1997","Mon, May 12, 1997"
3598,Duluth International,Duluth,United States,DLH,KDLH,46.842091,-92.193649,1428,-6,A,"Duluth, MN",147,147,147,148,3.5442176870748305,7.380952380952381,8.0,26.0,"Sun, May 11, 1997","Thu, May 29, 1997"
3729,Des Moines International,Des Moines,United States,DSM,KDSM,41.533972,-93.663083,958,-6,A,"Des Moines, IA",720,720,721,721,4.426388888888889,8.572222222222225,12.0,63.0,"Thu, May  1, 1997","Mon, May  5, 1997"
3645,Detroit Metro Wayne County,Detroit,United States,DTW,KDTW,42.212444,-83.353389,645,-5,A,"Detroit, MI",12773,12782,12937,12928,8.884835199248434,18.124237208574538,67.0,269.0,"Fri, May  2, 1997","Sun, May 18, 1997"
3860,Unalaska,Unalaska,United States,DUT,PADU,53.900139,-166.5435,22,-9,A,"Unalaska, AK",39,39,47,47,2.102564102564103,6.435897435897435,4.0,14.0,"Sun, May 11, 1997","Sat, May 24, 1997"
3946,Elmira Corning Regional,Elmira,United States,ELM,KELM,42.159889,-76.891611,954,-5,A,"Elmira/Corning, NY",113,113,114,114,3.5929203539823007,5.725663716814159,9.0,11.0,"Fri, May  9, 1997","Sun, May 25, 1997"
3559,El Paso International,El Paso,United States,ELP,KELP,31.80725,-106.377583,3958,-7,A,"El Paso, TX",2076,2077,2096,2094,2.8935452793834298,9.066441983630233,28.0,59.0,"Sun, May 11, 1997","Sat, May 24, 1997"
4276,Erie International-Tom Ridge Field,Erie,United States,ERI,KERI,42.082022,-80.176217,733,-5,A,"Erie, PA",118,118,119,119,3.1694915254237284,6.101694915254237,6.0,32.0,"Fri, May  2, 1997","Sat, May  3, 1997"
4099,Mahlon Sweet Field,Eugene,United States,EUG,KEUG,44.124583,-123.211972,374,-8,A,"Eugene, OR",155,155,155,155,2.9548387096774196,8.412903225806451,9.0,16.0,"Sun, May  4, 1997","Sun, May 11, 1997"
3494,Newark Liberty International,Newark,United States,EWR,KEWR,40.6925,-74.168667,18,-5,A,"Newark, NJ",9956,10017,10213,10223,7.362193652069101,27.45532594589195,63.0,254.0,"Mon, May  5, 1997","Thu, May  1, 1997"
3832,Fairbanks International,Fairbanks,United States,FAI,PAFA,64.815114,-147.856267,434,-9,A,"Fairbanks, AK",412,411,417,417,3.0169902912621365,9.053527980535282,17.0,23.0,"Sat, May  3, 1997","Sat, May 24, 1997"
4292,Hector International Airport,Fargo,United States,FAR,KFAR,46.92065,-96.8157639,902,-6,A,"Fargo, ND",179,180,180,181,4.435754189944134,8.783333333333331,8.0,20.0,"Mon, May 26, 1997","Thu, May 29, 1997"
3687,Fresno Yosemite International,Fresno,United States,FAT,KFAT,36.776194,-119.71814,336,-8,A,"Fresno, CA",154,154,155,155,4.727272727272728,8.487012987012985,9.0,19.0,"Wed, May 28, 1997","Sat, May 24, 1997"
5738,Fayetteville Regional-Grannis Field,Fayetteville,United States,FAY,KFAY,34.9912,-78.8803,189,-5,A,"Fayetteville, NC",152,153,155,155,3.875,6.320261437908495,9.0,18.0,"Fri, May 16, 1997","Mon, May 19, 1997"
4127,Glacier Park International,Kalispell,United States,FCA,KFCA,48.310472,-114.256,2977,-7,A,"Kalispell, MT",93,93,93,93,3.8602150537634414,8.526881720430108,6.0,21.0,"Mon, May  5, 1997","Tue, May  6, 1997"
3533,Fort Lauderdale Hollywood International,Fort Lauderdale,United States,FLL,KFLL,26.072583,-80.15275,9,-5,A,"Fort Lauderdale, FL",3205,3212,3228,3231,3.6989079563182528,12.349937733499377,23.0,128.0,"Mon, May 12, 1997","Tue, May  6, 1997"
4089,Bishop International,Flint,United States,FNT,KFNT,42.965424,-83.743629,782,-5,A,"Flint, MI",57,58,57,58,4.368421052631579,8.448275862068966,9.0,18.0,"Sun, May 11, 1997","Fri, May 16, 1997"
4009,Sioux Falls,Sioux Falls,United States,FSD,KFSD,43.582014,-96.741914,1429,-6,A,"Sioux Falls, SD",361,357,363,362,4.282548476454288,9.044817927170868,8.0,26.0,"Thu, May  1, 1997","Wed, May  7, 1997"
4041,Fort Wayne,Fort Wayne,United States,FWA,KFWA,40.978472,-85.195139,815,-5,A,"Fort Wayne, IN",144,145,144,145,3.923611111111111,9.117241379310341,9.0,49.0,"Fri, May 30, 1997","Sat, May 31, 1997"
3467,Spokane International,Spokane,United States,GEG,KGEG,47.619861,-117.533833,2376,-8,A,"Spokane, WA",1307,1305,1311,1312,3.275439938791126,8.976245210727967,11.0,50.0,"Mon, May 12, 1997","Wed, May 14, 1997"
3442,Grand Forks International,Grand Forks,United States,GFK,KGFK,47.949256,-97.176111,845,-6,A,"Grand Forks, ND",93,88,93,88,3.752688172043011,6.556818181818182,7.0,18.0,"Wed, May 21, 1997","Sun, May 25, 1997"
3472,Gainesville Regional,Gainesville,United States,GNV,KGNV,29.690056,-82.271778,152,-5,A,"Gainesville, FL",124,123,124,124,3.5483870967741935,6.894308943089431,7.0,14.0,"Fri, May  2, 1997","Sat, May  3, 1997"
3653,Austin Straubel International,Green Bay,United States,GRB,KGRB,44.485072,-88.129589,695,-6,A,"Green Bay, WI",256,255,256,255,3.6171875,9.72549019607843,15.0,52.0,"Sat, May 24, 1997","Thu, May  1, 1997"
3685,Gerald R. Ford International,Grand Rapids,United States,GRR,KGRR,42.880833,-85.522806,794,-5,A,"Grand Rapids, MI",732,732,750,751,3.7923497267759565,9.497267759562838,10.0,99.0,"Fri, May  2, 1997","Fri, May  2, 1997"
4008,Piedmont Triad,Greensboro,United States,GSO,KGSO,36.09775,-79.937306,925,-5,A,"Greensboro/High Point, NC",1201,1207,1226,1226,3.8751040799333936,11.417564208782107,13.0,110.0,"Sun, May 25, 1997","Fri, May  9, 1997"
4034,Greenville-Spartanburg International,Greenville,United States,GSP,KGSP,34.895556,-82.218889,964,-5,A,"Greer, SC",642,642,651,651,3.914330218068533,10.739875389408102,28.0,109.0,"Fri, May 30, 1997","Tue, May 27, 1997"
3880,Great Falls International,Great Falls,United States,GTF,KGTF,47.482,-111.370689,3677,-7,A,"Great Falls, MT",215,215,217,217,3.9116279069767472,8.790697674418604,9.0,22.0,"Sun, May 11, 1997","Thu, May  1, 1997"
3504,Helena Regional,Helena,United States,HLN,KHLN,46.606806,-111.98275,3877,-7,A,"Helena, MT",62,62,62,62,3.161290322580645,9.01612903225806,19.0,22.0,"Fri, May  2, 1997","Tue, May  6, 1997"
3728,Honolulu International,Honolulu,United States,HNL,PHNL,21.318681,-157.922428,13,-10,N,"Honolulu, HI",926,928,935,935,6.561555075593953,19.1864224137931,31.0,55.0,"Fri, May 23, 1997","Fri, May  2, 1997"
3566,William P. Hobby,Houston,United States,HOU,KHOU,29.645419,-95.278889,46,-6,A,"Houston, TX",4559,4573,4655,4654,3.558894494406667,8.290618849770413,39.0,79.0,"Sun, May 11, 1997","Sat, May 24, 1997"
3589,Westchester County,White Plains,United States,HPN,KHPN,41.066959,-73.707575,439,-5,A,"White Plains, NY",485,491,493,494,4.548453608247429,13.423625254582488,25.0,159.0,"Thu, May  8, 1997","Fri, May  2, 1997"
3560,Valley International,Harlingen,United States,HRL,KHRL,26.2285,-97.654389,36,-6,A,"Harlingen/San Benito, TX",363,365,368,368,2.1184573002754847,5.854794520547948,8.0,18.0,"Sat, May 31, 1997","Mon, May 26, 1997"
4113,Huntsville International Airport-Carl T. Jones Field,Huntsville,United States,HSV,KHSV,34.6371944,-86.7750556,629,-6,A,"Huntsville, AL",510,506,517,517,4.8803921568627455,10.960474308300396,10.0,108.0,"Tue, May 27, 1997","Fri, May  9, 1997"
3714,Washington Dulles International,Washington,United States,IAD,KIAD,38.944533,-77.455811,313,-5,A,"Washington, DC",3280,3292,3322,3326,5.607012195121944,14.353280680437424,26.0,76.0,"Mon, May 26, 1997","Fri, May  9, 1997"
3550,George Bush Intercontinental Houston,Houston,United States,IAH,KIAH,29.984433,-95.341442,97,-6,A,"Houston, TX",10313,10396,10487,10486,6.7886163095122605,15.067045017314344,138.0,134.0,"Sat, May 24, 1997","Sat, May 24, 1997"
3457,Wichita Mid Continent,Wichita,United States,ICT,KICT,37.649944,-97.433056,1333,-6,A,"Wichita, KS",673,672,674,673,4.512630014858843,10.379464285714281,14.0,35.0,"Thu, May  1, 1997","Thu, May  1, 1997"
4100,Idaho Falls Regional,Idaho Falls,United States,IDA,KIDA,43.514556,-112.07075,4744,-7,A,"Idaho Falls, ID",91,91,93,93,3.197802197802198,8.582417582417587,8.0,21.0,"Sun, May 11, 1997","Mon, May  5, 1997"
3845,Wilmington International,Wilmington,United States,ILM,KILM,34.270615,-77.902569,32,-5,A,"Wilmington, NC",181,182,181,182,3.7403314917127073,6.357142857142855,17.0,14.0,"Sun, May 11, 1997","Thu, May 22, 1997"
3585,Indianapolis International,Indianapolis,United States,IND,KIND,39.717331,-86.294383,797,-5,A,"Indianapolis, IN",3019,3013,3043,3041,6.730705531632993,10.475605708596083,67.0,115.0,"Tue, May  6, 1997","Mon, May  5, 1997"
3857,Long Island MacArthur,Islip,United States,ISP,KISP,40.79525,-73.100222,99,-5,A,"Islip, NY",243,245,248,248,4.069958847736625,8.457142857142857,7.0,28.0,"Tue, May 27, 1997","Fri, May  2, 1997"
3947,Ithaca Tompkins Regional,Ithaca,United States,ITH,KITH,42.491028,-76.458444,1099,-5,A,"Ithaca/Cortland, NY",111,113,114,114,3.720720720720721,7.769911504424781,9.0,14.0,"Thu, May  1, 1997","Wed, May  7, 1997"
4027,Jackson Hole Airport,Jacksn Hole,United States,JAC,KJAC,43.60733333,-110.73775,6451,-7,A,"Jackson, WY",93,93,95,95,3.086021505376344,6.838709677419355,8.0,24.0,"Sun, May 11, 1997","Sat, May 17, 1997"
3580,Jackson Evers International,Jackson,United States,JAN,KJAN,32.311167,-90.075889,346,-6,A,"Jackson/Vicksburg, MS",512,512,515,515,4.312500000000004,9.093749999999993,12.0,40.0,"Fri, May 23, 1997","Sat, May  3, 1997"
3712,Jacksonville International,Jacksonville,United States,JAX,KJAX,30.494056,-81.687861,30,-5,A,"Jacksonville, FL",1811,1815,1826,1826,4.29541689674213,9.574104683195593,17.0,70.0,"Sat, May 17, 1997","Tue, May 27, 1997"
3797,John F. Kennedy International,New York,United States,JFK,KJFK,40.639751,-73.778925,13,-5,A,"New York, NY",3234,3251,3266,3261,8.032467532467528,23.50815133804985,64.0,261.0,"Thu, May 22, 1997","Thu, May  1, 1997"
3492,Juneau International,Juneau,United States,JNU,PAJN,58.354972,-134.576278,21,-9,A,"Juneau, AK",344,343,347,346,2.8808139534883734,10.580174927113703,13.0,30.0,"Sun, May  4, 1997","Tue, May 27, 1997"
3514,Kona International At Keahole,Kona,United States,KOA,PHKO,19.738767,-156.045631,47,-10,N,"Kona, HI",62,62,62,62,3.4516129032258065,7.548387096774191,6.0,25.0,"Thu, May  1, 1997","Sat, May 31, 1997"
3808,Ketchikan International,Ketchikan,United States,KTN,PAKT,55.355556,-131.71375,88,-9,A,"Ketchikan, AK",227,226,228,228,3.3744493392070485,8.659292035398225,8.0,25.0,"Thu, May 29, 1997","Thu, May 22, 1997"
3544,Capital City,Lansing,United States,LAN,KLAN,42.7787,-84.587357,861,-5,A,"Lansing, MI",180,180,181,181,4.02222222222222,7.916666666666668,7.0,21.0,"Wed, May 14, 1997","Sat, May 17, 1997"
3877,McCarran International,Las Vegas,United States,LAS,KLAS,36.080056,-115.15225,2141,-8,A,"Las Vegas, NV",10321,10329,10386,10386,4.394244743726392,12.999419111240215,56.0,83.0,"Fri, May 30, 1997","Mon, May 19, 1997"
3484,Los Angeles International,Los Angeles,United States,LAX,KLAX,33.942536,-118.408075,126,-8,A,"Los Angeles, CA",15648,15643,15994,15986,7.985109918200404,14.685801956146518,62.0,205.0,"Fri, May 23, 1997","Tue, May 20, 1997"
3829,Lubbock Preston Smith International,Lubbock,United States,LBB,KLBB,33.663639,-101.822778,3282,-6,A,"Lubbock, TX",579,579,592,592,2.8307426597582053,7.055267702936097,7.0,17.0,"Mon, May 19, 1997","Thu, May  8, 1997"
4017,Blue Grass,Lexington KY,United States,LEX,KLEX,38.0365,-84.605889,979,-5,A,"Lexington, KY",364,363,367,367,4.2692307692307665,8.870523415977964,10.0,46.0,"Fri, May  2, 1997","Thu, May  1, 1997"
3493,Lafayette Regional,Lafayette,United States,LFT,KLFT,30.205278,-91.987611,43,-6,A,"Lafayette, LA",60,60,61,61,4.466666666666669,8.500000000000004,8.0,19.0,"Thu, May  8, 1997","Sat, May  3, 1997"
3697,LaGuardia Airport,New York,United States,LGA,KLGA,40.777245,-73.872608,22,-5,A,"New York, NY",8009,8026,8160,8168,6.070046198027229,21.03600797408421,49.0,244.0,"Thu, May  1, 1997","Thu, May  1, 1997"
3582,Long Beach,Long Beach,United States,LGB,KLGB,33.817722,-118.151611,60,-8,A,"Long Beach, CA",212,212,212,212,4.768867924528301,12.268867924528305,10.0,31.0,"Thu, May  8, 1997","Sun, May  4, 1997"
3660,Adams Field,Little Rock,United States,LIT,KLIT,34.729444,-92.224306,262,-6,A,"Little Rock, AR",1145,1146,1149,1150,4.151091703056763,8.696335078534045,20.0,43.0,"Mon, May 19, 1997","Fri, May 23, 1997"
3543,Lincoln,Lincoln,United States,LNK,KLNK,40.850971,-96.75925,1219,-6,A,"Lincoln, NE",237,237,240,240,3.3417721518987342,6.261603375527428,10.0,24.0,"Thu, May 15, 1997","Sat, May  3, 1997"
4044,LaCrosse Municipal,LaCrosse,United States,LSE,KLSE,43.878986,-91.256711,654,-6,A,"La Crosse, WI",91,91,91,91,3.5714285714285716,6.9010989010989015,8.0,14.0,"Tue, May  6, 1997","Sat, May 24, 1997"
6958,Greenbrier Valley Airport,Lewisburg,United States,LWB,KLWB,37.858333,-80.399444,2302,-5,U,"Lewisburg, WV",15,15,15,15,3.6666666666666665,4.533333333333333,6.0,7.0,"Sat, May 31, 1997","Sat, May 24, 1997"
3652,Midland International,Midland,United States,MAF,KMAF,31.942528,-102.201914,2871,-6,A,"Midland/Odessa, TX",543,544,547,548,2.305709023941071,6.59375,8.0,84.0,"Fri, May 30, 1997","Wed, May 28, 1997"
4128,MBS International,Saginaw,United States,MBS,KMBS,43.532913,-84.079647,668,-5,A,"Saginaw/Bay City/Midland, MI",344,341,349,348,3.5261627906976742,8.12903225806452,9.0,32.0,"Wed, May 14, 1997","Sun, May 18, 1997"
3458,Kansas City International,Kansas City,United States,MCI,KMCI,39.297606,-94.713905,1026,-6,A,"Kansas City, MO",4692,4699,4719,4722,4.382779198635966,9.889550968291092,26.0,93.0,"Wed, May 21, 1997","Thu, May 15, 1997"
3878,Orlando International,Orlando,United States,MCO,KMCO,28.429394,-81.308994,96,-5,A,"Orlando, FL",7733,7730,7786,7787,4.79412905728696,12.512677878395847,34.0,189.0,"Mon, May 12, 1997","Sun, May 18, 1997"
3542,Harrisburg International,Harrisburg,United States,MDT,KMDT,40.193494,-76.763403,310,-5,A,"Harrisburg, PA",633,635,642,643,4.101105845181674,9.845669291338579,15.0,53.0,"Fri, May  9, 1997","Sat, May 17, 1997"
3747,Chicago Midway International,Chicago,United States,MDW,KMDW,41.785972,-87.752417,620,-6,A,"Chicago, IL",3658,3666,3702,3698,4.040732640787321,9.115930169121683,53.0,129.0,"Wed, May  7, 1997","Sun, May 18, 1997"
3473,Memphis International,Memphis,United States,MEM,KMEM,35.042417,-89.976667,341,-6,A,"Memphis, TN",4241,4251,4293,4294,4.861353454373959,15.246294989414253,23.0,72.0,"Tue, May 13, 1997","Mon, May 19, 1997"
3826,McAllen Miller International,Mcallen,United States,MFE,KMFE,26.175833,-98.238611,107,-6,A,"Mission/McAllen/Edinburg, TX",298,298,299,299,3.8120805369127515,9.154362416107384,14.0,52.0,"Tue, May 20, 1997","Fri, May 16, 1997"
4101,Rogue Valley International Medford,Medford,United States,MFR,KMFR,42.374228,-122.8735,1335,-8,A,"Medford, OR",93,93,93,93,3.3333333333333335,6.053763440860215,7.0,22.0,"Sat, May  3, 1997","Sun, May  4, 1997"
4115,Montgomery Regional Airport ,MONTGOMERY,United States,MGM,KMGM,32.3006389,-86.3939722,221,-6,A,"Montgomery, AL",181,181,186,186,4.12154696132597,10.038674033149176,15.0,40.0,"Sat, May 24, 1997","Thu, May  1, 1997"
4011,Manchester Regional Airport,Manchester NH,United States,MHT,KMHT,42.932556,-71.435667,266,-5,A,"Manchester, NH",391,391,393,393,4.196930946291562,9.544757033248073,11.0,29.0,"Sat, May 31, 1997","Fri, May  2, 1997"
3576,Miami International,Miami,United States,MIA,KMIA,25.79325,-80.290556,8,-5,A,"Miami, FL",5327,5350,5392,5398,6.777172892810218,18.78411214953271,104.0,144.0,"Wed, May 28, 1997","Mon, May 19, 1997"
3717,General Mitchell International,Milwaukee,United States,MKE,KMKE,42.947222,-87.896583,723,-6,A,"Milwaukee, WI",1241,1237,1255,1255,4.041901692183715,10.54971705739693,17.0,80.0,"Thu, May 15, 1997","Mon, May  5, 1997"
3671,Melbourne International,Melbourne,United States,MLB,KMLB,28.102753,-80.645258,33,-5,A,"Melbourne, FL",244,244,248,248,3.5942622950819674,9.368852459016393,9.0,35.0,"Fri, May  9, 1997","Mon, May 12, 1997"
4072,Quad City International,Moline,United States,MLI,KMLI,41.448528,-90.507539,590,-6,A,"Moline, IL",137,137,138,139,3.5036496350364965,6.897810218978102,9.0,14.0,"Mon, May 19, 1997","Fri, May  2, 1997"
3732,Monroe Regional,Monroe,United States,MLU,KMLU,32.510864,-92.037689,79,-6,A,"Monroe, LA",186,186,186,186,4.25268817204301,8.801075268817202,10.0,21.0,"Sat, May  3, 1997","Tue, May 27, 1997"
3782,Mobile Regional,Mobile,United States,MOB,KMOB,30.691231,-88.242814,219,-6,A,"Mobile, AL",369,369,372,372,3.6720867208672088,9.005420054200533,20.0,31.0,"Sat, May 24, 1997","Thu, May  1, 1997"
3498,Minot International,Minot,United States,MOT,KMOT,48.259378,-101.280333,1716,-6,A,"Minot, ND",93,93,93,93,4.182795698924733,6.935483870967742,7.0,14.0,"Sat, May 24, 1997","Sat, May 24, 1997"
3948,Monterey Peninsula,Monterey,United States,MRY,KMRY,36.587,-121.842944,257,-8,A,"Monterey, CA",58,59,61,61,2.810344827586207,6.305084745762712,5.0,14.0,"Sat, May  3, 1997","Mon, May 12, 1997"
3459,Dane County Regional-Truax Field,Madison,United States,MSN,KMSN,43.139858,-89.337514,887,-6,A,"Madison, WI",356,356,357,357,4.042134831460674,9.82584269662921,7.0,41.0,"Tue, May 20, 1997","Mon, May  5, 1997"
4216,Missoula International,Missoula,United States,MSO,KMSO,46.916306,-114.090556,3205,-7,A,"Missoula, MT",154,155,155,155,4.181818181818181,9.53548387096774,10.0,20.0,"Mon, May  5, 1997","Thu, May  1, 1997"
3858,Minneapolis St. Paul International,Minneapolis,United States,MSP,KMSP,44.881956,-93.221767,841,-6,A,"Minneapolis, MN",11464,11492,11603,11604,5.590020935101189,15.422467803689523,51.0,182.0,"Wed, May 28, 1997","Sun, May 18, 1997"
3861,Louis Armstrong New Orleans International,New Orleans,United States,MSY,KMSY,29.993389,-90.258028,4,-6,A,"New Orleans, LA",4004,4017,4042,4042,3.5397102897102943,9.585511575802835,30.0,347.0,"Mon, May 12, 1997","Sat, May 24, 1997"
3515,Myrtle Beach International,Myrtle Beach,United States,MYR,KMYR,33.67975,-78.928333,25,-5,A,"Myrtle Beach, SC",196,196,196,196,4.045918367346935,7.061224489795919,20.0,32.0,"Sat, May  3, 1997","Sat, May  3, 1997"
3453,Metropolitan Oakland International,Oakland,United States,OAK,KOAK,37.721278,-122.220722,9,-8,A,"Oakland, CA",4937,4941,5017,5016,3.8659104719465227,8.50293462861769,25.0,54.0,"Thu, May 22, 1997","Thu, May 15, 1997"
3456,Kahului,Kahului,United States,OGG,PHOG,20.89865,-156.430458,54,-10,N,"Kahului, HI",243,244,247,248,5.263374485596706,10.356557377049173,10.0,31.0,"Sun, May 25, 1997","Tue, May 20, 1997"
3863,Will Rogers World,Oklahoma City,United States,OKC,KOKC,35.393089,-97.600733,1295,-6,A,"Oklahoma City, OK",1765,1766,1769,1769,3.6611898016997166,8.743488108720276,29.0,71.0,"Mon, May 19, 1997","Mon, May 19, 1997"
3454,Eppley Airfield,Omaha,United States,OMA,KOMA,41.303167,-95.894069,984,-6,A,"Omaha, NE",1508,1508,1513,1513,3.38262599469496,9.127984084880644,15.0,37.0,"Mon, May 19, 1997","Sun, May 18, 1997"
3615,Nome,Nome,United States,OME,PAOM,64.512203,-165.445247,37,-9,A,"Nome, AK",81,81,83,83,2.5432098765432096,7.296296296296297,6.0,24.0,"Wed, May 28, 1997","Sat, May 17, 1997"
3734,Ontario International,Ontario,United States,ONT,KONT,34.056,-117.601194,944,-8,A,"Ontario, CA",3065,3062,3104,3103,2.7324632952691674,10.063030698889593,23.0,45.0,"Sat, May  3, 1997","Fri, May 23, 1997"
3830,Chicago O'Hare International,Chicago,United States,ORD,KORD,41.978603,-87.904842,668,-6,A,"Chicago, IL",24703,24852,25222,25221,6.615390843217421,15.579470465153715,59.0,235.0,"Sun, May 18, 1997","Thu, May  1, 1997"
3611,Norfolk International,Norfolk,United States,ORF,KORF,36.894611,-76.201222,26,-5,A,"Norfolk, VA",1407,1410,1421,1421,3.4371002132196162,8.915602836879431,19.0,48.0,"Sun, May  4, 1997","Fri, May 23, 1997"
3693,Ralph WienMemorial,Kotzebue,United States,OTZ,PAOT,66.884678,-162.59855,11,-9,A,"Kotzebue, AK",80,80,83,83,2.8375,7.0125,11.0,27.0,"Fri, May  2, 1997","Thu, May  1, 1997"
3722,Palm Beach International,West Palm Beach,United States,PBI,KPBI,26.683161,-80.095589,19,-5,A,"West Palm Beach/Palm Beach, FL",1796,1794,1814,1816,4.429844097995539,11.31549609810479,45.0,42.0,"Wed, May 21, 1997","Sat, May  3, 1997"
3720,Portland International,Portland,United States,PDX,KPDX,45.588722,-122.5975,30,-8,A,"Portland, OR",4627,4632,4654,4653,3.7186081694402437,10.602115716753016,55.0,53.0,"Wed, May 14, 1997","Fri, May  2, 1997"
3752,Philadelphia International,Philadelphia,United States,PHL,KPHL,39.871944,-75.241139,36,-5,A,"Philadelphia, PA",9016,9041,9188,9184,5.674134871339826,16.23017365335689,74.0,257.0,"Thu, May  1, 1997","Sun, May 18, 1997"
3462,Phoenix Sky Harbor International,Phoenix,United States,PHX,KPHX,33.434278,-112.011583,1135,-7,N,"Phoenix, AZ",13878,13939,14113,14120,4.414396887159506,13.098070162852444,35.0,125.0,"Sun, May 18, 1997","Fri, May  2, 1997"
3570,Pittsburgh International,Pittsburgh (pennsylva),United States,PIT,KPIT,40.491467,-80.232872,1204,-5,A,"Pittsburgh, PA",10043,10067,10197,10187,5.712436522951308,13.16121982715803,36.0,178.0,"Thu, May  8, 1997","Thu, May  1, 1997"
3564,Pensacola Regional,Pensacola,United States,PNS,KPNS,30.473425,-87.186611,121,-6,A,"Pensacola, FL",486,484,491,491,4.020576131687246,8.60123966942148,12.0,48.0,"Wed, May 21, 1997","Sat, May 31, 1997"
6133,Tri Cities Airport,Pasco,United States,PSC,PSC,46.2647,-119.119,410,-8,A,"Pasco/Kennewick/Richland, WA",122,122,124,124,3.7295081967213113,7.606557377049183,6.0,22.0,"Tue, May  6, 1997","Sat, May  3, 1997"
4147,Petersburg James A. Johnson,Petersburg,United States,PSG,PAPG,56.801667,-132.945278,105,-9,A,"Petersburg, AK",60,62,62,62,2.2333333333333334,5.516129032258065,4.0,10.0,"Sun, May 11, 1997","Mon, May 12, 1997"
3839,Palm Springs International,Palm Springs,United States,PSP,KPSP,33.829667,-116.506694,477,-8,A,"Palm Springs, CA",266,265,266,266,3.8796992481203016,9.973584905660374,11.0,30.0,"Fri, May 16, 1997","Sat, May  3, 1997"
3641,Theodore Francis Green State,Providence,United States,PVD,KPVD,41.732581,-71.420383,55,-5,A,"Providence, RI",1743,1744,1751,1751,4.440045897877229,10.052752293577973,34.0,220.0,"Thu, May  1, 1997","Sun, May 18, 1997"
3862,Portland International Jetport,Portland,United States,PWM,KPWM,43.646161,-70.309281,77,-5,A,"Portland, ME",526,527,530,529,3.494296577946768,8.944971537001889,14.0,109.0,"Thu, May 22, 1997","Tue, May  6, 1997"
4087,Rapid City Regional Airport,Rapid City,United States,RAP,KRAP,44.045278,-103.057222,3204,-7,A,"Rapid City, SD",90,90,91,91,4.0777777777777775,7.988888888888888,6.0,25.0,"Fri, May  2, 1997","Tue, May 13, 1997"
3626,Raleigh Durham International,Raleigh-durham,United States,RDU,KRDU,35.877639,-78.787472,435,-5,A,"Raleigh/Durham, NC",2203,2207,2219,2221,3.772128915115751,10.426370638876309,33.0,148.0,"Mon, May 26, 1997","Mon, May 19, 1997"
3608,Richmond International,Richmond,United States,RIC,KRIC,37.505167,-77.319667,167,-5,A,"Richmond, VA",1301,1298,1321,1322,4.824750192159873,11.113251155624043,15.0,72.0,"Fri, May  2, 1997","Wed, May  7, 1997"
3807,Reno Tahoe International,Reno,United States,RNO,KRNO,39.499108,-119.768108,4415,-8,A,"Reno, NV",2311,2310,2325,2325,4.226741670272616,9.387445887445875,30.0,74.0,"Thu, May 15, 1997","Sat, May 10, 1997"
4016,Roanoke Regional,Roanoke VA,United States,ROA,KROA,37.325472,-79.975417,1175,-5,A,"Roanoke, VA",246,246,248,248,3.8902439024390243,7.439024390243903,9.0,24.0,"Fri, May 23, 1997","Tue, May 27, 1997"
3622,Greater Rochester International,Rochester,United States,ROC,KROC,43.118866,-77.672389,559,-5,A,"Rochester, NY",1257,1258,1271,1272,4.942720763723145,8.302861685214639,19.0,68.0,"Fri, May 23, 1997","Sun, May 25, 1997"
4048,Rochester,Rochester,United States,RST,KRST,43.908283,-92.500014,1317,-6,A,"Rochester, MN",293,293,294,295,3.63481228668942,8.139931740614335,8.0,49.0,"Wed, May 21, 1997","Wed, May  7, 1997"
3793,Southwest Florida International,Fort Myers,United States,RSW,KRSW,26.536167,-81.755167,30,-5,A,"Fort Myers, FL",1250,1248,1251,1254,3.7831999999999986,11.560897435897441,38.0,46.0,"Sat, May  3, 1997","Tue, May 27, 1997"
3731,San Diego International,San Diego,United States,SAN,KSAN,32.733556,-117.189667,17,-8,A,"San Diego, CA",5658,5653,5701,5698,2.826086956521738,11.132496019812507,25.0,64.0,"Sun, May 11, 1997","Fri, May 30, 1997"
3621,San Antonio International,San Antonio,United States,SAT,KSAT,29.533694,-98.469778,809,-6,A,"San Antonio, TX",3260,3257,3281,3279,3.265030674846627,9.208474055879629,83.0,123.0,"Tue, May 27, 1997","Fri, May  2, 1997"
3613,Savannah Hilton Head International,Savannah,United States,SAV,KSAV,32.127583,-81.202139,51,-5,A,"Savannah, GA",463,460,466,465,4.993520518358541,10.032608695652181,14.0,106.0,"Wed, May 28, 1997","Thu, May  8, 1997"
3949,Santa Barbara Municipal,Santa Barbara,United States,SBA,KSBA,34.426211,-119.840372,10,-8,A,"Santa Barbara, CA",116,116,116,116,2.603448275862068,5.637931034482759,6.0,13.0,"Wed, May 14, 1997","Fri, May 23, 1997"
4359,South Bend Regional,South Bend,United States,SBN,KSBN,41.708661,-86.31725,799,-5,A,"South Bend, IN",290,288,294,295,4.027586206896553,7.784722222222225,29.0,30.0,"Thu, May 22, 1997","Fri, May 30, 1997"
3620,Deadhorse,Deadhorse,United States,SCC,PASC,70.19475,-148.465167,64,-9,A,"Deadhorse, AK",29,29,31,31,2.5172413793103448,8.72413793103448,13.0,21.0,"Tue, May 13, 1997","Wed, May 21, 1997"
4014,Louisville International Airport,Louisville,United States,SDF,KSDF,38.1740858,-85.7364989,501,-5,A,"Louisville, KY",2135,2134,2150,2150,4.726932084309144,9.119493908153704,24.0,141.0,"Tue, May 27, 1997","Thu, May  1, 1997"
3577,Seattle Tacoma International,Seattle,United States,SEA,KSEA,47.449,-122.309306,433,-8,A,"Seattle, WA",8087,8096,8165,8162,4.219859033015965,12.713191699604735,38.0,103.0,"Fri, May 16, 1997","Fri, May  2, 1997"
3469,San Francisco International,San Francisco,United States,SFO,KSFO,37.618972,-122.374889,13,-8,A,"San Francisco, CA",11425,11434,11593,11596,5.064682713347902,16.240423298932992,47.0,154.0,"Sat, May 10, 1997","Fri, May 16, 1997"
4348,Springfield Branson National,Springfield,United States,SGF,KSGF,37.245667,-93.388639,1268,-6,A,"Springfield, MO",150,150,150,150,4.359999999999999,10.293333333333335,9.0,24.0,"Thu, May 29, 1997","Mon, May 19, 1997"
3609,Shreveport Regional,Shreveport,United States,SHV,KSHV,32.446629,-93.8256,258,-6,A,"Shreveport, LA",328,329,330,330,4.512195121951218,8.279635258358653,24.0,45.0,"Sun, May  4, 1997","Fri, May 30, 1997"
3856,Sitka Rocky Gutierrez,Sitka,United States,SIT,PASI,57.047138,-135.361611,21,-9,A,"Sitka, AK",112,113,114,114,2.892857142857143,8.238938053097343,6.0,22.0,"Fri, May  2, 1997","Sun, May 25, 1997"
3748,Norman Y. Mineta San Jose International,San Jose,United States,SJC,KSJC,37.3626,-121.929022,62,-8,A,"San Jose, CA",3941,3934,3969,3965,3.506977924384672,11.060498220640557,23.0,72.0,"Sat, May 10, 1997","Thu, May 15, 1997"
3536,Salt Lake City International,Salt Lake City,United States,SLC,KSLC,40.788389,-111.977772,4227,-7,A,"Salt Lake City, UT",7387,7393,7442,7443,5.0032489508596125,14.925605302312995,47.0,86.0,"Sat, May 24, 1997","Fri, May  2, 1997"
3817,Sacramento International,Sacramento,United States,SMF,KSMF,38.695417,-121.590778,27,-8,A,"Sacramento, CA",3141,3137,3152,3149,4.2078955746577495,8.84666879183936,28.0,31.0,"Fri, May 23, 1997","Fri, May 16, 1997"
3867,John Wayne Airport Orange County,Santa Ana,United States,SNA,KSNA,33.675667,-117.868222,56,-8,A,"Santa Ana, CA",3023,3041,3069,3080,5.473701620906386,12.205853337717867,46.0,140.0,"Sun, May  4, 1997","Fri, May  2, 1997"
4067,Sarasota Bradenton International,Sarasota,United States,SRQ,KSRQ,27.395444,-82.554389,30,-5,A,"Sarasota/Bradenton, FL",636,636,639,640,4.056603773584901,9.644654088050304,23.0,48.0,"Fri, May  2, 1997","Sat, May  3, 1997"
3678,Lambert St. Louis International,St. Louis,United States,STL,KSTL,38.748697,-90.370028,618,-6,A,"St. Louis, MO",14831,14851,14985,14981,5.6877486346166695,17.13467106592134,46.0,136.0,"Sun, May 25, 1997","Fri, May  2, 1997"
3753,Sioux Gateway-Colonel Bud Day Field,Sioux City,United States,SUX,KSUX,42.402603,-96.384367,1098,-6,A,"Sioux City, IA",56,56,56,57,3.7857142857142856,7.178571428571429,9.0,17.0,"Sun, May 11, 1997","Wed, May 28, 1997"
3661,Stewart International,Newburgh,United States,SWF,KSWF,41.504094,-74.104839,491,-5,A,"Newburgh/Poughkeepsie, NY",342,341,347,347,5.198830409356726,10.442815249266863,17.0,79.0,"Sun, May 11, 1997","Mon, May  5, 1997"
3745,Syracuse Hancock International,Syracuse,United States,SYR,KSYR,43.111187,-76.106311,421,-5,A,"Syracuse, NY",962,960,971,971,3.9158004158004216,8.749999999999996,11.0,45.0,"Thu, May 29, 1997","Fri, May  2, 1997"
3698,Tallahassee Regional,Tallahassee,United States,TLH,KTLH,30.396528,-84.350333,81,-5,A,"Tallahassee, FL",212,212,217,217,3.9622641509433962,8.34433962264151,15.0,22.0,"Fri, May 16, 1997","Thu, May 29, 1997"
4040,Toledo,Toledo,United States,TOL,KTOL,41.586806,-83.807833,684,-5,A,"Toledo, OH",204,204,207,207,3.5392156862745097,8.049019607843132,7.0,22.0,"Sun, May  4, 1997","Wed, May  7, 1997"
3646,Tampa International,Tampa,United States,TPA,KTPA,27.975472,-82.53325,26,-5,A,"Tampa, FL",4541,4543,4570,4572,4.690156353226164,12.423508694695157,26.0,129.0,"Fri, May  9, 1997","Fri, May  2, 1997"
4116,Tri-Cities Regional Airport,BRISTOL,United States,TRI,KTRI,36.4752222,-82.4074167,1519,-5,A,"Bristol/Johnson City/Kingsport, TN",140,140,145,145,3.842857142857143,7.257142857142856,6.0,33.0,"Thu, May 15, 1997","Tue, May 27, 1997"
3855,Tulsa International,Tulsa,United States,TUL,KTUL,36.198389,-95.888111,677,-6,A,"Tulsa, OK",1573,1576,1586,1587,3.2943420216147477,9.145304568527909,30.0,78.0,"Wed, May 28, 1997","Wed, May 28, 1997"
3636,Tucson International,Tucson,United States,TUS,KTUS,32.116083,-110.941028,2643,-7,N,"Tucson, AZ",1574,1572,1585,1584,3.7935196950444694,10.433206106870228,26.0,112.0,"Thu, May 15, 1997","Thu, May 15, 1997"
4023,Cherry Capital Airport,Traverse City,United States,TVC,KTVC,44.741445,-85.582235,624,-5,A,"Traverse City, MI",87,88,87,88,2.6206896551724133,7.829545454545454,9.0,16.0,"Sat, May 31, 1997","Tue, May 27, 1997"
3676,McGhee Tyson,Knoxville,United States,TYS,KTYS,35.810972,-83.994028,981,-5,A,"Knoxville, TN",728,722,737,737,3.4560439560439566,9.585872576177279,12.0,71.0,"Tue, May 20, 1997","Wed, May 28, 1997"
3873,Eglin AFB,Valparaiso,United States,VPS,KVPS,30.48325,-86.5254,87,-6,A,"Valparaiso, FL",93,92,93,93,7.311827956989247,9.576086956521744,14.0,23.0,"Wed, May 14, 1997","Sun, May  4, 1997"
5969,Wrangell Airport,Wrangell,United States,WRG,PAWG,56.4843,-132.37,44,-9,A,"Wrangell, AK",60,60,62,62,2.35,5.883333333333334,4.0,13.0,"Sat, May  3, 1997","Tue, May  6, 1997"
6803,Yakutat,Yakutat,United States,YAK,PAYA,59.3012,-139.3937,33,-9,A,"Yakutat, AK",62,62,62,62,2.935483870967742,6.564516129032258,6.0,17.0,"Mon, May 26, 1997","Tue, May 13, 1997"
