airport_id,name,city,country,iata_faa,iaco,latitude,longitude,altitude,zone,dst,city_state,avg_able_landings,avg_able_takeoffs,total_landings,total_takeoffs,avg_taxi_in,avg_taxi_out,longest_taxi_in,longest_taxi_out,lng_tx_in_date,lng_tx_out_date
4355,Lehigh Valley International,Allentown,United States,ABE,KABE,40.652083,-75.440806,393,-5,A,"Allentown/Bethlehem/Easton, PA",536,535,544,544,4.522388059701496,10.648598130841124,13.0,62.0,"Tue, Nov 18, 1997","Fri, Nov 14, 1997"
4019,Albuquerque International Sunport,Albuquerque,United States,ABQ,KABQ,35.0402222,-106.6091944,5355,-7,A,"Albuquerque, NM",2999,2993,3023,3019,4.3734578192731135,9.7707985299031,26.0,77.0,"Sun, Nov 16, 1997","Sun, Nov 30, 1997"
3531,Kodiak,Kodiak,United States,ADQ,PADQ,57.749967,-152.493856,78,-9,A,"Kodiak, AK",56,56,58,58,2.4464285714285707,7.660714285714286,5.0,15.0,"Sun, Nov  2, 1997","Sat, Nov 15, 1997"
3658,Augusta Regional At Bush Field,Bush Field,United States,AGS,KAGS,33.369944,-81.9645,144,-5,A,"Augusta, GA",173,173,177,177,4.7167630057803445,11.138728323699423,8.0,33.0,"Sat, Nov 15, 1997","Fri, Nov  7, 1997"
3794,King Salmon,King Salmon,United States,AKN,PAKN,58.676778,-156.649278,68,-9,A,"King Salmon, AK",17,17,17,17,3.0588235294117645,5.823529411764706,4.0,12.0,"Sun, Nov  2, 1997","Sat, Nov 29, 1997"
3864,Albany International,Albany,United States,ALB,KALB,42.748267,-73.801692,285,-5,A,"Albany, NY",882,878,903,904,4.081632653061227,10.790432801822307,13.0,130.0,"Fri, Nov 14, 1997","Fri, Nov 14, 1997"
3840,Rick Husband Amarillo International,Amarillo,United States,AMA,KAMA,35.219369,-101.705931,3607,-6,A,"Amarillo, TX",375,376,387,387,3.461333333333333,7.417553191489362,8.0,22.0,"Mon, Nov  3, 1997","Sat, Nov 15, 1997"
3774,Ted Stevens Anchorage International,Anchorage,United States,ANC,PANC,61.174361,-149.996361,152,-9,A,"Anchorage, AK",1306,1314,1350,1350,3.816998468606433,13.29984779299849,25.0,59.0,"Mon, Nov 10, 1997","Sun, Nov 16, 1997"
3682,Hartsfield Jackson Atlanta International,Atlanta,United States,ATL,KATL,33.636719,-84.428067,1026,-5,A,"Atlanta, GA",20360,20478,20726,20732,7.533447937131628,18.055132337142332,387.0,136.0,"Fri, Nov 28, 1997","Fri, Nov 21, 1997"
3673,Austin Bergstrom International,Austin,United States,AUS,KAUS,30.194528,-97.669889,542,-6,A,"Austin, TX",3018,3024,3058,3062,3.6832339297548047,9.626653439153444,29.0,255.0,"Wed, Nov 19, 1997","Wed, Nov 19, 1997"
4007,Asheville Regional Airport,Asheville,United States,AVL,KAVL,35.436194,-82.541806,2165,-5,A,"Asheville, NC",171,171,172,172,3.1169590643274856,7.795321637426901,7.0,21.0,"Tue, Nov  4, 1997","Mon, Nov  3, 1997"
4286,Wilkes Barre Scranton International,Scranton,United States,AVP,KAVP,41.338478,-75.723403,962,-5,A,"Scranton/Wilkes-Barre, PA",148,147,149,149,3.581081081081081,6.700680272108843,7.0,24.0,"Sun, Nov  9, 1997","Fri, Nov 14, 1997"
4039,Kalamazoo,Kalamazoo,United States,AZO,KAZO,42.234875,-85.552058,874,-5,A,"Kalamazoo, MI",127,127,129,129,4.433070866141735,8.921259842519685,17.0,35.0,"Sat, Nov 29, 1997","Sat, Nov 15, 1997"
3825,Bradley International,Windsor Locks,United States,BDL,KBDL,41.938889,-72.683222,173,-5,A,"Hartford, CT",2137,2128,2175,2174,4.583060364997655,12.599154135338347,37.0,189.0,"Fri, Nov 14, 1997","Fri, Nov 14, 1997"
3599,Bethel,Bethel,United States,BET,PABE,60.779778,-161.838,121,-9,A,"Bethel, AK",73,73,77,77,2.8904109589041096,8.726027397260275,5.0,26.0,"Sat, Nov 22, 1997","Tue, Nov  4, 1997"
3558,Meadows Field,Bakersfield,United States,BFL,KBFL,35.433598,-119.05677,507,-8,A,"Bakersfield, CA",29,29,29,29,6.793103448275862,10.551724137931034,10.0,117.0,"Sat, Nov  1, 1997","Sat, Nov 29, 1997"
4129,Greater Binghamton-Edwin A. Link Field,Binghamton,United States,BGM,KBGM,42.208689,-75.979839,1636,-5,A,"Binghamton, NY",80,80,84,84,3.9749999999999988,7.962500000000001,15.0,30.0,"Wed, Nov 19, 1997","Sun, Nov 16, 1997"
3463,Bangor International,Bangor,United States,BGR,KBGR,44.807444,-68.828139,192,-5,A,"Bangor, ME",88,88,90,90,5.1477272727272725,11.340909090909093,10.0,39.0,"Sun, Nov 23, 1997","Fri, Nov 14, 1997"
3811,Birmingham International,Birmingham,United States,BHM,KBHM,33.562942,-86.75355,644,-6,A,"Birmingham, AL",1525,1527,1536,1535,3.3442622950819665,9.28094302554029,36.0,59.0,"Sat, Nov 29, 1997","Wed, Nov 12, 1997"
4021,Billings Logan International Airport,Billings,United States,BIL,KBIL,45.80921,-108.537654,3652,-7,A,"Billings, MT",229,228,236,236,3.493449781659389,10.881578947368423,13.0,61.0,"Sat, Nov  8, 1997","Sat, Nov  8, 1997"
4083,Bismarck Municipal Airport,Bismarck,United States,BIS,KBIS,46.775842,-100.757931,1661,-6,A,"Bismarck/Mandan, ND",115,115,118,118,3.7130434782608694,7.843478260869565,7.0,29.0,"Sun, Nov 16, 1997","Sat, Nov 22, 1997"
3690,Nashville International,Nashville,United States,BNA,KBNA,36.124472,-86.678194,599,-6,A,"Nashville, TN",4046,4054,4085,4085,4.9631735046959955,10.69585594474593,35.0,125.0,"Thu, Nov 13, 1997","Fri, Nov 28, 1997"
3495,Boise Air Terminal,Boise,United States,BOI,KBOI,43.564361,-116.222861,2871,-7,A,"Boise, ID",918,917,924,924,2.895424836601307,8.362050163576884,14.0,47.0,"Sun, Nov 30, 1997","Thu, Nov 13, 1997"
3448,General Edward Lawrence Logan International,Boston,United States,BOS,KBOS,42.364347,-71.005181,19,-5,A,"Boston, MA",7528,7536,7853,7851,7.112513283740705,16.998407643312074,73.0,137.0,"Tue, Nov 11, 1997","Fri, Nov 14, 1997"
3738,Brownsville South Padre Island International,Brownsville,United States,BRO,KBRO,25.906833,-97.425861,22,-6,A,"Brownsville, TX",29,29,29,29,4.827586206896552,8.413793103448274,11.0,16.0,"Thu, Nov 13, 1997","Wed, Nov 19, 1997"
3571,Wiley Post Will Rogers Memorial,Barrow,United States,BRW,PABR,71.285446,-156.766003,44,-9,A,"Barrow, AK",62,62,66,66,3.064516129032258,6.725806451612903,5.0,16.0,"Sat, Nov  1, 1997","Thu, Nov  6, 1997"
3846,Baton Rouge Metro-Ryan Field,Baton Rouge,United States,BTR,KBTR,30.533167,-91.149639,70,-6,A,"Baton Rouge, LA",377,378,382,382,4.230769230769236,9.256613756613756,13.0,36.0,"Fri, Nov 28, 1997","Sun, Nov 30, 1997"
3711,Burlington International,Burlington,United States,BTV,KBTV,44.471861,-73.153278,335,-5,A,"Burlington, VT",196,200,208,208,3.622448979591837,8.694999999999997,7.0,27.0,"Sun, Nov  2, 1997","Thu, Nov 27, 1997"
3820,Buffalo Niagara International,Buffalo,United States,BUF,KBUF,42.940525,-78.732167,724,-5,A,"Buffalo, NY",1390,1390,1423,1422,3.7553956834532323,10.778417266187038,24.0,80.0,"Sun, Nov  2, 1997","Sat, Nov 22, 1997"
3644,Bob Hope,Burbank,United States,BUR,KBUR,34.200667,-118.358667,778,-8,A,"Burbank, CA",2237,2237,2270,2270,2.1381314260169897,9.54626732230668,22.0,32.0,"Wed, Nov 26, 1997","Wed, Nov 26, 1997"
3849,Baltimore Washington International,Baltimore,United States,BWI,KBWI,39.175361,-76.668333,146,-5,A,"Baltimore, MD",5260,5257,5305,5302,4.563117870722444,10.85086551264979,37.0,83.0,"Wed, Nov 19, 1997","Fri, Nov 14, 1997"
4020,Gallatin Field,Bozeman,United States,BZN,KBZN,45.777643,-111.160151,4500,-7,A,"Bozeman, MT",145,144,149,149,4.041379310344825,10.375,15.0,45.0,"Sat, Nov 29, 1997","Tue, Nov 25, 1997"
3561,Columbia Metropolitan,Colombia,United States,CAE,KCAE,33.938833,-81.119528,236,-5,A,"Columbia, SC",477,475,483,483,4.381551362683429,11.23368421052632,16.0,60.0,"Mon, Nov 17, 1997","Wed, Nov 12, 1997"
4112,Akron Canton Regional Airport,Akron,United States,CAK,KCAK,40.9160833,-81.4421944,1228,-5,A,"Akron, OH",84,86,88,88,5.2023809523809526,7.779069767441863,66.0,20.0,"Sun, Nov  2, 1997","Thu, Nov 13, 1997"
3610,Merle K. Mudhole Smith,Cordova,United States,CDV,PACV,60.491778,-145.477556,48,-9,A,"Cordova, AK",56,56,58,58,2.839285714285714,5.892857142857143,6.0,12.0,"Wed, Nov 12, 1997","Wed, Nov 12, 1997"
3578,Lovell Field,Chattanooga,United States,CHA,KCHA,35.035278,-85.203808,683,-5,A,"Chattanooga, TN",103,102,107,107,3.766990291262136,6.068627450980391,8.0,12.0,"Tue, Nov 18, 1997","Tue, Nov 11, 1997"
3806,Charleston AFB International,Charleston,United States,CHS,KCHS,32.898647,-80.040528,45,-5,A,"Charleston, SC",583,584,588,588,5.557461406518013,9.12157534246576,28.0,25.0,"Sun, Nov  2, 1997","Sat, Nov 29, 1997"
4043,Cedar Rapids,Cedar Rapids,United States,CID,KCID,41.884694,-91.710806,869,-6,A,"Cedar Rapids/Iowa City, IA",444,445,455,456,4.195945945945949,8.604494382022478,11.0,62.0,"Sun, Nov 23, 1997","Sun, Nov 30, 1997"
3486,Cleveland Hopkins International,Cleveland,United States,CLE,KCLE,41.411689,-81.849794,791,-5,A,"Cleveland, OH",4875,4885,4954,4953,4.683282051282056,15.561719549641778,25.0,112.0,"Wed, Nov 12, 1997","Sat, Nov 29, 1997"
3876,Charlotte Douglas International,Charlotte,United States,CLT,KCLT,35.214,-80.943139,748,-5,A,"Charlotte, NC",10020,10058,10163,10164,5.071457085828338,14.001491350169035,26.0,110.0,"Sun, Nov 16, 1997","Thu, Nov  6, 1997"
3759,Port Columbus International,Columbus,United States,CMH,KCMH,39.997972,-82.891889,815,-5,A,"Columbus, OH",3203,3212,3267,3267,4.623477989384946,10.969800747197997,39.0,105.0,"Mon, Nov 17, 1997","Wed, Nov  5, 1997"
3819,City Of Colorado Springs Municipal,Colorado Springs,United States,COS,KCOS,38.805805,-104.700778,6187,-7,A,"Colorado Springs, CO",1069,1071,1123,1122,6.078578110383537,14.92436974789916,30.0,155.0,"Thu, Nov 20, 1997","Mon, Nov 10, 1997"
3744,Corpus Christi International,Corpus Christi,United States,CRP,KCRP,27.770361,-97.501222,44,-6,A,"Corpus Christi, TX",254,255,256,256,3.0196850393700787,7.196078431372547,15.0,20.0,"Tue, Nov  4, 1997","Tue, Nov 18, 1997"
4285,Yeager,Charleston,United States,CRW,KCRW,38.373147,-81.593189,981,-5,A,"Charleston/Dunbar, WV",132,133,136,136,2.75,6.330827067669173,6.0,15.0,"Thu, Nov 13, 1997","Tue, Nov 18, 1997"
3488,Cincinnati Northern Kentucky International,Cincinnati,United States,CVG,KCVG,39.048836,-84.667822,896,-5,A,"Cincinnati, OH",6617,6599,6743,6741,6.117575940758655,15.999848461888138,203.0,140.0,"Wed, Nov 19, 1997","Sat, Nov 29, 1997"
3950,Daytona Beach International,Daytona Beach,United States,DAB,KDAB,29.179917,-81.058056,34,-5,A,"Daytona Beach, FL",260,259,265,265,3.8076923076923075,11.06949806949807,10.0,55.0,"Sun, Nov 16, 1997","Fri, Nov 21, 1997"
3502,Dallas Love Field,Dallas,United States,DAL,KDAL,32.847111,-96.851778,487,-6,A,"Dallas, TX",3671,3675,3783,3783,2.6205393625715083,7.345306122448979,29.0,79.0,"Mon, Nov  3, 1997","Fri, Nov 28, 1997"
3627,James M. Cox Dayton International,Dayton,United States,DAY,KDAY,39.902375,-84.219375,1009,-5,A,"Dayton, OH",875,875,887,886,4.9531428571428595,11.708571428571423,26.0,70.0,"Sun, Nov 16, 1997","Thu, Nov 13, 1997"
3520,Ronald Reagan Washington National,Washington,United States,DCA,KDCA,38.852083,-77.037722,15,-5,A,"Washington, DC",6649,6654,6799,6803,5.375996390434644,15.032010820559053,54.0,176.0,"Tue, Nov 18, 1997","Fri, Nov 21, 1997"
3751,Denver International,Denver,United States,DEN,KDEN,39.861656,-104.673178,5431,-7,A,"Denver, CO",10610,10606,10764,10758,6.892836946277116,14.699981142749381,57.0,114.0,"Sun, Nov  9, 1997","Wed, Nov 26, 1997"
3670,Dallas Fort Worth International,Dallas-fort Worth,United States,DFW,KDFW,32.896828,-97.037997,607,-6,A,"Dallas/Fort Worth, TX",19855,19882,20196,20185,9.983580961974294,17.634744995473216,61.0,156.0,"Wed, Nov 12, 1997","Sat, Nov 29, 1997"
3460,Dillingham,Dillingham,United States,DLG,PADL,59.044667,-158.5055,74,-9,A,"Dillingham, AK",17,17,17,17,2.823529411764706,7.705882352941177,4.0,19.0,"Sat, Nov  8, 1997","Thu, Nov 13, 1997"
3598,Duluth International,Duluth,United States,DLH,KDLH,46.842091,-92.193649,1428,-6,A,"Duluth, MN",84,84,87,87,4.535714285714286,8.749999999999998,10.0,53.0,"Sun, Nov  2, 1997","Mon, Nov  3, 1997"
3729,Des Moines International,Des Moines,United States,DSM,KDSM,41.533972,-93.663083,958,-6,A,"Des Moines, IA",581,578,587,587,4.781411359724612,9.31487889273356,11.0,36.0,"Wed, Nov  5, 1997","Tue, Nov  4, 1997"
3645,Detroit Metro Wayne County,Detroit,United States,DTW,KDTW,42.212444,-83.353389,645,-5,A,"Detroit, MI",12317,12367,12584,12582,9.21734188519934,17.54823320126145,86.0,164.0,"Sun, Nov 16, 1997","Sun, Nov 30, 1997"
3860,Unalaska,Unalaska,United States,DUT,PADU,53.900139,-166.5435,22,-9,A,"Unalaska, AK",43,43,58,58,2.4651162790697674,7.1395348837209305,5.0,13.0,"Fri, Nov 28, 1997","Sun, Nov 16, 1997"
4250,Eagle County Regional,Vail,United States,EGE,KEGE,39.642556,-106.917694,6540,-7,A,"Eagle, CO",10,10,10,10,4.7,13.4,6.0,23.0,"Thu, Nov 27, 1997","Wed, Nov 26, 1997"
3946,Elmira Corning Regional,Elmira,United States,ELM,KELM,42.159889,-76.891611,954,-5,A,"Elmira/Corning, NY",103,105,108,108,4.038834951456308,6.580952380952381,12.0,18.0,"Fri, Nov 14, 1997","Wed, Nov 12, 1997"
3559,El Paso International,El Paso,United States,ELP,KELP,31.80725,-106.377583,3958,-7,A,"El Paso, TX",2034,2031,2059,2059,2.753687315634221,8.09305760709011,26.0,76.0,"Tue, Nov 18, 1997","Sat, Nov 29, 1997"
4276,Erie International-Tom Ridge Field,Erie,United States,ERI,KERI,42.082022,-80.176217,733,-5,A,"Erie, PA",112,113,115,115,3.5535714285714284,6.017699115044247,11.0,13.0,"Sat, Nov 29, 1997","Sun, Nov 30, 1997"
4099,Mahlon Sweet Field,Eugene,United States,EUG,KEUG,44.124583,-123.211972,374,-8,A,"Eugene, OR",204,205,206,206,2.8235294117647047,9.5170731707317,6.0,34.0,"Mon, Nov  3, 1997","Sun, Nov 30, 1997"
3494,Newark Liberty International,Newark,United States,EWR,KEWR,40.6925,-74.168667,18,-5,A,"Newark, NJ",9268,9302,9512,9507,7.680513595166163,24.125671898516412,57.0,168.0,"Tue, Nov  4, 1997","Sun, Nov  2, 1997"
3832,Fairbanks International,Fairbanks,United States,FAI,PAFA,64.815114,-147.856267,434,-9,A,"Fairbanks, AK",350,350,361,361,3.0828571428571436,12.108571428571423,20.0,52.0,"Mon, Nov 24, 1997","Fri, Nov 14, 1997"
4292,Hector International Airport,Fargo,United States,FAR,KFAR,46.92065,-96.8157639,902,-6,A,"Fargo, ND",194,194,202,202,5.283505154639176,12.845360824742269,41.0,55.0,"Sat, Nov 29, 1997","Wed, Nov  5, 1997"
3687,Fresno Yosemite International,Fresno,United States,FAT,KFAT,36.776194,-119.71814,336,-8,A,"Fresno, CA",148,148,150,150,4.702702702702704,8.979729729729733,14.0,25.0,"Wed, Nov 26, 1997","Sun, Nov  2, 1997"
5738,Fayetteville Regional-Grannis Field,Fayetteville,United States,FAY,KFAY,34.9912,-78.8803,189,-5,A,"Fayetteville, NC",134,136,140,140,4.246268656716421,6.632352941176471,7.0,17.0,"Wed, Nov 12, 1997","Mon, Nov 17, 1997"
4127,Glacier Park International,Kalispell,United States,FCA,KFCA,48.310472,-114.256,2977,-7,A,"Kalispell, MT",58,58,60,60,4.620689655172414,9.534482758620694,37.0,20.0,"Thu, Nov  6, 1997","Tue, Nov 25, 1997"
3533,Fort Lauderdale Hollywood International,Fort Lauderdale,United States,FLL,KFLL,26.072583,-80.15275,9,-5,A,"Fort Lauderdale, FL",3137,3139,3150,3151,3.931781957284028,12.164383561643822,33.0,95.0,"Fri, Nov 28, 1997","Mon, Nov 24, 1997"
4089,Bishop International,Flint,United States,FNT,KFNT,42.965424,-83.743629,782,-5,A,"Flint, MI",113,113,113,113,3.9380530973451333,8.176991150442483,9.0,20.0,"Fri, Nov 28, 1997","Tue, Nov  4, 1997"
4009,Sioux Falls,Sioux Falls,United States,FSD,KFSD,43.582014,-96.741914,1429,-6,A,"Sioux Falls, SD",281,282,284,284,4.928825622775802,10.276595744680849,11.0,114.0,"Fri, Nov 14, 1997","Sat, Nov 29, 1997"
4041,Fort Wayne,Fort Wayne,United States,FWA,KFWA,40.978472,-85.195139,815,-5,A,"Fort Wayne, IN",198,199,201,201,4.308080808080806,10.854271356783917,9.0,47.0,"Thu, Nov 20, 1997","Sat, Nov 15, 1997"
3467,Spokane International,Spokane,United States,GEG,KGEG,47.619861,-117.533833,2376,-8,A,"Spokane, WA",1164,1164,1177,1178,3.4647766323024043,9.60996563573884,11.0,40.0,"Wed, Nov 19, 1997","Tue, Nov 25, 1997"
3442,Grand Forks International,Grand Forks,United States,GFK,KGFK,47.949256,-97.176111,845,-6,A,"Grand Forks, ND",84,86,86,86,3.892857142857143,7.267441860465116,8.0,31.0,"Thu, Nov 13, 1997","Fri, Nov 21, 1997"
3472,Gainesville Regional,Gainesville,United States,GNV,KGNV,29.690056,-82.271778,152,-5,A,"Gainesville, FL",115,116,116,116,3.347826086956522,7.422413793103448,8.0,14.0,"Sat, Nov 22, 1997","Sat, Nov  8, 1997"
3653,Austin Straubel International,Green Bay,United States,GRB,KGRB,44.485072,-88.129589,695,-6,A,"Green Bay, WI",196,195,198,198,3.5408163265306123,10.400000000000004,8.0,126.0,"Sun, Nov  9, 1997","Fri, Nov 28, 1997"
3685,Gerald R. Ford International,Grand Rapids,United States,GRR,KGRR,42.880833,-85.522806,794,-5,A,"Grand Rapids, MI",699,698,707,707,3.8969957081545092,10.113180515759314,11.0,80.0,"Sat, Nov 29, 1997","Sat, Nov 29, 1997"
4008,Piedmont Triad,Greensboro,United States,GSO,KGSO,36.09775,-79.937306,925,-5,A,"Greensboro/High Point, NC",1197,1192,1217,1217,3.8738512949039237,11.604865771812083,39.0,98.0,"Fri, Nov 14, 1997","Wed, Nov 12, 1997"
4034,Greenville-Spartanburg International,Greenville,United States,GSP,KGSP,34.895556,-82.218889,964,-5,A,"Greer, SC",566,567,577,577,3.885159010600704,11.571428571428571,19.0,77.0,"Thu, Nov 13, 1997","Wed, Nov 12, 1997"
3880,Great Falls International,Great Falls,United States,GTF,KGTF,47.482,-111.370689,3677,-7,A,"Great Falls, MT",194,193,207,207,4.1907216494845345,8.699481865284977,13.0,48.0,"Mon, Nov 10, 1997","Mon, Nov 10, 1997"
3504,Helena Regional,Helena,United States,HLN,KHLN,46.606806,-111.98275,3877,-7,A,"Helena, MT",57,58,60,60,2.6491228070175437,10.620689655172415,12.0,27.0,"Sun, Nov  9, 1997","Fri, Nov 21, 1997"
3728,Honolulu International,Honolulu,United States,HNL,PHNL,21.318681,-157.922428,13,-10,N,"Honolulu, HI",964,968,973,974,5.182572614107888,19.442148760330603,21.0,50.0,"Tue, Nov  4, 1997","Sat, Nov 15, 1997"
3566,William P. Hobby,Houston,United States,HOU,KHOU,29.645419,-95.278889,46,-6,A,"Houston, TX",4391,4398,4484,4484,3.351856069232522,8.696225557071413,23.0,56.0,"Thu, Nov 20, 1997","Fri, Nov 28, 1997"
3589,Westchester County,White Plains,United States,HPN,KHPN,41.066959,-73.707575,439,-5,A,"White Plains, NY",459,457,468,469,5.071895424836601,11.796498905908098,35.0,90.0,"Sun, Nov 23, 1997","Fri, Nov 14, 1997"
3560,Valley International,Harlingen,United States,HRL,KHRL,26.2285,-97.654389,36,-6,A,"Harlingen/San Benito, TX",334,334,340,340,2.3233532934131733,5.820359281437123,22.0,12.0,"Thu, Nov  6, 1997","Sun, Nov 23, 1997"
4113,Huntsville International Airport-Carl T. Jones Field,Huntsville,United States,HSV,KHSV,34.6371944,-86.7750556,629,-6,A,"Huntsville, AL",479,478,489,489,4.734864300626305,11.221757322175733,15.0,75.0,"Sat, Nov  1, 1997","Thu, Nov  6, 1997"
3714,Washington Dulles International,Washington,United States,IAD,KIAD,38.944533,-77.455811,313,-5,A,"Washington, DC",3106,3106,3157,3159,5.934964584674824,14.08306503541532,25.0,99.0,"Wed, Nov  5, 1997","Thu, Nov  6, 1997"
3550,George Bush Intercontinental Houston,Houston,United States,IAH,KIAH,29.984433,-95.341442,97,-6,A,"Houston, TX",9894,9915,9971,9976,6.425712553062464,16.374886535552125,113.0,71.0,"Thu, Nov 20, 1997","Fri, Nov 28, 1997"
3457,Wichita Mid Continent,Wichita,United States,ICT,KICT,37.649944,-97.433056,1333,-6,A,"Wichita, KS",608,606,622,622,4.080592105263155,10.734323432343224,14.0,41.0,"Tue, Nov 25, 1997","Sun, Nov  2, 1997"
4100,Idaho Falls Regional,Idaho Falls,United States,IDA,KIDA,43.514556,-112.07075,4744,-7,A,"Idaho Falls, ID",89,90,90,90,3.146067415730337,9.133333333333333,12.0,22.0,"Fri, Nov  7, 1997","Wed, Nov 19, 1997"
3845,Wilmington International,Wilmington,United States,ILM,KILM,34.270615,-77.902569,32,-5,A,"Wilmington, NC",172,173,173,173,3.941860465116279,9.306358381502893,7.0,22.0,"Fri, Nov 14, 1997","Thu, Nov 20, 1997"
3585,Indianapolis International,Indianapolis,United States,IND,KIND,39.717331,-86.294383,797,-5,A,"Indianapolis, IN",2769,2770,2794,2794,7.31274828457927,11.523104693140786,83.0,95.0,"Sat, Nov 29, 1997","Thu, Nov 13, 1997"
3857,Long Island MacArthur,Islip,United States,ISP,KISP,40.79525,-73.100222,99,-5,A,"Islip, NY",176,176,179,179,4.511363636363636,11.386363636363633,15.0,46.0,"Sat, Nov  1, 1997","Fri, Nov 28, 1997"
3947,Ithaca Tompkins Regional,Ithaca,United States,ITH,KITH,42.491028,-76.458444,1099,-5,A,"Ithaca/Cortland, NY",103,104,108,108,4.3009708737864125,10.269230769230765,16.0,45.0,"Sun, Nov 23, 1997","Sun, Nov 16, 1997"
4027,Jackson Hole Airport,Jacksn Hole,United States,JAC,KJAC,43.60733333,-110.73775,6451,-7,A,"Jackson, WY",81,83,89,89,3.172839506172839,7.3373493975903585,5.0,46.0,"Sun, Nov  9, 1997","Wed, Nov 26, 1997"
3580,Jackson Evers International,Jackson,United States,JAN,KJAN,32.311167,-90.075889,346,-6,A,"Jackson/Vicksburg, MS",720,720,732,731,3.7611111111111124,8.311111111111106,18.0,51.0,"Fri, Nov  7, 1997","Thu, Nov  6, 1997"
3712,Jacksonville International,Jacksonville,United States,JAX,KJAX,30.494056,-81.687861,30,-5,A,"Jacksonville, FL",1760,1771,1789,1788,4.326136363636361,10.48785996612083,18.0,100.0,"Sat, Nov 22, 1997","Sat, Nov  1, 1997"
3797,John F. Kennedy International,New York,United States,JFK,KJFK,40.639751,-73.778925,13,-5,A,"New York, NY",3261,3265,3312,3312,9.310027598896065,24.599387442572755,77.0,140.0,"Tue, Nov 11, 1997","Sun, Nov  9, 1997"
3492,Juneau International,Juneau,United States,JNU,PAJN,58.354972,-134.576278,21,-9,A,"Juneau, AK",242,245,264,264,3.247933884297521,12.048979591836732,8.0,42.0,"Sat, Nov  1, 1997","Mon, Nov 10, 1997"
3514,Kona International At Keahole,Kona,United States,KOA,PHKO,19.738767,-156.045631,47,-10,N,"Kona, HI",60,60,60,60,3.8333333333333335,11.749999999999998,6.0,23.0,"Sun, Nov  9, 1997","Sat, Nov 15, 1997"
3808,Ketchikan International,Ketchikan,United States,KTN,PAKT,55.355556,-131.71375,88,-9,A,"Ketchikan, AK",169,170,176,176,3.57396449704142,8.61176470588235,16.0,21.0,"Mon, Nov  3, 1997","Tue, Nov 25, 1997"
3544,Capital City,Lansing,United States,LAN,KLAN,42.7787,-84.587357,861,-5,A,"Lansing, MI",172,172,172,172,4.2325581395348815,8.273255813953485,7.0,26.0,"Sat, Nov 22, 1997","Wed, Nov  5, 1997"
3877,McCarran International,Las Vegas,United States,LAS,KLAS,36.080056,-115.15225,2141,-8,A,"Las Vegas, NV",9841,9844,9904,9900,4.680621888019511,13.018082080455116,50.0,104.0,"Thu, Nov 20, 1997","Thu, Nov 13, 1997"
3484,Los Angeles International,Los Angeles,United States,LAX,KLAX,33.942536,-118.408075,126,-8,A,"Los Angeles, CA",14728,14755,15055,15049,8.383487235198276,15.14368010843779,500.0,157.0,"Thu, Nov 27, 1997","Wed, Nov 12, 1997"
3829,Lubbock Preston Smith International,Lubbock,United States,LBB,KLBB,33.663639,-101.822778,3282,-6,A,"Lubbock, TX",560,559,573,573,2.685714285714288,7.023255813953491,22.0,26.0,"Tue, Nov 25, 1997","Thu, Nov 13, 1997"
4017,Blue Grass,Lexington KY,United States,LEX,KLEX,38.0365,-84.605889,979,-5,A,"Lexington, KY",314,315,320,320,4.42675159235669,8.961904761904766,17.0,33.0,"Mon, Nov  3, 1997","Sat, Nov 15, 1997"
3493,Lafayette Regional,Lafayette,United States,LFT,KLFT,30.205278,-91.987611,43,-6,A,"Lafayette, LA",29,29,29,29,4.551724137931033,9.862068965517244,6.0,15.0,"Mon, Nov  3, 1997","Fri, Nov 21, 1997"
3697,LaGuardia Airport,New York,United States,LGA,KLGA,40.777245,-73.872608,22,-5,A,"New York, NY",7337,7357,7502,7506,6.483985280087226,21.011689547369826,69.0,116.0,"Sun, Nov  2, 1997","Sun, Nov  2, 1997"
3582,Long Beach,Long Beach,United States,LGB,KLGB,33.817722,-118.151611,60,-8,A,"Long Beach, CA",228,228,230,229,4.93859649122807,11.364035087719307,45.0,35.0,"Sat, Nov  1, 1997","Mon, Nov 10, 1997"
3660,Adams Field,Little Rock,United States,LIT,KLIT,34.729444,-92.224306,262,-6,A,"Little Rock, AR",1071,1069,1085,1086,4.29505135387489,9.310570626753984,21.0,63.0,"Thu, Nov  6, 1997","Wed, Nov 12, 1997"
3543,Lincoln,Lincoln,United States,LNK,KLNK,40.850971,-96.75925,1219,-6,A,"Lincoln, NE",224,223,227,226,3.482142857142857,7.497757847533633,7.0,21.0,"Wed, Nov 26, 1997","Fri, Nov 21, 1997"
4044,LaCrosse Municipal,LaCrosse,United States,LSE,KLSE,43.878986,-91.256711,654,-6,A,"La Crosse, WI",51,51,54,54,3.921568627450981,7.823529411764706,9.0,21.0,"Mon, Nov  3, 1997","Wed, Nov 26, 1997"
3652,Midland International,Midland,United States,MAF,KMAF,31.942528,-102.201914,2871,-6,A,"Midland/Odessa, TX",515,516,524,524,2.636893203883495,7.579457364341088,26.0,220.0,"Sun, Nov 30, 1997","Fri, Nov 28, 1997"
4128,MBS International,Saginaw,United States,MBS,KMBS,43.532913,-84.079647,668,-5,A,"Saginaw/Bay City/Midland, MI",356,354,361,361,4.2191011235955065,8.912429378531066,45.0,39.0,"Fri, Nov 14, 1997","Tue, Nov 25, 1997"
3458,Kansas City International,Kansas City,United States,MCI,KMCI,39.297606,-94.713905,1026,-6,A,"Kansas City, MO",4552,4560,4598,4595,4.4870386643233715,10.820614035087724,30.0,186.0,"Sun, Nov 30, 1997","Wed, Nov  5, 1997"
3878,Orlando International,Orlando,United States,MCO,KMCO,28.429394,-81.308994,96,-5,A,"Orlando, FL",7114,7118,7142,7143,4.763845937587849,12.470918797415008,31.0,99.0,"Sun, Nov 16, 1997","Fri, Nov 14, 1997"
3542,Harrisburg International,Harrisburg,United States,MDT,KMDT,40.193494,-76.763403,310,-5,A,"Harrisburg, PA",601,602,608,608,4.1514143094841875,9.561461794019937,13.0,40.0,"Tue, Nov 18, 1997","Fri, Nov 14, 1997"
3747,Chicago Midway International,Chicago,United States,MDW,KMDW,41.785972,-87.752417,620,-6,A,"Chicago, IL",3459,3477,3577,3578,3.9126915293437414,9.323842392867427,37.0,48.0,"Mon, Nov  3, 1997","Sun, Nov 30, 1997"
3473,Memphis International,Memphis,United States,MEM,KMEM,35.042417,-89.976667,341,-6,A,"Memphis, TN",3962,3964,4009,4007,6.137051993942459,14.007820383451056,23.0,77.0,"Mon, Nov  3, 1997","Sun, Nov  2, 1997"
3826,McAllen Miller International,Mcallen,United States,MFE,KMFE,26.175833,-98.238611,107,-6,A,"Mission/McAllen/Edinburg, TX",247,247,247,247,3.3684210526315783,8.42914979757085,7.0,22.0,"Sun, Nov 23, 1997","Mon, Nov  3, 1997"
4101,Rogue Valley International Medford,Medford,United States,MFR,KMFR,42.374228,-122.8735,1335,-8,A,"Medford, OR",92,93,93,93,3.391304347826087,9.946236559139788,10.0,26.0,"Sat, Nov  1, 1997","Sun, Nov  2, 1997"
4115,Montgomery Regional Airport ,MONTGOMERY,United States,MGM,KMGM,32.3006389,-86.3939722,221,-6,A,"Montgomery, AL",171,169,175,175,4.000000000000002,11.20118343195266,10.0,49.0,"Fri, Nov 21, 1997","Tue, Nov 25, 1997"
4011,Manchester Regional Airport,Manchester NH,United States,MHT,KMHT,42.932556,-71.435667,266,-5,A,"Manchester, NH",401,401,411,411,4.159600997506233,10.526184538653375,13.0,70.0,"Fri, Nov 14, 1997","Sat, Nov 22, 1997"
3576,Miami International,Miami,United States,MIA,KMIA,25.79325,-80.290556,8,-5,A,"Miami, FL",5320,5325,5359,5358,6.924624060150371,18.799248826291084,57.0,119.0,"Wed, Nov 12, 1997","Fri, Nov 14, 1997"
3717,General Mitchell International,Milwaukee,United States,MKE,KMKE,42.947222,-87.896583,723,-6,A,"Milwaukee, WI",1180,1179,1207,1207,4.383050847457619,11.067854113655633,17.0,54.0,"Sun, Nov 30, 1997","Thu, Nov  6, 1997"
3671,Melbourne International,Melbourne,United States,MLB,KMLB,28.102753,-80.645258,33,-5,A,"Melbourne, FL",206,206,206,206,4.417475728155338,9.79611650485436,12.0,25.0,"Sun, Nov  9, 1997","Sat, Nov  8, 1997"
4072,Quad City International,Moline,United States,MLI,KMLI,41.448528,-90.507539,590,-6,A,"Moline, IL",126,126,137,136,3.253968253968253,8.23015873015873,7.0,49.0,"Tue, Nov 18, 1997","Fri, Nov 21, 1997"
3732,Monroe Regional,Monroe,United States,MLU,KMLU,32.510864,-92.037689,79,-6,A,"Monroe, LA",178,178,180,180,3.983146067415726,8.842696629213481,7.0,20.0,"Sat, Nov 15, 1997","Wed, Nov  5, 1997"
3782,Mobile Regional,Mobile,United States,MOB,KMOB,30.691231,-88.242814,219,-6,A,"Mobile, AL",348,348,354,354,4.241379310344821,8.922413793103443,14.0,22.0,"Sun, Nov  2, 1997","Sat, Nov 15, 1997"
3498,Minot International,Minot,United States,MOT,KMOT,48.259378,-101.280333,1716,-6,A,"Minot, ND",88,88,88,88,4.363636363636363,9.75,7.0,35.0,"Sun, Nov  2, 1997","Tue, Nov 11, 1997"
3948,Monterey Peninsula,Monterey,United States,MRY,KMRY,36.587,-121.842944,257,-8,A,"Monterey, CA",58,58,59,59,2.7931034482758625,8.672413793103445,6.0,72.0,"Tue, Nov 18, 1997","Wed, Nov 19, 1997"
3459,Dane County Regional-Truax Field,Madison,United States,MSN,KMSN,43.139858,-89.337514,887,-6,A,"Madison, WI",324,323,332,332,4.040123456790126,11.783281733746136,9.0,186.0,"Thu, Nov 13, 1997","Fri, Nov 28, 1997"
4216,Missoula International,Missoula,United States,MSO,KMSO,46.916306,-114.090556,3205,-7,A,"Missoula, MT",142,149,149,149,4.035211267605631,10.281879194630873,7.0,135.0,"Thu, Nov  6, 1997","Thu, Nov  6, 1997"
3858,Minneapolis St. Paul International,Minneapolis,United States,MSP,KMSP,44.881956,-93.221767,841,-6,A,"Minneapolis, MN",10470,10551,10824,10826,6.365138490926469,18.88683537105486,70.0,128.0,"Sat, Nov 29, 1997","Thu, Nov 13, 1997"
3861,Louis Armstrong New Orleans International,New Orleans,United States,MSY,KMSY,29.993389,-90.258028,4,-6,A,"New Orleans, LA",3947,3951,3974,3974,3.8388649607296683,9.117944824095188,27.0,153.0,"Wed, Nov 19, 1997","Fri, Nov 28, 1997"
3515,Myrtle Beach International,Myrtle Beach,United States,MYR,KMYR,33.67975,-78.928333,25,-5,A,"Myrtle Beach, SC",183,183,183,183,3.8743169398907105,8.185792349726775,6.0,28.0,"Tue, Nov  4, 1997","Fri, Nov  7, 1997"
3453,Metropolitan Oakland International,Oakland,United States,OAK,KOAK,37.721278,-122.220722,9,-8,A,"Oakland, CA",4616,4628,4687,4686,3.8856152512998268,9.593777009507344,23.0,139.0,"Mon, Nov 10, 1997","Sun, Nov 16, 1997"
3456,Kahului,Kahului,United States,OGG,PHOG,20.89865,-156.430458,54,-10,N,"Kahului, HI",235,232,239,240,5.336170212765959,10.426724137931034,17.0,35.0,"Tue, Nov 25, 1997","Sat, Nov 22, 1997"
3863,Will Rogers World,Oklahoma City,United States,OKC,KOKC,35.393089,-97.600733,1295,-6,A,"Oklahoma City, OK",1604,1606,1617,1619,3.472568578553617,8.69427148194269,30.0,122.0,"Sun, Nov 23, 1997","Sat, Nov 15, 1997"
3454,Eppley Airfield,Omaha,United States,OMA,KOMA,41.303167,-95.894069,984,-6,A,"Omaha, NE",1360,1360,1374,1372,3.388970588235292,10.188970588235279,19.0,50.0,"Mon, Nov 10, 1997","Mon, Nov  3, 1997"
3615,Nome,Nome,United States,OME,PAOM,64.512203,-165.445247,37,-9,A,"Nome, AK",57,57,58,58,2.6666666666666665,9.701754385964913,6.0,22.0,"Sat, Nov 22, 1997","Sat, Nov 15, 1997"
3734,Ontario International,Ontario,United States,ONT,KONT,34.056,-117.601194,944,-8,A,"Ontario, CA",2831,2828,2863,2862,2.9279406570116526,11.141089108910863,15.0,96.0,"Sun, Nov 30, 1997","Sun, Nov 30, 1997"
3830,Chicago O'Hare International,Chicago,United States,ORD,KORD,41.978603,-87.904842,668,-6,A,"Chicago, IL",22955,23055,23466,23476,6.794641690263554,15.146952938625022,63.0,255.0,"Wed, Nov 12, 1997","Sat, Nov 29, 1997"
3611,Norfolk International,Norfolk,United States,ORF,KORF,36.894611,-76.201222,26,-5,A,"Norfolk, VA",1334,1340,1364,1364,3.570464767616193,9.541044776119424,23.0,65.0,"Tue, Nov 25, 1997","Thu, Nov  6, 1997"
3693,Ralph WienMemorial,Kotzebue,United States,OTZ,PAOT,66.884678,-162.59855,11,-9,A,"Kotzebue, AK",57,57,58,58,3.2982456140350878,7.543859649122807,7.0,20.0,"Thu, Nov 13, 1997","Wed, Nov 19, 1997"
3722,Palm Beach International,West Palm Beach,United States,PBI,KPBI,26.683161,-80.095589,19,-5,A,"West Palm Beach/Palm Beach, FL",1717,1715,1727,1725,4.475247524752458,11.729446064139932,18.0,60.0,"Sun, Nov  9, 1997","Thu, Nov 27, 1997"
3720,Portland International,Portland,United States,PDX,KPDX,45.588722,-122.5975,30,-8,A,"Portland, OR",4483,4482,4529,4530,4.3477581976355175,10.877956269522548,96.0,54.0,"Tue, Nov  4, 1997","Wed, Nov 12, 1997"
3752,Philadelphia International,Philadelphia,United States,PHL,KPHL,39.871944,-75.241139,36,-5,A,"Philadelphia, PA",8651,8644,8809,8803,6.118136631603284,16.159069875057828,55.0,111.0,"Thu, Nov 13, 1997","Sat, Nov 15, 1997"
3462,Phoenix Sky Harbor International,Phoenix,United States,PHX,KPHX,33.434278,-112.011583,1135,-7,N,"Phoenix, AZ",13634,13675,13804,13810,4.616033445797287,12.453967093235791,83.0,117.0,"Sat, Nov 15, 1997","Fri, Nov 28, 1997"
3570,Pittsburgh International,Pittsburgh (pennsylva),United States,PIT,KPIT,40.491467,-80.232872,1204,-5,A,"Pittsburgh, PA",8883,8934,9127,9128,6.135202071372278,13.812513991493168,37.0,229.0,"Sun, Nov 16, 1997","Thu, Nov 13, 1997"
3564,Pensacola Regional,Pensacola,United States,PNS,KPNS,30.473425,-87.186611,121,-6,A,"Pensacola, FL",545,545,554,554,4.207339449541284,9.612844036697238,19.0,48.0,"Sun, Nov 16, 1997","Thu, Nov  6, 1997"
6133,Tri Cities Airport,Pasco,United States,PSC,PSC,46.2647,-119.119,410,-8,A,"Pasco/Kennewick/Richland, WA",118,118,120,120,4.406779661016953,8.864406779661016,8.0,23.0,"Sun, Nov  9, 1997","Tue, Nov 18, 1997"
4147,Petersburg James A. Johnson,Petersburg,United States,PSG,PAPG,56.801667,-132.945278,105,-9,A,"Petersburg, AK",48,48,58,58,2.8958333333333335,6.3125,6.0,13.0,"Fri, Nov 28, 1997","Wed, Nov  5, 1997"
3839,Palm Springs International,Palm Springs,United States,PSP,KPSP,33.829667,-116.506694,477,-8,A,"Palm Springs, CA",390,388,390,390,4.051282051282051,10.649484536082477,11.0,45.0,"Sat, Nov 15, 1997","Mon, Nov 10, 1997"
3641,Theodore Francis Green State,Providence,United States,PVD,KPVD,41.732581,-71.420383,55,-5,A,"Providence, RI",1674,1678,1688,1688,4.3709677419354875,10.930274135876044,28.0,53.0,"Sat, Nov 15, 1997","Fri, Nov 14, 1997"
3862,Portland International Jetport,Portland,United States,PWM,KPWM,43.646161,-70.309281,77,-5,A,"Portland, ME",493,492,501,501,3.689655172413793,11.176829268292673,9.0,82.0,"Sun, Nov 23, 1997","Sat, Nov 22, 1997"
4087,Rapid City Regional Airport,Rapid City,United States,RAP,KRAP,44.045278,-103.057222,3204,-7,A,"Rapid City, SD",87,87,89,89,4.1494252873563235,9.252873563218388,6.0,25.0,"Sat, Nov 15, 1997","Sat, Nov 22, 1997"
3626,Raleigh Durham International,Raleigh-durham,United States,RDU,KRDU,35.877639,-78.787472,435,-5,A,"Raleigh/Durham, NC",2189,2192,2215,2214,3.8958428506167198,10.407390510948899,29.0,131.0,"Sun, Nov 30, 1997","Mon, Nov  3, 1997"
3608,Richmond International,Richmond,United States,RIC,KRIC,37.505167,-77.319667,167,-5,A,"Richmond, VA",1250,1249,1268,1268,4.3640000000000025,10.568454763811044,13.0,52.0,"Sun, Nov  2, 1997","Mon, Nov 10, 1997"
3807,Reno Tahoe International,Reno,United States,RNO,KRNO,39.499108,-119.768108,4415,-8,A,"Reno, NV",2176,2178,2199,2200,4.20496323529412,9.191460055096385,23.0,39.0,"Fri, Nov  7, 1997","Tue, Nov  4, 1997"
4016,Roanoke Regional,Roanoke VA,United States,ROA,KROA,37.325472,-79.975417,1175,-5,A,"Roanoke, VA",201,203,209,209,3.9502487562189055,7.748768472906404,8.0,19.0,"Fri, Nov 21, 1997","Sat, Nov  1, 1997"
3622,Greater Rochester International,Rochester,United States,ROC,KROC,43.118866,-77.672389,559,-5,A,"Rochester, NY",1149,1149,1178,1178,5.3011314186248955,9.806788511749351,17.0,92.0,"Thu, Nov 20, 1997","Sat, Nov 29, 1997"
4048,Rochester,Rochester,United States,RST,KRST,43.908283,-92.500014,1317,-6,A,"Rochester, MN",210,212,225,226,3.942857142857142,9.009433962264152,7.0,25.0,"Thu, Nov  6, 1997","Thu, Nov 20, 1997"
3793,Southwest Florida International,Fort Myers,United States,RSW,KRSW,26.536167,-81.755167,30,-5,A,"Fort Myers, FL",1100,1098,1107,1106,3.5345454545454547,11.79052823315118,64.0,71.0,"Sun, Nov 30, 1997","Thu, Nov  6, 1997"
3731,San Diego International,San Diego,United States,SAN,KSAN,32.733556,-117.189667,17,-8,A,"San Diego, CA",5391,5388,5453,5450,2.9614171767761017,12.14699331848555,32.0,91.0,"Thu, Nov 13, 1997","Wed, Nov 19, 1997"
3621,San Antonio International,San Antonio,United States,SAT,KSAT,29.533694,-98.469778,809,-6,A,"San Antonio, TX",3039,3041,3069,3068,3.274103323461666,8.863860572180208,20.0,84.0,"Sun, Nov 30, 1997","Fri, Nov 28, 1997"
3613,Savannah Hilton Head International,Savannah,United States,SAV,KSAV,32.127583,-81.202139,51,-5,A,"Savannah, GA",440,440,443,443,4.938636363636362,10.406818181818187,21.0,28.0,"Thu, Nov 13, 1997","Thu, Nov 20, 1997"
3949,Santa Barbara Municipal,Santa Barbara,United States,SBA,KSBA,34.426211,-119.840372,10,-8,A,"Santa Barbara, CA",111,111,113,113,2.765765765765766,5.162162162162163,5.0,14.0,"Fri, Nov  7, 1997","Wed, Nov 19, 1997"
4359,South Bend Regional,South Bend,United States,SBN,KSBN,41.708661,-86.31725,799,-5,A,"South Bend, IN",282,280,288,288,3.968085106382981,9.400000000000006,25.0,77.0,"Wed, Nov 19, 1997","Sun, Nov 16, 1997"
3620,Deadhorse,Deadhorse,United States,SCC,PASC,70.19475,-148.465167,64,-9,A,"Deadhorse, AK",27,27,29,29,2.851851851851851,7.7407407407407405,5.0,16.0,"Wed, Nov 26, 1997","Wed, Nov  5, 1997"
4014,Louisville International Airport,Louisville,United States,SDF,KSDF,38.1740858,-85.7364989,501,-5,A,"Louisville, KY",2034,2036,2068,2067,4.739921337266476,9.587917485265212,49.0,67.0,"Tue, Nov 18, 1997","Wed, Nov  5, 1997"
3577,Seattle Tacoma International,Seattle,United States,SEA,KSEA,47.449,-122.309306,433,-8,A,"Seattle, WA",7344,7365,7459,7460,4.416530501089326,13.379497623896816,27.0,63.0,"Fri, Nov  7, 1997","Thu, Nov  6, 1997"
3469,San Francisco International,San Francisco,United States,SFO,KSFO,37.618972,-122.374889,13,-8,A,"San Francisco, CA",10828,10881,11124,11123,5.940062800147755,17.155224703611797,84.0,124.0,"Sun, Nov 23, 1997","Wed, Nov 26, 1997"
4348,Springfield Branson National,Springfield,United States,SGF,KSGF,37.245667,-93.388639,1268,-6,A,"Springfield, MO",134,134,136,136,3.582089552238806,9.238805970149254,12.0,68.0,"Fri, Nov 14, 1997","Sat, Nov 22, 1997"
3609,Shreveport Regional,Shreveport,United States,SHV,KSHV,32.446629,-93.8256,258,-6,A,"Shreveport, LA",309,311,317,317,4.300970873786408,8.578778135048223,14.0,35.0,"Fri, Nov 14, 1997","Wed, Nov  5, 1997"
3856,Sitka Rocky Gutierrez,Sitka,United States,SIT,PASI,57.047138,-135.361611,21,-9,A,"Sitka, AK",80,88,88,88,3.187500000000001,7.4772727272727275,7.0,17.0,"Tue, Nov 25, 1997","Wed, Nov 12, 1997"
3748,Norman Y. Mineta San Jose International,San Jose,United States,SJC,KSJC,37.3626,-121.929022,62,-8,A,"San Jose, CA",3923,3928,3971,3972,3.9395870507264874,11.97097759674135,29.0,89.0,"Sun, Nov 23, 1997","Sat, Nov 29, 1997"
3536,Salt Lake City International,Salt Lake City,United States,SLC,KSLC,40.788389,-111.977772,4227,-7,A,"Salt Lake City, UT",6899,6906,7011,7011,4.928105522539501,15.015638575152048,47.0,138.0,"Wed, Nov  5, 1997","Fri, Nov 21, 1997"
3817,Sacramento International,Sacramento,United States,SMF,KSMF,38.695417,-121.590778,27,-8,A,"Sacramento, CA",2951,2953,2973,2973,3.592002710945441,9.349475110057604,43.0,65.0,"Mon, Nov 10, 1997","Wed, Nov 26, 1997"
3867,John Wayne Airport Orange County,Santa Ana,United States,SNA,KSNA,33.675667,-117.868222,56,-8,A,"Santa Ana, CA",2755,2764,2788,2792,5.538294010889294,12.565846599131678,49.0,115.0,"Mon, Nov  3, 1997","Tue, Nov 25, 1997"
4067,Sarasota Bradenton International,Sarasota,United States,SRQ,KSRQ,27.395444,-82.554389,30,-5,A,"Sarasota/Bradenton, FL",473,475,477,476,4.124735729386893,10.138947368421041,12.0,51.0,"Fri, Nov 21, 1997","Thu, Nov  6, 1997"
3678,Lambert St. Louis International,St. Louis,United States,STL,KSTL,38.748697,-90.370028,618,-6,A,"St. Louis, MO",13837,13884,14211,14226,5.941894919418966,18.884687409968386,64.0,229.0,"Thu, Nov  6, 1997","Sat, Nov 29, 1997"
3753,Sioux Gateway-Colonel Bud Day Field,Sioux City,United States,SUX,KSUX,42.402603,-96.384367,1098,-6,A,"Sioux City, IA",52,52,54,54,4.211538461538459,9.19230769230769,8.0,29.0,"Thu, Nov 13, 1997","Wed, Nov 12, 1997"
3661,Stewart International,Newburgh,United States,SWF,KSWF,41.504094,-74.104839,491,-5,A,"Newburgh/Poughkeepsie, NY",202,202,206,206,5.490099009900993,11.544554455445544,19.0,88.0,"Fri, Nov 14, 1997","Sat, Nov 29, 1997"
3745,Syracuse Hancock International,Syracuse,United States,SYR,KSYR,43.111187,-76.106311,421,-5,A,"Syracuse, NY",868,868,894,894,4.237327188940094,12.584101382488479,14.0,83.0,"Sun, Nov 16, 1997","Fri, Nov 14, 1997"
3698,Tallahassee Regional,Tallahassee,United States,TLH,KTLH,30.396528,-84.350333,81,-5,A,"Tallahassee, FL",205,205,207,207,4.0829268292682945,8.41951219512195,32.0,35.0,"Thu, Nov 13, 1997","Fri, Nov 14, 1997"
4040,Toledo,Toledo,United States,TOL,KTOL,41.586806,-83.807833,684,-5,A,"Toledo, OH",193,195,199,199,3.678756476683938,10.635897435897439,8.0,36.0,"Mon, Nov  3, 1997","Tue, Nov  4, 1997"
3646,Tampa International,Tampa,United States,TPA,KTPA,27.975472,-82.53325,26,-5,A,"Tampa, FL",4176,4170,4190,4191,4.131226053639839,11.014388489208638,25.0,113.0,"Sun, Nov 30, 1997","Wed, Nov  5, 1997"
4116,Tri-Cities Regional Airport,BRISTOL,United States,TRI,KTRI,36.4752222,-82.4074167,1519,-5,A,"Bristol/Johnson City/Kingsport, TN",117,116,117,117,4.239316239316238,5.75,7.0,16.0,"Fri, Nov 21, 1997","Mon, Nov  3, 1997"
3855,Tulsa International,Tulsa,United States,TUL,KTUL,36.198389,-95.888111,677,-6,A,"Tulsa, OK",1499,1507,1520,1521,3.520346897931954,10.10882548108828,21.0,180.0,"Sun, Nov 16, 1997","Sun, Nov 23, 1997"
3636,Tucson International,Tucson,United States,TUS,KTUS,32.116083,-110.941028,2643,-7,N,"Tucson, AZ",1512,1513,1525,1525,4.001984126984119,9.707865168539334,26.0,113.0,"Sun, Nov 30, 1997","Sat, Nov 15, 1997"
4023,Cherry Capital Airport,Traverse City,United States,TVC,KTVC,44.741445,-85.582235,624,-5,A,"Traverse City, MI",82,83,83,83,2.926829268292683,10.578313253012048,7.0,31.0,"Fri, Nov  7, 1997","Sat, Nov 15, 1997"
3676,McGhee Tyson,Knoxville,United States,TYS,KTYS,35.810972,-83.994028,981,-5,A,"Knoxville, TN",694,692,702,702,3.80835734870317,9.986994219653173,13.0,68.0,"Sat, Nov  1, 1997","Sat, Nov 29, 1997"
3873,Eglin AFB,Valparaiso,United States,VPS,KVPS,30.48325,-86.5254,87,-6,A,"Valparaiso, FL",82,81,83,83,6.414634146341464,9.111111111111114,12.0,20.0,"Fri, Nov 14, 1997","Mon, Nov  3, 1997"
5969,Wrangell Airport,Wrangell,United States,WRG,PAWG,56.4843,-132.37,44,-9,A,"Wrangell, AK",50,53,58,58,2.74,6.7924528301886795,5.0,12.0,"Thu, Nov 20, 1997","Sat, Nov  8, 1997"
6803,Yakutat,Yakutat,United States,YAK,PAYA,59.3012,-139.3937,33,-9,A,"Yakutat, AK",55,58,58,58,3.2181818181818183,6.637931034482759,6.0,15.0,"Sat, Nov 22, 1997","Mon, Nov 24, 1997"
