airport_id,name,city,country,iata_faa,iaco,latitude,longitude,altitude,zone,dst,city_state,avg_able_landings,avg_able_takeoffs,total_landings,total_takeoffs,avg_taxi_in,avg_taxi_out,longest_taxi_in,longest_taxi_out,lng_tx_in_date,lng_tx_out_date
4355,Lehigh Valley International,Allentown,United States,ABE,KABE,40.652083,-75.440806,393,-5,A,"Allentown/Bethlehem/Easton, PA",510,509,525,523,3.9725490196078472,12.233791748526526,12.0,274.0,"Mon, Aug  2, 1999","Tue, Aug 24, 1999"
4019,Albuquerque International Sunport,Albuquerque,United States,ABQ,KABQ,35.0402222,-106.6091944,5355,-7,A,"Albuquerque, NM",3314,3306,3339,3336,4.69643934821967,10.107683000604974,31.0,83.0,"Thu, Aug  5, 1999","Wed, Aug 18, 1999"
3531,Kodiak,Kodiak,United States,ADQ,PADQ,57.749967,-152.493856,78,-9,A,"Kodiak, AK",60,60,62,62,2.1666666666666656,7.083333333333333,5.0,16.0,"Sat, Aug 28, 1999","Mon, Aug  9, 1999"
3658,Augusta Regional At Bush Field,Bush Field,United States,AGS,KAGS,33.369944,-81.9645,144,-5,A,"Augusta, GA",92,92,93,93,4.467391304347828,13.90217391304348,6.0,117.0,"Fri, Aug  6, 1999","Sun, Aug  8, 1999"
3794,King Salmon,King Salmon,United States,AKN,PAKN,58.676778,-156.649278,68,-9,A,"King Salmon, AK",38,38,44,44,2.763157894736842,6.842105263157895,4.0,14.0,"Sun, Aug  8, 1999","Tue, Aug 10, 1999"
3864,Albany International,Albany,United States,ALB,KALB,42.748267,-73.801692,285,-5,A,"Albany, NY",966,968,997,994,4.1645962732919255,12.775826446280991,19.0,115.0,"Sun, Aug 22, 1999","Fri, Aug 13, 1999"
3840,Rick Husband Amarillo International,Amarillo,United States,AMA,KAMA,35.219369,-101.705931,3607,-6,A,"Amarillo, TX",408,408,413,413,3.629901960784314,7.115196078431374,18.0,32.0,"Fri, Aug 13, 1999","Mon, Aug  2, 1999"
3774,Ted Stevens Anchorage International,Anchorage,United States,ANC,PANC,61.174361,-149.996361,152,-9,A,"Anchorage, AK",2263,2275,2367,2367,4.395050817498898,12.410989010989017,50.0,59.0,"Wed, Aug 11, 1999","Sat, Aug  7, 1999"
3682,Hartsfield Jackson Atlanta International,Atlanta,United States,ATL,KATL,33.636719,-84.428067,1026,-5,A,"Atlanta, GA",21796,21926,22504,22541,8.48288676821433,21.31515096232778,76.0,199.0,"Mon, Aug 16, 1999","Thu, Aug 26, 1999"
3673,Austin Bergstrom International,Austin,United States,AUS,KAUS,30.194528,-97.669889,542,-6,A,"Austin, TX",3818,3812,3888,3884,4.997904662126761,9.699895068205663,40.0,86.0,"Sun, Aug 15, 1999","Wed, Aug 25, 1999"
4007,Asheville Regional Airport,Asheville,United States,AVL,KAVL,35.436194,-82.541806,2165,-5,A,"Asheville, NC",115,117,124,124,3.3304347826086955,9.726495726495735,7.0,32.0,"Tue, Aug  3, 1999","Wed, Aug 11, 1999"
4286,Wilkes Barre Scranton International,Scranton,United States,AVP,KAVP,41.338478,-75.723403,962,-5,A,"Scranton/Wilkes-Barre, PA",132,134,142,143,3.446969696969697,7.835820895522391,6.0,18.0,"Fri, Aug 20, 1999","Thu, Aug 19, 1999"
4039,Kalamazoo,Kalamazoo,United States,AZO,KAZO,42.234875,-85.552058,874,-5,A,"Kalamazoo, MI",185,185,190,190,4.178378378378376,8.65405405405406,15.0,41.0,"Sat, Aug 28, 1999","Sat, Aug  7, 1999"
3825,Bradley International,Windsor Locks,United States,BDL,KBDL,41.938889,-72.683222,173,-5,A,"Hartford, CT",2675,2681,2723,2730,4.783925233644848,12.99104811637449,28.0,93.0,"Thu, Aug 26, 1999","Wed, Aug 25, 1999"
3599,Bethel,Bethel,United States,BET,PABE,60.779778,-161.838,121,-9,A,"Bethel, AK",84,83,88,88,2.880952380952381,7.506024096385542,5.0,22.0,"Sat, Aug  7, 1999","Wed, Aug  4, 1999"
3558,Meadows Field,Bakersfield,United States,BFL,KBFL,35.433598,-119.05677,507,-8,A,"Bakersfield, CA",31,31,31,31,6.935483870967742,8.29032258064516,11.0,17.0,"Thu, Aug  5, 1999","Fri, Aug  6, 1999"
4129,Greater Binghamton-Edwin A. Link Field,Binghamton,United States,BGM,KBGM,42.208689,-75.979839,1636,-5,A,"Binghamton, NY",85,85,89,89,4.282352941176472,7.258823529411765,8.0,23.0,"Mon, Aug  2, 1999","Thu, Aug  5, 1999"
3811,Birmingham International,Birmingham,United States,BHM,KBHM,33.562942,-86.75355,644,-6,A,"Birmingham, AL",1724,1720,1768,1763,3.587006960556844,10.227325581395357,15.0,62.0,"Tue, Aug 31, 1999","Sun, Aug  8, 1999"
4021,Billings Logan International Airport,Billings,United States,BIL,KBIL,45.80921,-108.537654,3652,-7,A,"Billings, MT",245,244,248,248,4.151020408163267,10.614754098360649,34.0,24.0,"Tue, Aug 17, 1999","Sun, Aug  8, 1999"
4083,Bismarck Municipal Airport,Bismarck,United States,BIS,KBIS,46.775842,-100.757931,1661,-6,A,"Bismarck/Mandan, ND",124,124,124,124,5.153225806451614,8.629032258064516,9.0,32.0,"Mon, Aug 23, 1999","Thu, Aug 12, 1999"
3690,Nashville International,Nashville,United States,BNA,KBNA,36.124472,-86.678194,599,-6,A,"Nashville, TN",4713,4730,4797,4796,4.809887545088043,10.554968287526426,70.0,82.0,"Thu, Aug 12, 1999","Tue, Aug 24, 1999"
3495,Boise Air Terminal,Boise,United States,BOI,KBOI,43.564361,-116.222861,2871,-7,A,"Boise, ID",1005,1006,1008,1008,3.1273631840796026,8.93339960238569,14.0,47.0,"Sat, Aug 14, 1999","Mon, Aug 30, 1999"
3448,General Edward Lawrence Logan International,Boston,United States,BOS,KBOS,42.364347,-71.005181,19,-5,A,"Boston, MA",9144,9130,9611,9606,8.590004374453182,19.627163198247505,76.0,150.0,"Mon, Aug 23, 1999","Fri, Aug 13, 1999"
3571,Wiley Post Will RogersMemorial,Barrow,United States,BRW,PABR,71.285446,-156.766003,44,-9,A,"Barrow, AK",76,74,88,88,3.1184210526315788,5.986486486486487,12.0,20.0,"Mon, Aug  9, 1999","Fri, Aug 13, 1999"
3846,Baton Rouge Metro-Ryan Field,Baton Rouge,United States,BTR,KBTR,30.533167,-91.149639,70,-6,A,"Baton Rouge, LA",392,388,398,395,4.4566326530612255,9.626288659793804,38.0,25.0,"Sun, Aug 15, 1999","Sun, Aug 22, 1999"
3711,Burlington International,Burlington,United States,BTV,KBTV,44.471861,-73.153278,335,-5,A,"Burlington, VT",238,237,245,245,3.7394957983193278,10.270042194092825,9.0,26.0,"Thu, Aug 19, 1999","Sat, Aug 14, 1999"
3820,Buffalo Niagara International,Buffalo,United States,BUF,KBUF,42.940525,-78.732167,724,-5,A,"Buffalo, NY",1637,1635,1690,1688,3.767868051313377,10.737003058103985,27.0,101.0,"Wed, Aug 25, 1999","Wed, Aug 11, 1999"
3644,Bob Hope,Burbank,United States,BUR,KBUR,34.200667,-118.358667,778,-8,A,"Burbank, CA",2379,2380,2435,2435,2.1071878940731383,9.579411764705915,20.0,31.0,"Fri, Aug 27, 1999","Fri, Aug 20, 1999"
3849,Baltimore Washington International,Baltimore,United States,BWI,KBWI,39.175361,-76.668333,146,-5,A,"Baltimore, MD",7007,7028,7118,7118,4.616526330812049,12.618668184405243,34.0,159.0,"Thu, Aug 26, 1999","Thu, Aug 26, 1999"
4020,Gallatin Field,Bozeman,United States,BZN,KBZN,45.777643,-111.160151,4500,-7,A,"Bozeman, MT",163,164,164,164,4.564417177914111,11.189024390243905,15.0,24.0,"Tue, Aug 24, 1999","Wed, Aug 11, 1999"
3561,Columbia Metropolitan,Colombia,United States,CAE,KCAE,33.938833,-81.119528,236,-5,A,"Columbia, SC",382,381,405,404,4.910994764397906,13.007874015748033,13.0,75.0,"Wed, Aug  4, 1999","Fri, Aug 20, 1999"
4112,Akron Canton Regional Airport,Akron,United States,CAK,KCAK,40.9160833,-81.4421944,1228,-5,A,"Akron, OH",84,84,88,88,4.19047619047619,8.773809523809526,13.0,25.0,"Sun, Aug 15, 1999","Thu, Aug  5, 1999"
3610,Merle K. Mudhole Smith,Cordova,United States,CDV,PACV,60.491778,-145.477556,48,-9,A,"Cordova, AK",61,61,62,62,3.180327868852459,6.032786885245901,7.0,20.0,"Thu, Aug 12, 1999","Thu, Aug 19, 1999"
3578,Lovell Field,Chattanooga,United States,CHA,KCHA,35.035278,-85.203808,683,-5,A,"Chattanooga, TN",74,75,83,82,3.4594594594594588,8.226666666666667,6.0,14.0,"Sun, Aug  1, 1999","Wed, Aug 25, 1999"
3806,Charleston AFB International,Charleston,United States,CHS,KCHS,32.898647,-80.040528,45,-5,A,"Charleston, SC",573,569,599,597,4.605584642233859,10.82425307557117,14.0,89.0,"Tue, Aug  3, 1999","Sun, Aug  8, 1999"
4043,Cedar Rapids,Cedar Rapids,United States,CID,KCID,41.884694,-91.710806,869,-6,A,"Cedar Rapids/Iowa City, IA",470,467,479,477,3.8957446808510636,8.80942184154176,9.0,57.0,"Mon, Aug 23, 1999","Sat, Aug 14, 1999"
3486,Cleveland Hopkins International,Cleveland,United States,CLE,KCLE,41.411689,-81.849794,791,-5,A,"Cleveland, OH",4872,4871,4947,4950,4.339285714285713,16.397249024840843,69.0,163.0,"Mon, Aug 16, 1999","Tue, Aug 24, 1999"
3876,Charlotte Douglas International,Charlotte,United States,CLT,KCLT,35.214,-80.943139,748,-5,A,"Charlotte, NC",9574,9612,10083,10087,5.339983288071826,15.062005826050758,54.0,139.0,"Tue, Aug 17, 1999","Sat, Aug 21, 1999"
3759,Port Columbus International,Columbus,United States,CMH,KCMH,39.997972,-82.891889,815,-5,A,"Columbus, OH",3193,3184,3285,3287,4.727528969621047,11.16111809045226,55.0,247.0,"Tue, Aug 17, 1999","Fri, Aug 13, 1999"
3819,City Of Colorado Springs Municipal,Colorado Springs,United States,COS,KCOS,38.805805,-104.700778,6187,-7,A,"Colorado Springs, CO",1027,1023,1053,1054,6.57740993184031,13.924731182795696,28.0,108.0,"Wed, Aug  4, 1999","Sat, Aug  7, 1999"
3744,Corpus Christi International,Corpus Christi,United States,CRP,KCRP,27.770361,-97.501222,44,-6,A,"Corpus Christi, TX",247,247,263,262,2.88663967611336,7.008097165991903,14.0,85.0,"Sun, Aug  8, 1999","Tue, Aug  3, 1999"
4285,Yeager,Charleston,United States,CRW,KCRW,38.373147,-81.593189,981,-5,A,"Charleston/Dunbar, WV",102,102,112,112,3.627450980392157,7.5,12.0,20.0,"Sun, Aug 15, 1999","Mon, Aug 30, 1999"
3488,Cincinnati Northern Kentucky International,Cincinnati,United States,CVG,KCVG,39.048836,-84.667822,896,-5,A,"Cincinnati, OH",6506,6511,6643,6635,6.2470027666769115,17.459837198586854,27.0,129.0,"Wed, Aug 11, 1999","Wed, Aug 11, 1999"
3950,Daytona Beach International,Daytona Beach,United States,DAB,KDAB,29.179917,-81.058056,34,-5,A,"Daytona Beach, FL",155,155,155,155,4.116129032258063,11.587096774193549,8.0,38.0,"Tue, Aug 10, 1999","Mon, Aug 16, 1999"
3502,Dallas Love Field,Dallas,United States,DAL,KDAL,32.847111,-96.851778,487,-6,A,"Dallas, TX",4100,4121,4250,4253,2.941707317073171,7.805387041980108,23.0,69.0,"Wed, Aug 11, 1999","Thu, Aug 19, 1999"
3627,James M. Cox Dayton International,Dayton,United States,DAY,KDAY,39.902375,-84.219375,1009,-5,A,"Dayton, OH",889,893,925,925,4.671541057367831,12.382978723404264,14.0,110.0,"Sat, Aug 21, 1999","Wed, Aug  4, 1999"
3520,Ronald Reagan Washington National,Washington,United States,DCA,KDCA,38.852083,-77.037722,15,-5,A,"Washington, DC",6802,6828,7194,7218,4.933401940605696,16.260984182776813,62.0,222.0,"Fri, Aug 13, 1999","Tue, Aug 24, 1999"
3751,Denver International,Denver,United States,DEN,KDEN,39.861656,-104.673178,5431,-7,A,"Denver, CO",11816,11858,12037,12039,6.946682464454969,15.429077416090403,68.0,141.0,"Wed, Aug 11, 1999","Wed, Aug 18, 1999"
3670,Dallas Fort Worth International,Dallas-fort Worth,United States,DFW,KDFW,32.896828,-97.037997,607,-6,A,"Dallas/Fort Worth, TX",20685,20760,21234,21229,10.247377326565154,18.31339113680152,62.0,244.0,"Thu, Aug 26, 1999","Sat, Aug 14, 1999"
3460,Dillingham,Dillingham,United States,DLG,PADL,59.044667,-158.5055,74,-9,A,"Dillingham, AK",41,41,44,44,2.0975609756097553,6.804878048780488,4.0,15.0,"Thu, Aug 12, 1999","Fri, Aug 13, 1999"
3598,Duluth International,Duluth,United States,DLH,KDLH,46.842091,-92.193649,1428,-6,A,"Duluth, MN",115,112,116,115,3.6000000000000005,9.053571428571425,10.0,40.0,"Sun, Aug  1, 1999","Wed, Aug 25, 1999"
3729,Des Moines International,Des Moines,United States,DSM,KDSM,41.533972,-93.663083,958,-6,A,"Des Moines, IA",629,627,638,637,4.523052464228929,10.349282296650719,20.0,53.0,"Wed, Aug 25, 1999","Fri, Aug 13, 1999"
3645,Detroit Metro Wayne County,Detroit,United States,DTW,KDTW,42.212444,-83.353389,645,-5,A,"Detroit, MI",13133,13162,13409,13409,9.259727404248867,19.811578787418572,76.0,220.0,"Wed, Aug  4, 1999","Wed, Aug  4, 1999"
3860,Unalaska,Unalaska,United States,DUT,PADU,53.900139,-166.5435,22,-9,A,"Unalaska, AK",51,51,58,58,2.2156862745098036,4.941176470588236,3.0,9.0,"Sun, Aug  1, 1999","Sun, Aug 15, 1999"
3946,Elmira Corning Regional,Elmira,United States,ELM,KELM,42.159889,-76.891611,954,-5,A,"Elmira/Corning, NY",106,105,111,111,4.245283018867926,7.695238095238095,9.0,21.0,"Fri, Aug 13, 1999","Mon, Aug 30, 1999"
3559,El Paso International,El Paso,United States,ELP,KELP,31.80725,-106.377583,3958,-7,A,"El Paso, TX",2155,2152,2169,2169,3.1475638051044093,8.823884758364276,27.0,44.0,"Sun, Aug  8, 1999","Fri, Aug 27, 1999"
4276,Erie International-Tom Ridge Field,Erie,United States,ERI,KERI,42.082022,-80.176217,733,-5,A,"Erie, PA",110,110,114,114,3.3181818181818183,6.972727272727273,6.0,28.0,"Thu, Aug  5, 1999","Fri, Aug 13, 1999"
4099,Mahlon Sweet Field,Eugene,United States,EUG,KEUG,44.124583,-123.211972,374,-8,A,"Eugene, OR",186,186,186,186,2.9086021505376345,9.78494623655914,5.0,85.0,"Sun, Aug 22, 1999","Thu, Aug  5, 1999"
3494,Newark Liberty International,Newark,United States,EWR,KEWR,40.6925,-74.168667,18,-5,A,"Newark, NJ",10491,10578,10989,10980,9.58478696025162,31.941671393458144,76.0,334.0,"Thu, Aug 12, 1999","Fri, Aug 13, 1999"
3832,Fairbanks International,Fairbanks,United States,FAI,PAFA,64.815114,-147.856267,434,-9,A,"Fairbanks, AK",569,567,593,593,3.0509666080843583,9.455026455026454,12.0,28.0,"Wed, Aug  4, 1999","Mon, Aug 16, 1999"
4292,Hector International Airport,Fargo,United States,FAR,KFAR,46.92065,-96.8157639,902,-6,A,"Fargo, ND",235,235,238,238,4.587234042553192,10.080851063829781,12.0,63.0,"Mon, Aug  2, 1999","Mon, Aug  9, 1999"
3687,Fresno Yosemite International,Fresno,United States,FAT,KFAT,36.776194,-119.71814,336,-8,A,"Fresno, CA",30,31,31,31,4.333333333333335,8.870967741935484,6.0,26.0,"Mon, Aug  9, 1999","Fri, Aug 13, 1999"
5738,Fayetteville Regional-Grannis Field,Fayetteville,United States,FAY,KFAY,34.9912,-78.8803,189,-5,A,"Fayetteville, NC",102,102,119,120,4.088235294117647,7.666666666666667,7.0,18.0,"Wed, Aug 25, 1999","Tue, Aug 10, 1999"
4127,Glacier Park International,Kalispell,United States,FCA,KFCA,48.310472,-114.256,2977,-7,A,"Kalispell, MT",132,153,132,153,4.5303030303030285,10.575163398692812,8.0,24.0,"Fri, Aug  6, 1999","Thu, Aug 19, 1999"
3533,Fort Lauderdale Hollywood International,Fort Lauderdale,United States,FLL,KFLL,26.072583,-80.15275,9,-5,A,"Fort Lauderdale, FL",3666,3665,3718,3714,4.34506273867976,14.999727148703961,36.0,144.0,"Tue, Aug 17, 1999","Sat, Aug 14, 1999"
4089,Bishop International,Flint,United States,FNT,KFNT,42.965424,-83.743629,782,-5,A,"Flint, MI",93,93,93,93,4.698924731182797,12.75268817204301,14.0,53.0,"Sun, Aug 29, 1999","Fri, Aug 27, 1999"
4009,Sioux Falls,Sioux Falls,United States,FSD,KFSD,43.582014,-96.741914,1429,-6,A,"Sioux Falls, SD",309,309,310,311,4.86407766990291,11.407766990291256,9.0,46.0,"Sun, Aug 15, 1999","Mon, Aug  9, 1999"
4041,Fort Wayne,Fort Wayne,United States,FWA,KFWA,40.978472,-85.195139,815,-5,A,"Fort Wayne, IN",28,28,31,31,4.392857142857144,10.67857142857143,8.0,21.0,"Tue, Aug 17, 1999","Tue, Aug 24, 1999"
3467,Spokane International,Spokane,United States,GEG,KGEG,47.619861,-117.533833,2376,-8,A,"Spokane, WA",1228,1219,1238,1233,3.6245928338762217,9.499589827727657,21.0,94.0,"Sun, Aug 29, 1999","Sat, Aug  7, 1999"
3442,Grand Forks International,Grand Forks,United States,GFK,KGFK,47.949256,-97.176111,845,-6,A,"Grand Forks, ND",88,87,89,88,3.8863636363636362,7.781609195402299,7.0,28.0,"Tue, Aug 10, 1999","Fri, Aug 13, 1999"
4038,Gulfport-Biloxi,Gulfport,United States,GPT,KGPT,30.407278,-89.070111,28,-6,A,"Gulfport/Biloxi, MS",93,93,93,93,4.688172043010754,7.602150537634409,8.0,17.0,"Tue, Aug 10, 1999","Thu, Aug 26, 1999"
3653,Austin Straubel International,Green Bay,United States,GRB,KGRB,44.485072,-88.129589,695,-6,A,"Green Bay, WI",236,235,238,238,3.8262711864406778,10.046808510638296,9.0,32.0,"Thu, Aug 12, 1999","Sun, Aug 15, 1999"
3685,Gerald R. Ford International,Grand Rapids,United States,GRR,KGRR,42.880833,-85.522806,794,-5,A,"Grand Rapids, MI",735,732,756,755,4.117006802721083,10.773224043715848,10.0,120.0,"Mon, Aug  9, 1999","Fri, Aug 13, 1999"
4008,Piedmont Triad,Greensboro,United States,GSO,KGSO,36.09775,-79.937306,925,-5,A,"Greensboro/High Point, NC",1217,1220,1282,1281,4.063270336893992,12.836885245901637,22.0,110.0,"Wed, Aug 25, 1999","Sun, Aug  8, 1999"
4034,Greenville-Spartanburg International,Greenville,United States,GSP,KGSP,34.895556,-82.218889,964,-5,A,"Greer, SC",560,560,586,588,3.75,12.401785714285714,20.0,97.0,"Wed, Aug 25, 1999","Tue, Aug 24, 1999"
5960,Gustavus Airport,Gustavus,United States,GST,PAGS,58.4253,-135.707,34,-9,A,"Gustavus, AK",31,31,31,31,3.2903225806451615,7.870967741935484,7.0,16.0,"Sun, Aug 22, 1999","Tue, Aug 24, 1999"
3880,Great Falls International,Great Falls,United States,GTF,KGTF,47.482,-111.370689,3677,-7,A,"Great Falls, MT",184,184,186,186,4.086956521739133,9.293478260869566,7.0,33.0,"Thu, Aug 26, 1999","Mon, Aug 23, 1999"
3504,Helena Regional,Helena,United States,HLN,KHLN,46.606806,-111.98275,3877,-7,A,"Helena, MT",91,91,93,93,3.043956043956045,9.05494505494506,8.0,22.0,"Wed, Aug  4, 1999","Wed, Aug 11, 1999"
3728,Honolulu International,Honolulu,United States,HNL,PHNL,21.318681,-157.922428,13,-10,N,"Honolulu, HI",955,958,964,965,4.424083769633503,18.743215031315223,20.0,45.0,"Sun, Aug  1, 1999","Sat, Aug 28, 1999"
3566,William P. Hobby,Houston,United States,HOU,KHOU,29.645419,-95.278889,46,-6,A,"Houston, TX",4858,4871,5013,5015,3.939892960065885,8.571956477109413,31.0,229.0,"Mon, Aug 16, 1999","Sat, Aug 14, 1999"
3589,Westchester County,White Plains,United States,HPN,KHPN,41.066959,-73.707575,439,-5,A,"White Plains, NY",385,393,429,430,5.1740259740259775,15.821882951653942,35.0,126.0,"Fri, Aug 27, 1999","Fri, Aug 13, 1999"
3560,Valley International,Harlingen,United States,HRL,KHRL,26.2285,-97.654389,36,-6,A,"Harlingen/San Benito, TX",339,339,360,359,2.112094395280238,5.988200589970499,17.0,13.0,"Tue, Aug  3, 1999","Sun, Aug 22, 1999"
4113,Huntsville International Airport-Carl T. Jones Field,Huntsville,United States,HSV,KHSV,34.6371944,-86.7750556,629,-6,A,"Huntsville, AL",488,490,509,509,4.645491803278694,11.7,12.0,57.0,"Fri, Aug 27, 1999","Fri, Aug 13, 1999"
3714,Washington Dulles International,Washington,United States,IAD,KIAD,38.944533,-77.455811,313,-5,A,"Washington, DC",6309,6330,6655,6653,6.800602314154389,20.73554502369672,72.0,288.0,"Thu, Aug 26, 1999","Thu, Aug 26, 1999"
3550,George Bush Intercontinental Houston,Houston,United States,IAH,KIAH,29.984433,-95.341442,97,-6,A,"Houston, TX",11110,11142,11374,11369,6.896759675967611,16.523963381798737,52.0,110.0,"Tue, Aug 31, 1999","Tue, Aug  3, 1999"
3457,Wichita Mid Continent,Wichita,United States,ICT,KICT,37.649944,-97.433056,1333,-6,A,"Wichita, KS",514,511,518,518,4.305447470817117,11.011741682974563,18.0,119.0,"Sun, Aug  1, 1999","Tue, Aug 24, 1999"
3845,Wilmington International,Wilmington,United States,ILM,KILM,34.270615,-77.902569,32,-5,A,"Wilmington, NC",170,172,183,183,4.047058823529413,7.3023255813953485,8.0,24.0,"Sun, Aug 15, 1999","Tue, Aug 17, 1999"
3585,Indianapolis International,Indianapolis,United States,IND,KIND,39.717331,-86.294383,797,-5,A,"Indianapolis, IN",2962,2964,3034,3034,7.025658338960162,13.238529014844795,27.0,160.0,"Thu, Aug 12, 1999","Fri, Aug 20, 1999"
3857,Long Island MacArthur,Islip,United States,ISP,KISP,40.79525,-73.100222,99,-5,A,"Islip, NY",617,618,620,620,3.8719611021069693,10.901294498381867,28.0,115.0,"Mon, Aug 16, 1999","Tue, Aug 24, 1999"
3947,Ithaca Tompkins Regional,Ithaca,United States,ITH,KITH,42.491028,-76.458444,1099,-5,A,"Ithaca/Cortland, NY",104,104,111,111,4.336538461538464,9.759615384615389,8.0,31.0,"Sun, Aug 15, 1999","Mon, Aug 16, 1999"
4027,Jackson Hole Airport,Jacksn Hole,United States,JAC,KJAC,43.60733333,-110.73775,6451,-7,A,"Jackson, WY",97,97,97,97,3.7010309278350517,12.907216494845361,18.0,26.0,"Sat, Aug 28, 1999","Tue, Aug 10, 1999"
3580,Jackson Evers International,Jackson,United States,JAN,KJAN,32.311167,-90.075889,346,-6,A,"Jackson/Vicksburg, MS",784,787,789,795,4.176020408163258,9.374841168996193,30.0,68.0,"Mon, Aug  2, 1999","Mon, Aug  9, 1999"
3712,Jacksonville International,Jacksonville,United States,JAX,KJAX,30.494056,-81.687861,30,-5,A,"Jacksonville, FL",1925,1929,1963,1959,4.677922077922074,11.069466044582681,45.0,117.0,"Sun, Aug 15, 1999","Thu, Aug 19, 1999"
3797,John F. Kennedy International,New York,United States,JFK,KJFK,40.639751,-73.778925,13,-5,A,"New York, NY",3961,3954,4037,4009,9.338045947992931,33.337126960040315,121.0,256.0,"Fri, Aug 27, 1999","Fri, Aug 13, 1999"
3492,Juneau International,Juneau,United States,JNU,PAJN,58.354972,-134.576278,21,-9,A,"Juneau, AK",523,526,536,536,3.225621414913958,11.48859315589354,38.0,42.0,"Fri, Aug  6, 1999","Sat, Aug  7, 1999"
3514,Kona International At Keahole,Kona,United States,KOA,PHKO,19.738767,-156.045631,47,-10,N,"Kona, HI",62,62,62,62,4.209677419354837,10.048387096774194,7.0,26.0,"Wed, Aug  4, 1999","Wed, Aug 18, 1999"
3808,Ketchikan International,Ketchikan,United States,KTN,PAKT,55.355556,-131.71375,88,-9,A,"Ketchikan, AK",247,245,248,248,3.534412955465587,10.326530612244897,13.0,34.0,"Sat, Aug 21, 1999","Wed, Aug 18, 1999"
3544,Capital City,Lansing,United States,LAN,KLAN,42.7787,-84.587357,861,-5,A,"Lansing, MI",179,178,181,181,3.9385474860335195,7.702247191011236,6.0,20.0,"Wed, Aug  4, 1999","Thu, Aug  5, 1999"
3877,McCarran International,Las Vegas,United States,LAS,KLAS,36.080056,-115.15225,2141,-8,A,"Las Vegas, NV",10348,10361,10471,10474,5.140027058368768,14.68989479779944,55.0,112.0,"Sat, Aug  7, 1999","Fri, Aug 27, 1999"
3484,Los Angeles International,Los Angeles,United States,LAX,KLAX,33.942536,-118.408075,126,-8,A,"Los Angeles, CA",15994,16000,16441,16435,9.742340877829182,17.303687499999853,108.0,129.0,"Fri, Aug 27, 1999","Sun, Aug 29, 1999"
3829,Lubbock Preston Smith International,Lubbock,United States,LBB,KLBB,33.663639,-101.822778,3282,-6,A,"Lubbock, TX",492,491,501,501,2.430894308943091,6.521384928716905,5.0,22.0,"Tue, Aug 24, 1999","Fri, Aug 13, 1999"
4017,Blue Grass,Lexington KY,United States,LEX,KLEX,38.0365,-84.605889,979,-5,A,"Lexington, KY",284,282,306,302,4.176056338028167,11.308510638297873,12.0,46.0,"Sun, Aug 29, 1999","Wed, Aug 25, 1999"
3697,LaGuardia Airport,New York,United States,LGA,KLGA,40.777245,-73.872608,22,-5,A,"New York, NY",7893,7945,8345,8367,7.400608133789436,28.320075519194447,74.0,250.0,"Thu, Aug  5, 1999","Thu, Aug 26, 1999"
3582,Long Beach,Long Beach,United States,LGB,KLGB,33.817722,-118.151611,60,-8,A,"Long Beach, CA",265,264,275,275,4.864150943396226,11.416666666666668,10.0,32.0,"Sun, Aug  1, 1999","Wed, Aug 11, 1999"
3602,Lihue,Lihue,United States,LIH,PHLI,21.975983,-159.338958,153,-10,N,"Lihue, HI",35,35,35,35,5.8,6.542857142857143,7.0,18.0,"Thu, Aug  5, 1999","Sun, Aug 29, 1999"
3660,Adams Field,Little Rock,United States,LIT,KLIT,34.729444,-92.224306,262,-6,A,"Little Rock, AR",1099,1097,1103,1102,3.8507734303912655,9.6918869644485,14.0,33.0,"Tue, Aug 31, 1999","Thu, Aug  5, 1999"
3543,Lincoln,Lincoln,United States,LNK,KLNK,40.850971,-96.75925,1219,-6,A,"Lincoln, NE",268,268,270,271,3.3470149253731343,8.496268656716417,9.0,37.0,"Sat, Aug  7, 1999","Thu, Aug 26, 1999"
4044,LaCrosse Municipal,LaCrosse,United States,LSE,KLSE,43.878986,-91.256711,654,-6,A,"La Crosse, WI",27,26,27,26,4.296296296296297,13.26923076923077,6.0,35.0,"Tue, Aug  3, 1999","Tue, Aug 17, 1999"
6958,Greenbrier Valley Airport,Lewisburg,United States,LWB,KLWB,37.858333,-80.399444,2302,-5,U,"Lewisburg, WV",13,13,13,13,3.8461538461538463,7.461538461538462,7.0,16.0,"Sun, Aug  1, 1999","Wed, Aug  4, 1999"
3652,Midland International,Midland,United States,MAF,KMAF,31.942528,-102.201914,2871,-6,A,"Midland/Odessa, TX",546,544,556,554,2.3479853479853463,7.46875,10.0,20.0,"Sun, Aug  8, 1999","Mon, Aug  9, 1999"
4128,MBS International,Saginaw,United States,MBS,KMBS,43.532913,-84.079647,668,-5,A,"Saginaw/Bay City/Midland, MI",303,303,309,310,4.320132013201322,10.102310231023102,17.0,64.0,"Wed, Aug 18, 1999","Wed, Aug  4, 1999"
3458,Kansas City International,Kansas City,United States,MCI,KMCI,39.297606,-94.713905,1026,-6,A,"Kansas City, MO",5202,5202,5251,5248,4.280469050365264,10.566128412149158,40.0,95.0,"Sun, Aug  8, 1999","Sun, Aug  8, 1999"
3878,Orlando International,Orlando,United States,MCO,KMCO,28.429394,-81.308994,96,-5,A,"Orlando, FL",8163,8173,8288,8293,5.040181305892441,14.820261837758482,66.0,161.0,"Mon, Aug  2, 1999","Mon, Aug  9, 1999"
3542,Harrisburg International,Harrisburg,United States,MDT,KMDT,40.193494,-76.763403,310,-5,A,"Harrisburg, PA",620,619,638,638,4.17903225806451,12.382875605815828,8.0,258.0,"Thu, Aug 26, 1999","Tue, Aug 24, 1999"
3747,Chicago Midway International,Chicago,United States,MDW,KMDW,41.785972,-87.752417,620,-6,A,"Chicago, IL",4497,4504,4551,4554,4.422726261952395,12.227797513321507,65.0,126.0,"Tue, Aug  3, 1999","Fri, Aug 13, 1999"
3473,Memphis International,Memphis,United States,MEM,KMEM,35.042417,-89.976667,341,-6,A,"Memphis, TN",4263,4265,4315,4318,5.250527797325816,14.777960140679951,22.0,61.0,"Sun, Aug  8, 1999","Thu, Aug 12, 1999"
3826,McAllen Miller International,Mcallen,United States,MFE,KMFE,26.175833,-98.238611,107,-6,A,"Mission/McAllen/Edinburg, TX",290,287,301,300,4.117241379310341,9.226480836236933,10.0,35.0,"Wed, Aug  4, 1999","Sun, Aug 29, 1999"
4101,Rogue Valley International Medford,Medford,United States,MFR,KMFR,42.374228,-122.8735,1335,-8,A,"Medford, OR",123,122,124,124,3.6016260162601625,9.713114754098365,6.0,21.0,"Wed, Aug 18, 1999","Tue, Aug 10, 1999"
4115,Montgomery Regional Airport ,MONTGOMERY,United States,MGM,KMGM,32.3006389,-86.3939722,221,-6,A,"Montgomery, AL",92,93,93,93,4.706521739130436,10.215053763440858,7.0,23.0,"Tue, Aug  3, 1999","Wed, Aug 18, 1999"
4011,Manchester Regional Airport,Manchester NH,United States,MHT,KMHT,42.932556,-71.435667,266,-5,A,"Manchester, NH",1095,1084,1116,1114,3.966210045662099,10.899446494464934,21.0,76.0,"Fri, Aug  6, 1999","Fri, Aug 27, 1999"
3576,Miami International,Miami,United States,MIA,KMIA,25.79325,-80.290556,8,-5,A,"Miami, FL",5527,5568,5662,5664,8.155599782884027,21.067528735632145,88.0,246.0,"Sun, Aug  1, 1999","Sat, Aug 14, 1999"
3717,General Mitchell International,Milwaukee,United States,MKE,KMKE,42.947222,-87.896583,723,-6,A,"Milwaukee, WI",1272,1273,1302,1304,4.411949685534591,11.593872741555371,20.0,117.0,"Mon, Aug  2, 1999","Fri, Aug 13, 1999"
3671,Melbourne International,Melbourne,United States,MLB,KMLB,28.102753,-80.645258,33,-5,A,"Melbourne, FL",123,123,124,124,4.577235772357725,10.585365853658534,10.0,24.0,"Sun, Aug  8, 1999","Sat, Aug 14, 1999"
4072,Quad City International,Moline,United States,MLI,KMLI,41.448528,-90.507539,590,-6,A,"Moline, IL",176,174,177,176,3.0227272727272734,7.798850574712646,14.0,50.0,"Tue, Aug 10, 1999","Thu, Aug 26, 1999"
3732,Monroe Regional,Monroe,United States,MLU,KMLU,32.510864,-92.037689,79,-6,A,"Monroe, LA",185,185,185,185,4.4756756756756735,9.340540540540541,8.0,18.0,"Sun, Aug  1, 1999","Sat, Aug  7, 1999"
3782,Mobile Regional,Mobile,United States,MOB,KMOB,30.691231,-88.242814,219,-6,A,"Mobile, AL",359,360,369,370,4.454038997214485,9.497222222222204,12.0,51.0,"Sun, Aug 15, 1999","Tue, Aug 10, 1999"
3498,Minot International,Minot,United States,MOT,KMOT,48.259378,-101.280333,1716,-6,A,"Minot, ND",93,93,93,93,4.430107526881719,7.870967741935484,8.0,19.0,"Wed, Aug 11, 1999","Tue, Aug  3, 1999"
3948,Monterey Peninsula,Monterey,United States,MRY,KMRY,36.587,-121.842944,257,-8,A,"Monterey, CA",58,58,62,62,3.1379310344827585,7.551724137931035,5.0,32.0,"Sun, Aug 15, 1999","Tue, Aug  3, 1999"
3459,Dane County Regional-Truax Field,Madison,United States,MSN,KMSN,43.139858,-89.337514,887,-6,A,"Madison, WI",396,393,399,398,4.116161616161618,11.895674300254448,14.0,126.0,"Mon, Aug  9, 1999","Sat, Aug 28, 1999"
4216,Missoula International,Missoula,United States,MSO,KMSO,46.916306,-114.090556,3205,-7,A,"Missoula, MT",185,184,186,185,4.854054054054054,9.34239130434783,14.0,18.0,"Fri, Aug 13, 1999","Sat, Aug  7, 1999"
3858,Minneapolis St. Paul International,Minneapolis,United States,MSP,KMSP,44.881956,-93.221767,841,-6,A,"Minneapolis, MN",12729,12800,13034,13036,8.067326577107371,20.11507812499995,105.0,193.0,"Fri, Aug 27, 1999","Thu, Aug 12, 1999"
3861,Louis Armstrong New Orleans International,New Orleans,United States,MSY,KMSY,29.993389,-90.258028,4,-6,A,"New Orleans, LA",4141,4146,4199,4201,3.858729775416569,8.901833092136979,41.0,92.0,"Sat, Aug 21, 1999","Mon, Aug  9, 1999"
3515,Myrtle Beach International,Myrtle Beach,United States,MYR,KMYR,33.67975,-78.928333,25,-5,A,"Myrtle Beach, SC",190,190,196,196,3.957894736842105,11.242105263157894,8.0,135.0,"Thu, Aug 19, 1999","Fri, Aug 20, 1999"
3453,Metropolitan Oakland International,Oakland,United States,OAK,KOAK,37.721278,-122.220722,9,-8,A,"Oakland, CA",4773,4771,4815,4811,4.110831761994555,9.095367847411431,34.0,56.0,"Fri, Aug 27, 1999","Sat, Aug 28, 1999"
3456,Kahului,Kahului,United States,OGG,PHOG,20.89865,-156.430458,54,-10,N,"Kahului, HI",279,278,279,279,4.85304659498208,11.298561151079134,22.0,37.0,"Mon, Aug 23, 1999","Wed, Aug  4, 1999"
3863,Will Rogers World,Oklahoma City,United States,OKC,KOKC,35.393089,-97.600733,1295,-6,A,"Oklahoma City, OK",1715,1709,1729,1726,4.095626822157438,9.578700994733767,17.0,76.0,"Fri, Aug  6, 1999","Tue, Aug 24, 1999"
3454,Eppley Airfield,Omaha,United States,OMA,KOMA,41.303167,-95.894069,984,-6,A,"Omaha, NE",1486,1484,1511,1508,3.6938088829071325,10.832884097035045,17.0,81.0,"Thu, Aug 19, 1999","Sat, Aug 14, 1999"
3615,Nome,Nome,United States,OME,PAOM,64.512203,-165.445247,37,-9,A,"Nome, AK",79,80,80,80,2.6708860759493662,7.824999999999993,5.0,29.0,"Sun, Aug  1, 1999","Sat, Aug 14, 1999"
3734,Ontario International,Ontario,United States,ONT,KONT,34.056,-117.601194,944,-8,A,"Ontario, CA",2991,2995,3028,3030,3.8368438649281105,9.202671118530882,25.0,68.0,"Fri, Aug 20, 1999","Thu, Aug  5, 1999"
3830,Chicago O'Hare International,Chicago,United States,ORD,KORD,41.978603,-87.904842,668,-6,A,"Chicago, IL",25011,25097,26062,26062,8.090160329454996,19.269115830577572,228.0,253.0,"Thu, Aug 26, 1999","Fri, Aug 13, 1999"
3611,Norfolk International,Norfolk,United States,ORF,KORF,36.894611,-76.201222,26,-5,A,"Norfolk, VA",1313,1325,1381,1382,3.9215536938309214,11.155471698113214,28.0,102.0,"Sun, Aug  1, 1999","Fri, Aug 20, 1999"
3693,Ralph WienMemorial,Kotzebue,United States,OTZ,PAOT,66.884678,-162.59855,11,-9,A,"Kotzebue, AK",73,73,75,75,2.767123287671233,8.0,5.0,23.0,"Mon, Aug  9, 1999","Mon, Aug 16, 1999"
3722,Palm Beach International,West Palm Beach,United States,PBI,KPBI,26.683161,-80.095589,19,-5,A,"West Palm Beach/Palm Beach, FL",1671,1675,1713,1713,4.66666666666667,12.287164179104481,15.0,94.0,"Sun, Aug 22, 1999","Sat, Aug 21, 1999"
3720,Portland International,Portland,United States,PDX,KPDX,45.588722,-122.5975,30,-8,A,"Portland, OR",5004,5012,5068,5074,3.983013589128695,13.341181165203517,28.0,76.0,"Fri, Aug 13, 1999","Mon, Aug 23, 1999"
3752,Philadelphia International,Philadelphia,United States,PHL,KPHL,39.871944,-75.241139,36,-5,A,"Philadelphia, PA",9222,9255,9760,9751,6.968987204510945,23.611021069692086,121.0,319.0,"Thu, Aug 26, 1999","Thu, Aug 26, 1999"
3462,Phoenix Sky Harbor International,Phoenix,United States,PHX,KPHX,33.434278,-112.011583,1135,-7,N,"Phoenix, AZ",14703,14771,15088,15088,6.103176222539617,15.703743822354598,64.0,137.0,"Thu, Aug 19, 1999","Fri, Aug 27, 1999"
4046,Peoria Regional,Peoria,United States,PIA,KPIA,40.664203,-89.693258,660,-6,A,"Peoria, IL",61,60,62,62,4.704918032786885,10.033333333333333,9.0,44.0,"Thu, Aug  5, 1999","Thu, Aug 12, 1999"
3570,Pittsburgh International,Pittsburgh (pennsylva),United States,PIT,KPIT,40.491467,-80.232872,1204,-5,A,"Pittsburgh, PA",8103,8172,8507,8506,6.390472664445261,13.874326970141952,38.0,187.0,"Fri, Aug 13, 1999","Sat, Aug 14, 1999"
3564,Pensacola Regional,Pensacola,United States,PNS,KPNS,30.473425,-87.186611,121,-6,A,"Pensacola, FL",513,511,518,517,5.0955165692007744,11.185909980430525,26.0,92.0,"Thu, Aug 26, 1999","Mon, Aug  9, 1999"
6133,Tri Cities Airport,Pasco,United States,PSC,PSC,46.2647,-119.119,410,-8,A,"Pasco/Kennewick/Richland, WA",121,121,124,124,4.305785123966946,8.900826446280991,7.0,18.0,"Thu, Aug 26, 1999","Tue, Aug  3, 1999"
4147,Petersburg James A. Johnson,Petersburg,United States,PSG,PAPG,56.801667,-132.945278,105,-9,A,"Petersburg, AK",57,59,62,62,2.5789473684210527,6.661016949152542,6.0,12.0,"Tue, Aug 10, 1999","Fri, Aug 20, 1999"
3839,Palm Springs International,Palm Springs,United States,PSP,KPSP,33.829667,-116.506694,477,-8,A,"Palm Springs, CA",124,124,124,124,4.443548387096771,9.314516129032254,10.0,22.0,"Tue, Aug  3, 1999","Sat, Aug  7, 1999"
3641,Theodore Francis Green State,Providence,United States,PVD,KPVD,41.732581,-71.420383,55,-5,A,"Providence, RI",2002,2007,2022,2026,4.307192807192809,11.545092177379171,22.0,112.0,"Sun, Aug  1, 1999","Fri, Aug 13, 1999"
3862,Portland International Jetport,Portland,United States,PWM,KPWM,43.646161,-70.309281,77,-5,A,"Portland, ME",513,515,526,526,3.912280701754388,12.075728155339803,8.0,117.0,"Wed, Aug  4, 1999","Thu, Aug 26, 1999"
4087,Rapid City Regional Airport,Rapid City,United States,RAP,KRAP,44.045278,-103.057222,3204,-7,A,"Rapid City, SD",124,124,125,125,4.104838709677423,9.854838709677423,8.0,44.0,"Mon, Aug 16, 1999","Sun, Aug 15, 1999"
3626,Raleigh Durham International,Raleigh-durham,United States,RDU,KRDU,35.877639,-78.787472,435,-5,A,"Raleigh/Durham, NC",3103,3096,3176,3175,4.563970351272965,11.491602067183482,64.0,85.0,"Sat, Aug 14, 1999","Wed, Aug  4, 1999"
3608,Richmond International,Richmond,United States,RIC,KRIC,37.505167,-77.319667,167,-5,A,"Richmond, VA",1417,1411,1467,1466,4.96965419901199,11.003543586109126,17.0,52.0,"Sat, Aug 14, 1999","Thu, Aug 26, 1999"
3807,Reno Tahoe International,Reno,United States,RNO,KRNO,39.499108,-119.768108,4415,-8,A,"Reno, NV",2361,2357,2387,2384,4.320203303684883,10.499787865931259,27.0,83.0,"Sun, Aug  8, 1999","Thu, Aug  5, 1999"
4016,Roanoke Regional,Roanoke VA,United States,ROA,KROA,37.325472,-79.975417,1175,-5,A,"Roanoke, VA",190,192,205,205,4.4947368421052625,9.23958333333334,8.0,37.0,"Tue, Aug 24, 1999","Wed, Aug 25, 1999"
3622,Greater Rochester International,Rochester,United States,ROC,KROC,43.118866,-77.672389,559,-5,A,"Rochester, NY",1208,1206,1263,1262,5.710264900662247,11.181592039801002,31.0,77.0,"Fri, Aug 13, 1999","Thu, Aug 26, 1999"
4048,Rochester,Rochester,United States,RST,KRST,43.908283,-92.500014,1317,-6,A,"Rochester, MN",166,166,168,168,3.897590361445783,12.55421686746988,17.0,84.0,"Sun, Aug 15, 1999","Wed, Aug 25, 1999"
3793,Southwest Florida International,Fort Myers,United States,RSW,KRSW,26.536167,-81.755167,30,-5,A,"Fort Myers, FL",943,950,952,953,3.6702014846235427,12.790526315789466,25.0,102.0,"Sat, Aug 14, 1999","Wed, Aug 18, 1999"
3731,San Diego International,San Diego,United States,SAN,KSAN,32.733556,-117.189667,17,-8,A,"San Diego, CA",5848,5848,5909,5913,2.9709302325581395,13.370383036935703,42.0,113.0,"Mon, Aug  9, 1999","Thu, Aug 19, 1999"
3621,San Antonio International,San Antonio,United States,SAT,KSAT,29.533694,-98.469778,809,-6,A,"San Antonio, TX",3252,3251,3304,3302,2.996309963099631,9.460781298062154,20.0,151.0,"Fri, Aug 27, 1999","Thu, Aug 26, 1999"
3613,Savannah Hilton Head International,Savannah,United States,SAV,KSAV,32.127583,-81.202139,51,-5,A,"Savannah, GA",413,417,433,434,6.00726392251816,11.338129496402873,18.0,67.0,"Fri, Aug 13, 1999","Sun, Aug  8, 1999"
3949,Santa Barbara Municipal,Santa Barbara,United States,SBA,KSBA,34.426211,-119.840372,10,-8,A,"Santa Barbara, CA",116,120,124,124,2.6724137931034475,6.841666666666669,5.0,18.0,"Sun, Aug  1, 1999","Sun, Aug 29, 1999"
4359,South Bend Regional,South Bend,United States,SBN,KSBN,41.708661,-86.31725,799,-5,A,"South Bend, IN",230,232,239,240,4.065217391304349,9.37931034482758,23.0,23.0,"Thu, Aug  5, 1999","Thu, Aug 12, 1999"
3620,Deadhorse,Deadhorse,United States,SCC,PASC,70.19475,-148.465167,64,-9,A,"Deadhorse, AK",51,52,57,57,2.4901960784313726,6.884615384615385,5.0,29.0,"Wed, Aug  4, 1999","Mon, Aug 23, 1999"
4014,Louisville International Airport,Louisville,United States,SDF,KSDF,38.1740858,-85.7364989,501,-5,A,"Louisville, KY",1938,1937,1966,1965,4.518059855521148,9.80175529168816,27.0,84.0,"Mon, Aug 16, 1999","Fri, Aug 13, 1999"
3577,Seattle Tacoma International,Seattle,United States,SEA,KSEA,47.449,-122.309306,433,-8,A,"Seattle, WA",9568,9594,9721,9728,5.7573160535116985,16.799041067333704,75.0,114.0,"Fri, Aug  6, 1999","Thu, Aug  5, 1999"
3469,San Francisco International,San Francisco,United States,SFO,KSFO,37.618972,-122.374889,13,-8,A,"San Francisco, CA",11651,11687,12180,12177,5.534803879495314,17.31564986737399,59.0,125.0,"Tue, Aug 10, 1999","Fri, Aug 13, 1999"
4348,Springfield Branson National,Springfield,United States,SGF,KSGF,37.245667,-93.388639,1268,-6,A,"Springfield, MO",176,176,178,177,3.3920454545454546,10.357954545454541,8.0,40.0,"Wed, Aug 25, 1999","Tue, Aug 17, 1999"
3609,Shreveport Regional,Shreveport,United States,SHV,KSHV,32.446629,-93.8256,258,-6,A,"Shreveport, LA",329,327,332,331,4.8054711246200625,8.798165137614678,14.0,20.0,"Wed, Aug 18, 1999","Fri, Aug 27, 1999"
3856,Sitka Rocky Gutierrez,Sitka,United States,SIT,PASI,57.047138,-135.361611,21,-9,A,"Sitka, AK",152,152,155,155,3.0855263157894735,8.315789473684214,9.0,28.0,"Sat, Aug 14, 1999","Mon, Aug  9, 1999"
3748,Norman Y. Mineta San Jose International,San Jose,United States,SJC,KSJC,37.3626,-121.929022,62,-8,A,"San Jose, CA",4566,4576,4625,4623,3.763688129653961,13.203889860139872,29.0,151.0,"Mon, Aug 30, 1999","Tue, Aug 24, 1999"
3536,Salt Lake City International,Salt Lake City,United States,SLC,KSLC,40.788389,-111.977772,4227,-7,A,"Salt Lake City, UT",6999,6984,7106,7075,5.505643663380479,16.831471935853365,33.0,108.0,"Tue, Aug 31, 1999","Mon, Aug 30, 1999"
3817,Sacramento International,Sacramento,United States,SMF,KSMF,38.695417,-121.590778,27,-8,A,"Sacramento, CA",3239,3238,3252,3252,3.610373572090152,9.063619518221133,14.0,45.0,"Sun, Aug  1, 1999","Tue, Aug 10, 1999"
3867,John Wayne Airport Orange County,Santa Ana,United States,SNA,KSNA,33.675667,-117.868222,56,-8,A,"Santa Ana, CA",3047,3046,3122,3122,6.696094519199211,13.244254760341434,64.0,174.0,"Sun, Aug 22, 1999","Mon, Aug 23, 1999"
4067,Sarasota Bradenton International,Sarasota,United States,SRQ,KSRQ,27.395444,-82.554389,30,-5,A,"Sarasota/Bradenton, FL",368,368,375,374,4.369565217391306,10.779891304347824,10.0,32.0,"Sun, Aug  8, 1999","Tue, Aug 24, 1999"
3678,Lambert St. Louis International,St. Louis,United States,STL,KSTL,38.748697,-90.370028,618,-6,A,"St. Louis, MO",15225,15283,15405,15414,6.681970443349756,18.77661453903014,57.0,119.0,"Sun, Aug  1, 1999","Sat, Aug 14, 1999"
3753,Sioux Gateway-Colonel Bud Day Field,Sioux City,United States,SUX,KSUX,42.402603,-96.384367,1098,-6,A,"Sioux City, IA",62,62,62,62,4.209677419354839,9.629032258064516,25.0,88.0,"Sat, Aug  7, 1999","Sat, Aug 14, 1999"
3661,Stewart International,Newburgh,United States,SWF,KSWF,41.504094,-74.104839,491,-5,A,"Newburgh/Poughkeepsie, NY",122,122,124,124,4.524590163934424,13.71311475409836,11.0,83.0,"Sun, Aug  1, 1999","Fri, Aug 13, 1999"
3745,Syracuse Hancock International,Syracuse,United States,SYR,KSYR,43.111187,-76.106311,421,-5,A,"Syracuse, NY",912,913,941,944,4.519736842105269,11.909090909090914,22.0,247.0,"Wed, Aug  4, 1999","Sat, Aug 14, 1999"
3698,Tallahassee Regional,Tallahassee,United States,TLH,KTLH,30.396528,-84.350333,81,-5,A,"Tallahassee, FL",178,178,186,186,3.9831460674157335,10.52247191011235,19.0,55.0,"Sat, Aug 14, 1999","Sun, Aug  8, 1999"
4040,Toledo,Toledo,United States,TOL,KTOL,41.586806,-83.807833,684,-5,A,"Toledo, OH",79,79,88,88,2.9620253164556964,9.670886075949367,5.0,21.0,"Tue, Aug 10, 1999","Thu, Aug 26, 1999"
3646,Tampa International,Tampa,United States,TPA,KTPA,27.975472,-82.53325,26,-5,A,"Tampa, FL",5053,5048,5125,5123,4.479319216307156,12.7797147385103,102.0,151.0,"Wed, Aug 18, 1999","Mon, Aug  9, 1999"
4116,Tri-Cities Regional Airport,BRISTOL,United States,TRI,KTRI,36.4752222,-82.4074167,1519,-5,A,"Bristol/Johnson City/Kingsport, TN",102,102,112,112,4.088235294117644,6.2254901960784315,9.0,24.0,"Thu, Aug 26, 1999","Fri, Aug 13, 1999"
3855,Tulsa International,Tulsa,United States,TUL,KTUL,36.198389,-95.888111,677,-6,A,"Tulsa, OK",1598,1592,1626,1622,3.617647058823528,11.071608040201001,18.0,74.0,"Fri, Aug 20, 1999","Tue, Aug 24, 1999"
3636,Tucson International,Tucson,United States,TUS,KTUS,32.116083,-110.941028,2643,-7,N,"Tucson, AZ",1603,1601,1645,1647,4.059887710542724,10.46408494690819,66.0,61.0,"Thu, Aug 19, 1999","Wed, Aug 11, 1999"
4023,Cherry Capital Airport,Traverse City,United States,TVC,KTVC,44.741445,-85.582235,624,-5,A,"Traverse City, MI",93,92,93,93,3.204301075268817,12.09782608695652,8.0,28.0,"Sun, Aug 29, 1999","Fri, Aug  6, 1999"
3676,McGhee Tyson,Knoxville,United States,TYS,KTYS,35.810972,-83.994028,981,-5,A,"Knoxville, TN",543,548,556,560,4.694290976058937,11.235401459854014,11.0,45.0,"Sun, Aug 29, 1999","Thu, Aug 26, 1999"
3873,Eglin AFB,Valparaiso,United States,VPS,KVPS,30.48325,-86.5254,87,-6,A,"Valparaiso, FL",93,93,93,93,7.827956989247315,8.526881720430108,11.0,21.0,"Sun, Aug  1, 1999","Mon, Aug 30, 1999"
5969,Wrangell Airport,Wrangell,United States,WRG,PAWG,56.4843,-132.37,44,-9,A,"Wrangell, AK",59,59,62,62,2.711864406779661,6.5423728813559325,6.0,11.0,"Mon, Aug  9, 1999","Fri, Aug 13, 1999"
6803,Yakutat,Yakutat,United States,YAK,PAYA,59.3012,-139.3937,33,-9,A,"Yakutat, AK",60,61,62,62,2.9,6.688524590163934,7.0,23.0,"Sat, Aug 14, 1999","Thu, Aug 19, 1999"
