airport_id,name,city,country,iata_faa,iaco,latitude,longitude,altitude,zone,dst,city_state,avg_able_landings,avg_able_takeoffs,total_landings,total_takeoffs,avg_taxi_in,avg_taxi_out,longest_taxi_in,longest_taxi_out,lng_tx_in_date,lng_tx_out_date
4355,Lehigh Valley International,Allentown,United States,ABE,KABE,40.652083,-75.440806,393,-5,A,"Allentown/Bethlehem/Easton, PA",501,501,516,516,3.908183632734533,12.74251497005988,9.0,152.0,"Thu, Jun 24, 1999","Wed, Jun  2, 1999"
4019,Albuquerque International Sunport,Albuquerque,United States,ABQ,KABQ,35.0402222,-106.6091944,5355,-7,A,"Albuquerque, NM",3112,3109,3151,3154,4.677377892030838,10.904792537793517,35.0,128.0,"Thu, Jun 10, 1999","Fri, Jun 25, 1999"
3531,Kodiak,Kodiak,United States,ADQ,PADQ,57.749967,-152.493856,78,-9,A,"Kodiak, AK",54,54,60,60,2.574074074074074,8.462962962962964,6.0,28.0,"Wed, Jun  2, 1999","Sat, Jun 26, 1999"
3658,Augusta Regional At Bush Field,Bush Field,United States,AGS,KAGS,33.369944,-81.9645,144,-5,A,"Augusta, GA",144,144,150,150,4.645833333333334,12.354166666666668,8.0,56.0,"Tue, Jun  8, 1999","Tue, Jun 29, 1999"
3794,King Salmon,King Salmon,United States,AKN,PAKN,58.676778,-156.649278,68,-9,A,"King Salmon, AK",41,41,41,41,3.268292682926829,6.951219512195122,7.0,23.0,"Sun, Jun 20, 1999","Wed, Jun  2, 1999"
3864,Albany International,Albany,United States,ALB,KALB,42.748267,-73.801692,285,-5,A,"Albany, NY",931,931,966,965,4.141783029001081,12.293233082706779,15.0,183.0,"Fri, Jun  4, 1999","Wed, Jun  9, 1999"
3840,Rick Husband Amarillo International,Amarillo,United States,AMA,KAMA,35.219369,-101.705931,3607,-6,A,"Amarillo, TX",393,396,398,400,3.5954198473282455,8.068181818181817,20.0,48.0,"Sat, Jun 12, 1999","Tue, Jun  1, 1999"
3774,Ted Stevens Anchorage International,Anchorage,United States,ANC,PANC,61.174361,-149.996361,152,-9,A,"Anchorage, AK",2097,2102,2175,2171,4.506914639961849,12.21598477640343,31.0,50.0,"Thu, Jun 10, 1999","Thu, Jun 17, 1999"
3682,Hartsfield Jackson Atlanta International,Atlanta,United States,ATL,KATL,33.636719,-84.428067,1026,-5,A,"Atlanta, GA",21117,21228,21812,21818,8.684188094899934,22.177925381571505,74.0,256.0,"Mon, Jun 28, 1999","Mon, Jun 14, 1999"
3673,Austin Bergstrom International,Austin,United States,AUS,KAUS,30.194528,-97.669889,542,-6,A,"Austin, TX",3641,3643,3717,3720,5.12908541609448,11.027175404886119,69.0,238.0,"Wed, Jun 30, 1999","Fri, Jun 25, 1999"
4007,Asheville Regional Airport,Asheville,United States,AVL,KAVL,35.436194,-82.541806,2165,-5,A,"Asheville, NC",114,115,120,120,3.263157894736842,9.356521739130443,8.0,27.0,"Thu, Jun 10, 1999","Fri, Jun 25, 1999"
4286,Wilkes Barre Scranton International,Scranton,United States,AVP,KAVP,41.338478,-75.723403,962,-5,A,"Scranton/Wilkes-Barre, PA",124,127,133,133,3.5403225806451615,7.984251968503944,6.0,18.0,"Wed, Jun 16, 1999","Mon, Jun 28, 1999"
4039,Kalamazoo,Kalamazoo,United States,AZO,KAZO,42.234875,-85.552058,874,-5,A,"Kalamazoo, MI",162,162,166,166,4.302469135802467,8.222222222222225,26.0,37.0,"Mon, Jun 14, 1999","Wed, Jun 16, 1999"
3825,Bradley International,Windsor Locks,United States,BDL,KBDL,41.938889,-72.683222,173,-5,A,"Hartford, CT",2440,2447,2525,2535,4.482377049180325,13.1814466693911,27.0,134.0,"Mon, Jun 28, 1999","Mon, Jun 28, 1999"
3599,Bethel,Bethel,United States,BET,PABE,60.779778,-161.838,121,-9,A,"Bethel, AK",84,83,86,86,2.773809523809524,7.0120481927710845,7.0,19.0,"Thu, Jun  3, 1999","Fri, Jun 18, 1999"
3558,Meadows Field,Bakersfield,United States,BFL,KBFL,35.433598,-119.05677,507,-8,A,"Bakersfield, CA",30,29,30,29,6.333333333333333,10.10344827586207,10.0,25.0,"Fri, Jun 11, 1999","Tue, Jun  8, 1999"
4129,Greater Binghamton-Edwin A. Link Field,Binghamton,United States,BGM,KBGM,42.208689,-75.979839,1636,-5,A,"Binghamton, NY",80,81,86,86,4.187499999999999,7.185185185185185,7.0,19.0,"Thu, Jun 24, 1999","Fri, Jun  4, 1999"
3811,Birmingham International,Birmingham,United States,BHM,KBHM,33.562942,-86.75355,644,-6,A,"Birmingham, AL",1745,1743,1778,1772,3.7243553008595986,10.40963855421688,12.0,66.0,"Wed, Jun 30, 1999","Thu, Jun  3, 1999"
4021,Billings Logan International Airport,Billings,United States,BIL,KBIL,45.80921,-108.537654,3652,-7,A,"Billings, MT",235,233,240,240,4.051063829787235,10.317596566523601,15.0,23.0,"Tue, Jun  1, 1999","Tue, Jun  8, 1999"
4083,Bismarck Municipal Airport,Bismarck,United States,BIS,KBIS,46.775842,-100.757931,1661,-6,A,"Bismarck/Mandan, ND",118,118,120,120,3.711864406779661,7.372881355932203,6.0,20.0,"Sat, Jun 26, 1999","Sun, Jun 13, 1999"
3690,Nashville International,Nashville,United States,BNA,KBNA,36.124472,-86.678194,599,-6,A,"Nashville, TN",4477,4478,4549,4545,5.05003350457897,10.992630638677992,31.0,148.0,"Sun, Jun 20, 1999","Sun, Jun  6, 1999"
3495,Boise Air Terminal,Boise,United States,BOI,KBOI,43.564361,-116.222861,2871,-7,A,"Boise, ID",962,964,968,969,3.1237006237006235,9.098547717842335,13.0,40.0,"Tue, Jun 29, 1999","Fri, Jun 11, 1999"
3448,General Edward Lawrence Logan International,Boston,United States,BOS,KBOS,42.364347,-71.005181,19,-5,A,"Boston, MA",8640,8642,9141,9149,8.001851851851857,20.517357093265453,69.0,299.0,"Tue, Jun 29, 1999","Fri, Jun 11, 1999"
3571,Wiley Post Will Rogers Memorial,Barrow,United States,BRW,PABR,71.285446,-156.766003,44,-9,A,"Barrow, AK",77,77,86,86,3.142857142857143,6.2727272727272725,10.0,19.0,"Tue, Jun 29, 1999","Wed, Jun  9, 1999"
3846,Baton Rouge Metro-Ryan Field,Baton Rouge,United States,BTR,KBTR,30.533167,-91.149639,70,-6,A,"Baton Rouge, LA",380,380,386,386,4.284210526315794,10.178947368421051,30.0,51.0,"Wed, Jun 23, 1999","Wed, Jun  9, 1999"
3711,Burlington International,Burlington,United States,BTV,KBTV,44.471861,-73.153278,335,-5,A,"Burlington, VT",220,220,231,231,3.6454545454545455,10.695454545454547,9.0,155.0,"Sat, Jun 19, 1999","Fri, Jun 11, 1999"
3820,Buffalo Niagara International,Buffalo,United States,BUF,KBUF,42.940525,-78.732167,724,-5,A,"Buffalo, NY",1605,1597,1665,1660,3.6155763239875403,10.647463994990598,36.0,99.0,"Tue, Jun  8, 1999","Tue, Jun 29, 1999"
3644,Bob Hope,Burbank,United States,BUR,KBUR,34.200667,-118.358667,778,-8,A,"Burbank, CA",2334,2334,2364,2366,2.1023993144815796,9.378748928877444,22.0,45.0,"Fri, Jun 25, 1999","Thu, Jun 10, 1999"
3849,Baltimore Washington International,Baltimore,United States,BWI,KBWI,39.175361,-76.668333,146,-5,A,"Baltimore, MD",6738,6759,6850,6854,4.411101216978322,12.46722888001183,58.0,173.0,"Sat, Jun 26, 1999","Tue, Jun 29, 1999"
4020,Gallatin Field,Bozeman,United States,BZN,KBZN,45.777643,-111.160151,4500,-7,A,"Bozeman, MT",127,126,127,127,4.511811023622044,11.174603174603178,10.0,53.0,"Sun, Jun 20, 1999","Mon, Jun 14, 1999"
3561,Columbia Metropolitan,Colombia,United States,CAE,KCAE,33.938833,-81.119528,236,-5,A,"Columbia, SC",378,377,401,401,4.6296296296296315,12.885941644562335,12.0,76.0,"Fri, Jun 25, 1999","Sat, Jun 26, 1999"
4112,Akron Canton Regional Airport,Akron,United States,CAK,KCAK,40.9160833,-81.4421944,1228,-5,A,"Akron, OH",81,80,86,86,4.234567901234568,8.637500000000003,9.0,18.0,"Sun, Jun  6, 1999","Mon, Jun  7, 1999"
3610,Merle K. Mudhole Smith,Cordova,United States,CDV,PACV,60.491778,-145.477556,48,-9,A,"Cordova, AK",60,60,60,60,3.0000000000000004,6.583333333333333,6.0,14.0,"Thu, Jun 17, 1999","Sun, Jun 27, 1999"
3578,Lovell Field,Chattanooga,United States,CHA,KCHA,35.035278,-85.203808,683,-5,A,"Chattanooga, TN",82,82,86,86,3.9146341463414633,8.32926829268293,9.0,16.0,"Sat, Jun 12, 1999","Mon, Jun 28, 1999"
3806,Charleston AFB International,Charleston,United States,CHS,KCHS,32.898647,-80.040528,45,-5,A,"Charleston, SC",578,578,592,591,4.589965397923871,10.896193771626292,12.0,70.0,"Wed, Jun 23, 1999","Sat, Jun 12, 1999"
4043,Cedar Rapids,Cedar Rapids,United States,CID,KCID,41.884694,-91.710806,869,-6,A,"Cedar Rapids/Iowa City, IA",423,421,460,460,3.8817966903073287,9.876484560570075,13.0,98.0,"Tue, Jun  1, 1999","Tue, Jun 22, 1999"
3486,Cleveland Hopkins International,Cleveland,United States,CLE,KCLE,41.411689,-81.849794,791,-5,A,"Cleveland, OH",4695,4709,4787,4787,4.477742279020233,16.961138245912093,42.0,133.0,"Sun, Jun 13, 1999","Sun, Jun 27, 1999"
3876,Charlotte Douglas International,Charlotte,United States,CLT,KCLT,35.214,-80.943139,748,-5,A,"Charlotte, NC",9651,9700,10053,10054,5.4760128484094865,14.961649484536077,39.0,115.0,"Sat, Jun 26, 1999","Sun, Jun  6, 1999"
3759,Port Columbus International,Columbus,United States,CMH,KCMH,39.997972,-82.891889,815,-5,A,"Columbus, OH",3095,3094,3175,3175,4.494668820678512,11.615707821590188,26.0,158.0,"Fri, Jun 11, 1999","Tue, Jun  1, 1999"
3819,City Of Colorado Springs Municipal,Colorado Springs,United States,COS,KCOS,38.805805,-104.700778,6187,-7,A,"Colorado Springs, CO",976,975,1005,1004,6.6577868852458995,14.174358974358974,38.0,144.0,"Wed, Jun  2, 1999","Tue, Jun  1, 1999"
3744,Corpus Christi International,Corpus Christi,United States,CRP,KCRP,27.770361,-97.501222,44,-6,A,"Corpus Christi, TX",246,250,251,251,3.317073170731707,6.736,23.0,39.0,"Fri, Jun 25, 1999","Fri, Jun  4, 1999"
4285,Yeager,Charleston,United States,CRW,KCRW,38.373147,-81.593189,981,-5,A,"Charleston/Dunbar, WV",107,103,112,112,3.4392523364485985,7.106796116504855,11.0,20.0,"Fri, Jun 18, 1999","Sun, Jun 20, 1999"
3488,Cincinnati Northern Kentucky International,Cincinnati,United States,CVG,KCVG,39.048836,-84.667822,896,-5,A,"Cincinnati, OH",6315,6324,6457,6455,6.371654790182109,17.048070841239706,85.0,140.0,"Tue, Jun 29, 1999","Tue, Jun  1, 1999"
3950,Daytona Beach International,Daytona Beach,United States,DAB,KDAB,29.179917,-81.058056,34,-5,A,"Daytona Beach, FL",178,180,180,180,3.8258426966292127,11.538888888888884,9.0,27.0,"Thu, Jun  3, 1999","Wed, Jun  9, 1999"
3502,Dallas Love Field,Dallas,United States,DAL,KDAL,32.847111,-96.851778,487,-6,A,"Dallas, TX",4091,4116,4235,4235,2.9110241994622346,9.420068027210894,18.0,126.0,"Thu, Jun 10, 1999","Thu, Jun 10, 1999"
3627,James M. Cox Dayton International,Dayton,United States,DAY,KDAY,39.902375,-84.219375,1009,-5,A,"Dayton, OH",879,888,924,924,4.627986348122873,12.36599099099099,29.0,84.0,"Sun, Jun 20, 1999","Tue, Jun  1, 1999"
3520,Ronald Reagan Washington National,Washington,United States,DCA,KDCA,38.852083,-77.037722,15,-5,A,"Washington, DC",6608,6629,6971,6983,4.869249394673119,16.831347111178147,60.0,208.0,"Fri, Jun 11, 1999","Fri, Jun 11, 1999"
3751,Denver International,Denver,United States,DEN,KDEN,39.861656,-104.673178,5431,-7,A,"Denver, CO",11127,11164,11439,11435,7.120068302327666,16.17520601934785,68.0,198.0,"Thu, Jun 10, 1999","Thu, Jun 10, 1999"
3670,Dallas Fort Worth International,Dallas-fort Worth,United States,DFW,KDFW,32.896828,-97.037997,607,-6,A,"Dallas/Fort Worth, TX",19655,19728,20340,20324,10.29056219791408,21.827858880778525,107.0,224.0,"Thu, Jun 10, 1999","Thu, Jun 10, 1999"
3460,Dillingham,Dillingham,United States,DLG,PADL,59.044667,-158.5055,74,-9,A,"Dillingham, AK",39,40,40,40,2.4615384615384617,6.525,4.0,11.0,"Fri, Jun  4, 1999","Tue, Jun  8, 1999"
3598,Duluth International,Duluth,United States,DLH,KDLH,46.842091,-92.193649,1428,-6,A,"Duluth, MN",84,82,86,86,3.4523809523809526,8.658536585365857,8.0,39.0,"Tue, Jun 15, 1999","Fri, Jun  4, 1999"
3729,Des Moines International,Des Moines,United States,DSM,KDSM,41.533972,-93.663083,958,-6,A,"Des Moines, IA",570,568,587,586,4.577192982456144,11.130281690140848,22.0,74.0,"Thu, Jun 17, 1999","Mon, Jun 28, 1999"
3645,Detroit Metro Wayne County,Detroit,United States,DTW,KDTW,42.212444,-83.353389,645,-5,A,"Detroit, MI",12648,12749,13058,13049,9.69829222011388,21.42748450858893,195.0,216.0,"Sat, Jun 12, 1999","Sat, Jun 12, 1999"
3860,Unalaska,Unalaska,United States,DUT,PADU,53.900139,-166.5435,22,-9,A,"Unalaska, AK",39,39,57,57,2.051282051282051,5.3076923076923075,3.0,13.0,"Wed, Jun  2, 1999","Wed, Jun 30, 1999"
3946,Elmira Corning Regional,Elmira,United States,ELM,KELM,42.159889,-76.891611,954,-5,A,"Elmira/Corning, NY",100,101,104,104,4.0,7.099009900990099,7.0,19.0,"Tue, Jun 22, 1999","Wed, Jun 23, 1999"
3559,El Paso International,El Paso,United States,ELP,KELP,31.80725,-106.377583,3958,-7,A,"El Paso, TX",2072,2067,2090,2089,3.2408301158301143,10.090953072085158,44.0,76.0,"Sat, Jun 26, 1999","Thu, Jun 17, 1999"
4276,Erie International-Tom Ridge Field,Erie,United States,ERI,KERI,42.082022,-80.176217,733,-5,A,"Erie, PA",107,106,110,110,3.542056074766355,6.679245283018868,8.0,16.0,"Mon, Jun 21, 1999","Thu, Jun  3, 1999"
4099,Mahlon Sweet Field,Eugene,United States,EUG,KEUG,44.124583,-123.211972,374,-8,A,"Eugene, OR",181,180,181,181,3.1546961325966865,8.849999999999998,6.0,24.0,"Sun, Jun 20, 1999","Mon, Jun  7, 1999"
3494,Newark Liberty International,Newark,United States,EWR,KEWR,40.6925,-74.168667,18,-5,A,"Newark, NJ",10077,10099,10575,10575,9.716483080281797,31.795425289632636,138.0,324.0,"Mon, Jun  7, 1999","Mon, Jun  7, 1999"
3832,Fairbanks International,Fairbanks,United States,FAI,PAFA,64.815114,-147.856267,434,-9,A,"Fairbanks, AK",515,514,529,528,3.145631067961165,9.737354085603123,8.0,27.0,"Wed, Jun  2, 1999","Mon, Jun 28, 1999"
4292,Hector International Airport,Fargo,United States,FAR,KFAR,46.92065,-96.8157639,902,-6,A,"Fargo, ND",201,201,203,203,4.378109452736317,11.278606965174127,13.0,195.0,"Tue, Jun 22, 1999","Wed, Jun  9, 1999"
3687,Fresno Yosemite International,Fresno,United States,FAT,KFAT,36.776194,-119.71814,336,-8,A,"Fresno, CA",29,30,29,30,4.862068965517241,12.433333333333334,8.0,36.0,"Tue, Jun  1, 1999","Tue, Jun  8, 1999"
5738,Fayetteville Regional-Grannis Field,Fayetteville,United States,FAY,KFAY,34.9912,-78.8803,189,-5,A,"Fayetteville, NC",114,114,120,120,3.973684210526317,8.166666666666666,7.0,18.0,"Wed, Jun 16, 1999","Sun, Jun 20, 1999"
4127,Glacier Park International,Kalispell,United States,FCA,KFCA,48.310472,-114.256,2977,-7,A,"Kalispell, MT",88,115,90,116,4.761363636363638,10.269565217391303,13.0,42.0,"Mon, Jun  7, 1999","Tue, Jun  8, 1999"
3533,Fort Lauderdale Hollywood International,Fort Lauderdale,United States,FLL,KFLL,26.072583,-80.15275,9,-5,A,"Fort Lauderdale, FL",3528,3539,3578,3577,4.362244897959193,16.00395591975137,32.0,177.0,"Mon, Jun 14, 1999","Tue, Jun 29, 1999"
4089,Bishop International,Flint,United States,FNT,KFNT,42.965424,-83.743629,782,-5,A,"Flint, MI",113,113,116,116,4.265486725663718,13.123893805309734,11.0,40.0,"Fri, Jun 18, 1999","Thu, Jun 24, 1999"
4009,Sioux Falls,Sioux Falls,United States,FSD,KFSD,43.582014,-96.741914,1429,-6,A,"Sioux Falls, SD",308,307,310,309,5.019480519480519,11.938110749185675,11.0,87.0,"Sun, Jun  6, 1999","Tue, Jun 22, 1999"
4041,Fort Wayne,Fort Wayne,United States,FWA,KFWA,40.978472,-85.195139,815,-5,A,"Fort Wayne, IN",55,54,55,54,4.636363636363636,9.75925925925926,10.0,18.0,"Mon, Jun 14, 1999","Sat, Jun 26, 1999"
3467,Spokane International,Spokane,United States,GEG,KGEG,47.619861,-117.533833,2376,-8,A,"Spokane, WA",1149,1147,1158,1156,3.383812010443863,8.976460331299034,12.0,27.0,"Sat, Jun 12, 1999","Sun, Jun 20, 1999"
3442,Grand Forks International,Grand Forks,United States,GFK,KGFK,47.949256,-97.176111,845,-6,A,"Grand Forks, ND",83,83,86,86,3.6506024096385543,7.939759036144577,6.0,84.0,"Wed, Jun 23, 1999","Sat, Jun  5, 1999"
4038,Gulfport-Biloxi,Gulfport,United States,GPT,KGPT,30.407278,-89.070111,28,-6,A,"Gulfport/Biloxi, MS",90,90,90,90,5.199999999999998,7.022222222222222,9.0,21.0,"Tue, Jun 22, 1999","Sun, Jun 13, 1999"
3653,Austin Straubel International,Green Bay,United States,GRB,KGRB,44.485072,-88.129589,695,-6,A,"Green Bay, WI",189,190,194,194,4.179894179894181,11.384210526315789,8.0,44.0,"Sun, Jun  6, 1999","Wed, Jun  9, 1999"
3685,Gerald R. Ford International,Grand Rapids,United States,GRR,KGRR,42.880833,-85.522806,794,-5,A,"Grand Rapids, MI",699,694,716,717,4.121602288984264,10.285302593659939,10.0,64.0,"Sun, Jun  6, 1999","Tue, Jun  1, 1999"
4008,Piedmont Triad,Greensboro,United States,GSO,KGSO,36.09775,-79.937306,925,-5,A,"Greensboro/High Point, NC",1151,1150,1207,1202,4.1442224152910505,13.589565217391298,12.0,96.0,"Tue, Jun 22, 1999","Thu, Jun  3, 1999"
4034,Greenville-Spartanburg International,Greenville,United States,GSP,KGSP,34.895556,-82.218889,964,-5,A,"Greer, SC",548,547,579,580,3.680656934306569,12.11882998171846,22.0,69.0,"Fri, Jun 25, 1999","Thu, Jun  3, 1999"
5960,Gustavus Airport,Gustavus,United States,GST,PAGS,58.4253,-135.707,34,-9,A,"Gustavus, AK",25,25,25,25,2.84,8.72,4.0,33.0,"Thu, Jun 17, 1999","Sat, Jun 19, 1999"
3880,Great Falls International,Great Falls,United States,GTF,KGTF,47.482,-111.370689,3677,-7,A,"Great Falls, MT",180,179,180,179,4.2722222222222195,8.759776536312849,7.0,19.0,"Thu, Jun  3, 1999","Sat, Jun 12, 1999"
3504,Helena Regional,Helena,United States,HLN,KHLN,46.606806,-111.98275,3877,-7,A,"Helena, MT",88,89,90,90,3.1818181818181817,9.179775280898882,7.0,20.0,"Tue, Jun 15, 1999","Thu, Jun 24, 1999"
3728,Honolulu International,Honolulu,United States,HNL,PHNL,21.318681,-157.922428,13,-10,N,"Honolulu, HI",891,899,903,903,4.288439955106623,19.045606229143527,23.0,64.0,"Sun, Jun 20, 1999","Mon, Jun 14, 1999"
3566,William P. Hobby,Houston,United States,HOU,KHOU,29.645419,-95.278889,46,-6,A,"Houston, TX",4667,4703,4800,4798,4.407756588815083,8.992132681267307,124.0,161.0,"Fri, Jun 18, 1999","Sat, Jun 12, 1999"
3589,Westchester County,White Plains,United States,HPN,KHPN,41.066959,-73.707575,439,-5,A,"White Plains, NY",370,373,425,425,5.629729729729732,18.05093833780162,34.0,204.0,"Wed, Jun  2, 1999","Wed, Jun  9, 1999"
3560,Valley International,Harlingen,United States,HRL,KHRL,26.2285,-97.654389,36,-6,A,"Harlingen/San Benito, TX",344,345,347,347,2.0930232558139545,6.060869565217395,12.0,33.0,"Sat, Jun 26, 1999","Fri, Jun 25, 1999"
4113,Huntsville International Airport-Carl T. Jones Field,Huntsville,United States,HSV,KHSV,34.6371944,-86.7750556,629,-6,A,"Huntsville, AL",471,471,499,498,5.010615711252654,12.40339702760085,12.0,77.0,"Tue, Jun 29, 1999","Sat, Jun 26, 1999"
3714,Washington Dulles International,Washington,United States,IAD,KIAD,38.944533,-77.455811,313,-5,A,"Washington, DC",6069,6094,6435,6435,6.3639808864722465,20.353626517886468,42.0,239.0,"Mon, Jun 28, 1999","Mon, Jun 28, 1999"
3550,George Bush Intercontinental Houston,Houston,United States,IAH,KIAH,29.984433,-95.341442,97,-6,A,"Houston, TX",10353,10504,10750,10744,7.288901767603593,19.73619573495811,79.0,210.0,"Sun, Jun 13, 1999","Tue, Jun 22, 1999"
3457,Wichita Mid Continent,Wichita,United States,ICT,KICT,37.649944,-97.433056,1333,-6,A,"Wichita, KS",477,478,505,506,4.343815513626836,11.757322175732213,9.0,85.0,"Tue, Jun 15, 1999","Sun, Jun  6, 1999"
3845,Wilmington International,Wilmington,United States,ILM,KILM,34.270615,-77.902569,32,-5,A,"Wilmington, NC",172,170,173,173,3.9069767441860463,8.899999999999997,10.0,20.0,"Fri, Jun 25, 1999","Tue, Jun 15, 1999"
3585,Indianapolis International,Indianapolis,United States,IND,KIND,39.717331,-86.294383,797,-5,A,"Indianapolis, IN",2863,2868,2944,2944,7.5515193852602165,13.187587168758716,69.0,218.0,"Thu, Jun  3, 1999","Sun, Jun  6, 1999"
3857,Long Island MacArthur,Islip,United States,ISP,KISP,40.79525,-73.100222,99,-5,A,"Islip, NY",591,592,600,600,3.883248730964467,10.554054054054053,19.0,109.0,"Mon, Jun 28, 1999","Wed, Jun  9, 1999"
3947,Ithaca Tompkins Regional,Ithaca,United States,ITH,KITH,42.491028,-76.458444,1099,-5,A,"Ithaca/Cortland, NY",101,102,104,104,4.178217821782179,10.37254901960784,8.0,124.0,"Sun, Jun 27, 1999","Wed, Jun  2, 1999"
4027,Jackson Hole Airport,Jacksn Hole,United States,JAC,KJAC,43.60733333,-110.73775,6451,-7,A,"Jackson, WY",73,72,73,72,3.3698630136986303,14.694444444444445,6.0,39.0,"Mon, Jun 21, 1999","Fri, Jun 25, 1999"
3580,Jackson Evers International,Jackson,United States,JAN,KJAN,32.311167,-90.075889,346,-6,A,"Jackson/Vicksburg, MS",756,766,765,772,4.605820105820102,9.580939947780669,23.0,46.0,"Tue, Jun  1, 1999","Mon, Jun 14, 1999"
3712,Jacksonville International,Jacksonville,United States,JAX,KJAX,30.494056,-81.687861,30,-5,A,"Jacksonville, FL",1873,1881,1889,1889,4.794981313400961,11.092503987240823,36.0,99.0,"Fri, Jun 25, 1999","Wed, Jun 16, 1999"
3797,John F. Kennedy International,New York,United States,JFK,KJFK,40.639751,-73.778925,13,-5,A,"New York, NY",3814,3800,3876,3849,8.584687991609854,30.488157894736833,77.0,273.0,"Wed, Jun  2, 1999","Tue, Jun  1, 1999"
3492,Juneau International,Juneau,United States,JNU,PAJN,58.354972,-134.576278,21,-9,A,"Juneau, AK",480,481,485,485,3.095833333333334,10.665280665280669,20.0,37.0,"Sun, Jun  6, 1999","Fri, Jun  4, 1999"
3514,Kona International At Keahole,Kona,United States,KOA,PHKO,19.738767,-156.045631,47,-10,N,"Kona, HI",60,60,60,60,4.166666666666666,9.966666666666663,7.0,25.0,"Sat, Jun 26, 1999","Fri, Jun 25, 1999"
3808,Ketchikan International,Ketchikan,United States,KTN,PAKT,55.355556,-131.71375,88,-9,A,"Ketchikan, AK",233,234,235,235,3.4463519313304727,10.324786324786329,9.0,36.0,"Fri, Jun 25, 1999","Tue, Jun 29, 1999"
3544,Capital City,Lansing,United States,LAN,KLAN,42.7787,-84.587357,861,-5,A,"Lansing, MI",173,174,176,176,4.052023121387284,8.362068965517242,6.0,34.0,"Sat, Jun  5, 1999","Sat, Jun 12, 1999"
3877,McCarran International,Las Vegas,United States,LAS,KLAS,36.080056,-115.15225,2141,-8,A,"Las Vegas, NV",9862,9860,9932,9931,4.845163252889855,14.73894523326572,51.0,296.0,"Tue, Jun  8, 1999","Thu, Jun 10, 1999"
3484,Los Angeles International,Los Angeles,United States,LAX,KLAX,33.942536,-118.408075,126,-8,A,"Los Angeles, CA",15238,15260,15688,15688,8.826617666360448,16.478702490170352,139.0,243.0,"Fri, Jun 25, 1999","Thu, Jun 10, 1999"
3829,Lubbock Preston Smith International,Lubbock,United States,LBB,KLBB,33.663639,-101.822778,3282,-6,A,"Lubbock, TX",475,479,485,485,2.564210526315788,7.217118997912319,13.0,34.0,"Fri, Jun 11, 1999","Fri, Jun 11, 1999"
4017,Blue Grass,Lexington KY,United States,LEX,KLEX,38.0365,-84.605889,979,-5,A,"Lexington, KY",318,318,326,324,4.62264150943396,11.056603773584909,18.0,69.0,"Tue, Jun 29, 1999","Mon, Jun 28, 1999"
3697,LaGuardia Airport,New York,United States,LGA,KLGA,40.777245,-73.872608,22,-5,A,"New York, NY",7612,7667,8077,8094,7.078166053599581,31.32659449589147,82.0,214.0,"Sun, Jun 13, 1999","Wed, Jun  9, 1999"
3582,Long Beach,Long Beach,United States,LGB,KLGB,33.817722,-118.151611,60,-8,A,"Long Beach, CA",263,263,266,266,4.768060836501901,11.410646387832703,12.0,33.0,"Tue, Jun 29, 1999","Thu, Jun 17, 1999"
3602,Lihue,Lihue,United States,LIH,PHLI,21.975983,-159.338958,153,-10,N,"Lihue, HI",33,32,33,33,5.484848484848484,6.5,8.0,16.0,"Wed, Jun 16, 1999","Sat, Jun  5, 1999"
3660,Adams Field,Little Rock,United States,LIT,KLIT,34.729444,-92.224306,262,-6,A,"Little Rock, AR",1049,1050,1071,1072,4.227836034318396,10.63238095238095,24.0,107.0,"Sun, Jun 13, 1999","Tue, Jun 29, 1999"
3543,Lincoln,Lincoln,United States,LNK,KLNK,40.850971,-96.75925,1219,-6,A,"Lincoln, NE",252,250,261,262,3.619047619047619,9.592000000000006,9.0,83.0,"Sun, Jun 20, 1999","Sat, Jun 12, 1999"
4044,LaCrosse Municipal,LaCrosse,United States,LSE,KLSE,43.878986,-91.256711,654,-6,A,"La Crosse, WI",81,80,86,85,3.2222222222222223,9.612500000000002,7.0,45.0,"Thu, Jun 10, 1999","Thu, Jun 24, 1999"
6958,Greenbrier Valley Airport,Lewisburg,United States,LWB,KLWB,37.858333,-80.399444,2302,-5,U,"Lewisburg, WV",14,14,14,14,4.428571428571429,5.5,12.0,8.0,"Sun, Jun 20, 1999","Wed, Jun  2, 1999"
3652,Midland International,Midland,United States,MAF,KMAF,31.942528,-102.201914,2871,-6,A,"Midland/Odessa, TX",525,524,536,536,2.5104761904761923,8.040076335877863,10.0,130.0,"Fri, Jun 11, 1999","Fri, Jun 11, 1999"
4128,MBS International,Saginaw,United States,MBS,KMBS,43.532913,-84.079647,668,-5,A,"Saginaw/Bay City/Midland, MI",324,322,342,342,3.9382716049382744,10.248447204968947,30.0,142.0,"Sat, Jun 12, 1999","Tue, Jun  1, 1999"
3458,Kansas City International,Kansas City,United States,MCI,KMCI,39.297606,-94.713905,1026,-6,A,"Kansas City, MO",4915,4934,5003,5003,4.2874872838250235,11.718889339278478,35.0,170.0,"Sun, Jun 27, 1999","Tue, Jun 22, 1999"
3878,Orlando International,Orlando,United States,MCO,KMCO,28.429394,-81.308994,96,-5,A,"Orlando, FL",7913,7992,8081,8087,5.282446606849483,15.731356356356352,75.0,195.0,"Fri, Jun 25, 1999","Thu, Jun 17, 1999"
3542,Harrisburg International,Harrisburg,United States,MDT,KMDT,40.193494,-76.763403,310,-5,A,"Harrisburg, PA",587,584,614,614,4.546848381601364,12.476027397260273,21.0,116.0,"Tue, Jun 15, 1999","Wed, Jun  9, 1999"
3747,Chicago Midway International,Chicago,United States,MDW,KMDW,41.785972,-87.752417,620,-6,A,"Chicago, IL",4252,4266,4328,4328,4.904515522107249,14.57876230661041,77.0,270.0,"Thu, Jun 10, 1999","Fri, Jun 11, 1999"
3473,Memphis International,Memphis,United States,MEM,KMEM,35.042417,-89.976667,341,-6,A,"Memphis, TN",4118,4117,4174,4174,5.807673627974747,15.416079669662375,24.0,146.0,"Thu, Jun 24, 1999","Tue, Jun 22, 1999"
3826,McAllen Miller International,Mcallen,United States,MFE,KMFE,26.175833,-98.238611,107,-6,A,"Mission/McAllen/Edinburg, TX",288,288,292,292,4.052083333333333,10.156249999999993,8.0,133.0,"Sun, Jun 13, 1999","Fri, Jun 11, 1999"
4101,Rogue Valley International Medford,Medford,United States,MFR,KMFR,42.374228,-122.8735,1335,-8,A,"Medford, OR",111,111,111,111,3.5135135135135136,8.828828828828833,5.0,19.0,"Tue, Jun  8, 1999","Sat, Jun  5, 1999"
4115,Montgomery Regional Airport ,MONTGOMERY,United States,MGM,KMGM,32.3006389,-86.3939722,221,-6,A,"Montgomery, AL",90,89,90,90,4.444444444444443,13.134831460674157,10.0,46.0,"Sat, Jun  5, 1999","Tue, Jun 29, 1999"
4011,Manchester Regional Airport,Manchester NH,United States,MHT,KMHT,42.932556,-71.435667,266,-5,A,"Manchester, NH",1028,1028,1045,1045,3.574902723735408,11.315175097276267,29.0,146.0,"Mon, Jun 28, 1999","Mon, Jun 28, 1999"
3576,Miami International,Miami,United States,MIA,KMIA,25.79325,-80.290556,8,-5,A,"Miami, FL",5228,5277,5439,5438,8.377199693955658,21.31097214326321,176.0,199.0,"Mon, Jun  7, 1999","Tue, Jun 22, 1999"
3717,General Mitchell International,Milwaukee,United States,MKE,KMKE,42.947222,-87.896583,723,-6,A,"Milwaukee, WI",1217,1218,1261,1261,4.935907970419064,12.41789819376026,30.0,100.0,"Fri, Jun 18, 1999","Wed, Jun  9, 1999"
3671,Melbourne International,Melbourne,United States,MLB,KMLB,28.102753,-80.645258,33,-5,A,"Melbourne, FL",150,150,150,150,4.206666666666667,11.03333333333333,12.0,37.0,"Mon, Jun  7, 1999","Sat, Jun 26, 1999"
4072,Quad City International,Moline,United States,MLI,KMLI,41.448528,-90.507539,590,-6,A,"Moline, IL",142,143,153,153,3.0,8.321678321678318,8.0,31.0,"Tue, Jun 22, 1999","Fri, Jun  4, 1999"
3732,Monroe Regional,Monroe,United States,MLU,KMLU,32.510864,-92.037689,79,-6,A,"Monroe, LA",178,179,180,180,4.342696629213487,10.670391061452515,8.0,38.0,"Thu, Jun 17, 1999","Fri, Jun 25, 1999"
3782,Mobile Regional,Mobile,United States,MOB,KMOB,30.691231,-88.242814,219,-6,A,"Mobile, AL",347,347,357,358,4.25648414985591,9.873198847262255,33.0,53.0,"Sat, Jun 19, 1999","Fri, Jun 11, 1999"
3498,Minot International,Minot,United States,MOT,KMOT,48.259378,-101.280333,1716,-6,A,"Minot, ND",90,90,90,90,4.288888888888888,10.955555555555557,10.0,145.0,"Tue, Jun  1, 1999","Wed, Jun  2, 1999"
3948,Monterey Peninsula,Monterey,United States,MRY,KMRY,36.587,-121.842944,257,-8,A,"Monterey, CA",56,56,60,60,3.2142857142857144,7.410714285714286,6.0,13.0,"Wed, Jun 30, 1999","Thu, Jun  3, 1999"
3459,Dane County Regional-Truax Field,Madison,United States,MSN,KMSN,43.139858,-89.337514,887,-6,A,"Madison, WI",370,371,385,385,4.245945945945946,11.757412398921833,10.0,72.0,"Sun, Jun 13, 1999","Sun, Jun 27, 1999"
4216,Missoula International,Missoula,United States,MSO,KMSO,46.916306,-114.090556,3205,-7,A,"Missoula, MT",177,178,180,180,4.610169491525424,9.432584269662925,9.0,35.0,"Sun, Jun 20, 1999","Sun, Jun  6, 1999"
3858,Minneapolis St. Paul International,Minneapolis,United States,MSP,KMSP,44.881956,-93.221767,841,-6,A,"Minneapolis, MN",11777,11899,12260,12261,8.259488834168279,21.28271283301118,136.0,263.0,"Sat, Jun  5, 1999","Fri, Jun 11, 1999"
3861,Louis Armstrong New Orleans International,New Orleans,United States,MSY,KMSY,29.993389,-90.258028,4,-6,A,"New Orleans, LA",3973,3977,4015,4016,3.5723634533098405,10.254463163188317,60.0,107.0,"Fri, Jun 25, 1999","Wed, Jun  9, 1999"
3515,Myrtle Beach International,Myrtle Beach,United States,MYR,KMYR,33.67975,-78.928333,25,-5,A,"Myrtle Beach, SC",187,186,188,188,4.0855614973262036,10.44623655913979,14.0,40.0,"Tue, Jun 22, 1999","Thu, Jun 17, 1999"
3453,Metropolitan Oakland International,Oakland,United States,OAK,KOAK,37.721278,-122.220722,9,-8,A,"Oakland, CA",4559,4565,4615,4616,3.9912261460846574,9.323329682365832,30.0,54.0,"Sun, Jun 13, 1999","Thu, Jun 10, 1999"
3456,Kahului,Kahului,United States,OGG,PHOG,20.89865,-156.430458,54,-10,N,"Kahului, HI",238,236,240,240,5.268907563025209,11.483050847457624,30.0,29.0,"Tue, Jun 15, 1999","Mon, Jun  7, 1999"
3863,Will Rogers World,Oklahoma City,United States,OKC,KOKC,35.393089,-97.600733,1295,-6,A,"Oklahoma City, OK",1641,1644,1672,1672,4.101157830591097,10.041970802919726,20.0,77.0,"Wed, Jun 30, 1999","Sat, Jun 12, 1999"
3454,Eppley Airfield,Omaha,United States,OMA,KOMA,41.303167,-95.894069,984,-6,A,"Omaha, NE",1400,1397,1410,1409,3.4528571428571446,10.916964924838945,16.0,102.0,"Sat, Jun 19, 1999","Mon, Jun 28, 1999"
3615,Nome,Nome,United States,OME,PAOM,64.512203,-165.445247,37,-9,A,"Nome, AK",73,78,79,79,2.9452054794520546,7.756410256410256,7.0,32.0,"Tue, Jun  8, 1999","Thu, Jun 10, 1999"
3734,Ontario International,Ontario,United States,ONT,KONT,34.056,-117.601194,944,-8,A,"Ontario, CA",2851,2850,2881,2882,3.9242371097860493,9.28982456140353,15.0,57.0,"Sat, Jun 19, 1999","Sun, Jun 27, 1999"
3830,Chicago O'Hare International,Chicago,United States,ORD,KORD,41.978603,-87.904842,668,-6,A,"Chicago, IL",23026,23249,25119,25119,8.204985668374938,23.513828551765656,156.0,288.0,"Fri, Jun 11, 1999","Fri, Jun 11, 1999"
3611,Norfolk International,Norfolk,United States,ORF,KORF,36.894611,-76.201222,26,-5,A,"Norfolk, VA",1300,1301,1343,1342,3.8223076923076924,11.306687163720213,14.0,104.0,"Fri, Jun  4, 1999","Mon, Jun 28, 1999"
3693,Ralph Wien Memorial,Kotzebue,United States,OTZ,PAOT,66.884678,-162.59855,11,-9,A,"Kotzebue, AK",68,69,76,76,2.6911764705882355,8.144927536231885,6.0,21.0,"Sat, Jun 19, 1999","Tue, Jun  8, 1999"
3722,Palm Beach International,West Palm Beach,United States,PBI,KPBI,26.683161,-80.095589,19,-5,A,"West Palm Beach/Palm Beach, FL",1448,1452,1466,1467,4.626381215469623,12.530303030303035,29.0,86.0,"Fri, Jun 25, 1999","Thu, Jun 10, 1999"
3720,Portland International,Portland,United States,PDX,KPDX,45.588722,-122.5975,30,-8,A,"Portland, OR",4626,4629,4692,4694,3.6487246000864704,12.382372002592371,16.0,186.0,"Sat, Jun 12, 1999","Tue, Jun 22, 1999"
3752,Philadelphia International,Philadelphia,United States,PHL,KPHL,39.871944,-75.241139,36,-5,A,"Philadelphia, PA",9191,9209,9672,9675,6.97247307148298,23.01031599522204,81.0,241.0,"Fri, Jun 11, 1999","Thu, Jun 10, 1999"
3462,Phoenix Sky Harbor International,Phoenix,United States,PHX,KPHX,33.434278,-112.011583,1135,-7,N,"Phoenix, AZ",14398,14425,14539,14542,5.555424364495095,14.263916811091843,67.0,127.0,"Mon, Jun 28, 1999","Thu, Jun 10, 1999"
4046,Peoria Regional,Peoria,United States,PIA,KPIA,40.664203,-89.693258,660,-6,A,"Peoria, IL",54,54,60,60,4.777777777777778,9.555555555555559,10.0,22.0,"Tue, Jun  1, 1999","Fri, Jun 11, 1999"
3570,Pittsburgh International,Pittsburgh (pennsylva),United States,PIT,KPIT,40.491467,-80.232872,1204,-5,A,"Pittsburgh, PA",8001,8042,8328,8327,6.006249218847644,14.238000497388706,46.0,175.0,"Mon, Jun 14, 1999","Wed, Jun  2, 1999"
3564,Pensacola Regional,Pensacola,United States,PNS,KPNS,30.473425,-87.186611,121,-6,A,"Pensacola, FL",493,490,503,501,4.665314401622714,10.702040816326527,13.0,49.0,"Wed, Jun 30, 1999","Tue, Jun  8, 1999"
6133,Tri Cities Airport,Pasco,United States,PSC,PSC,46.2647,-119.119,410,-8,A,"Pasco/Kennewick/Richland, WA",119,119,120,120,4.058823529411767,8.722689075630251,8.0,21.0,"Thu, Jun 24, 1999","Tue, Jun 15, 1999"
4147,Petersburg James A. Johnson,Petersburg,United States,PSG,PAPG,56.801667,-132.945278,105,-9,A,"Petersburg, AK",58,59,60,60,2.7586206896551726,7.372881355932203,5.0,15.0,"Thu, Jun  3, 1999","Tue, Jun 15, 1999"
3839,Palm Springs International,Palm Springs,United States,PSP,KPSP,33.829667,-116.506694,477,-8,A,"Palm Springs, CA",153,154,155,155,4.241830065359477,12.597402597402601,10.0,72.0,"Thu, Jun  3, 1999","Tue, Jun 22, 1999"
3641,Theodore Francis Green State,Providence,United States,PVD,KPVD,41.732581,-71.420383,55,-5,A,"Providence, RI",1835,1836,1858,1857,4.568937329700282,11.533769063180825,22.0,185.0,"Thu, Jun 24, 1999","Sun, Jun 13, 1999"
3862,Portland International Jetport,Portland,United States,PWM,KPWM,43.646161,-70.309281,77,-5,A,"Portland, ME",494,494,509,509,4.080971659919033,11.493927125506069,8.0,101.0,"Sun, Jun 13, 1999","Mon, Jun 28, 1999"
4087,Rapid City Regional Airport,Rapid City,United States,RAP,KRAP,44.045278,-103.057222,3204,-7,A,"Rapid City, SD",119,119,120,120,3.907563025210084,8.85714285714286,11.0,22.0,"Sun, Jun 20, 1999","Sat, Jun 12, 1999"
3626,Raleigh Durham International,Raleigh-durham,United States,RDU,KRDU,35.877639,-78.787472,435,-5,A,"Raleigh/Durham, NC",2855,2855,2916,2916,4.414010507880906,11.960070052539374,83.0,116.0,"Mon, Jun 28, 1999","Fri, Jun  4, 1999"
3608,Richmond International,Richmond,United States,RIC,KRIC,37.505167,-77.319667,167,-5,A,"Richmond, VA",1365,1372,1418,1419,4.761904761904766,11.32434402332362,16.0,91.0,"Mon, Jun 21, 1999","Tue, Jun 29, 1999"
3807,Reno Tahoe International,Reno,United States,RNO,KRNO,39.499108,-119.768108,4415,-8,A,"Reno, NV",2224,2225,2233,2235,4.246402877697843,10.280898876404503,23.0,91.0,"Fri, Jun 25, 1999","Thu, Jun 10, 1999"
4016,Roanoke Regional,Roanoke VA,United States,ROA,KROA,37.325472,-79.975417,1175,-5,A,"Roanoke, VA",193,191,202,202,4.937823834196893,9.59162303664921,9.0,40.0,"Tue, Jun 15, 1999","Wed, Jun 16, 1999"
3622,Greater Rochester International,Rochester,United States,ROC,KROC,43.118866,-77.672389,559,-5,A,"Rochester, NY",1170,1171,1240,1240,5.9076923076923045,11.231426131511519,27.0,186.0,"Sun, Jun 13, 1999","Thu, Jun 24, 1999"
4048,Rochester,Rochester,United States,RST,KRST,43.908283,-92.500014,1317,-6,A,"Rochester, MN",194,193,209,208,3.695876288659794,13.015544041450777,11.0,127.0,"Mon, Jun  7, 1999","Wed, Jun 30, 1999"
3793,Southwest Florida International,Fort Myers,United States,RSW,KRSW,26.536167,-81.755167,30,-5,A,"Fort Myers, FL",922,922,929,928,3.754880694143165,12.964208242950113,28.0,92.0,"Wed, Jun  2, 1999","Thu, Jun 24, 1999"
3731,San Diego International,San Diego,United States,SAN,KSAN,32.733556,-117.189667,17,-8,A,"San Diego, CA",5540,5551,5608,5611,2.931768953068593,12.928661502432,36.0,158.0,"Fri, Jun  4, 1999","Tue, Jun 29, 1999"
3621,San Antonio International,San Antonio,United States,SAT,KSAT,29.533694,-98.469778,809,-6,A,"San Antonio, TX",3152,3154,3193,3197,3.0942258883248743,10.649968294229582,44.0,212.0,"Fri, Jun 25, 1999","Thu, Jun 10, 1999"
3613,Savannah Hilton Head International,Savannah,United States,SAV,KSAV,32.127583,-81.202139,51,-5,A,"Savannah, GA",406,410,419,419,5.113300492610843,11.03170731707317,11.0,82.0,"Sun, Jun 27, 1999","Wed, Jun 16, 1999"
3949,Santa Barbara Municipal,Santa Barbara,United States,SBA,KSBA,34.426211,-119.840372,10,-8,A,"Santa Barbara, CA",118,118,120,120,2.652542372881355,6.779661016949152,5.0,17.0,"Thu, Jun  3, 1999","Tue, Jun 15, 1999"
4359,South Bend Regional,South Bend,United States,SBN,KSBN,41.708661,-86.31725,799,-5,A,"South Bend, IN",222,223,226,227,4.013513513513511,9.484304932735428,18.0,61.0,"Sat, Jun 12, 1999","Fri, Jun 25, 1999"
3620,Deadhorse,Deadhorse,United States,SCC,PASC,70.19475,-148.465167,64,-9,A,"Deadhorse, AK",51,51,56,56,2.7254901960784315,6.0588235294117645,6.0,12.0,"Fri, Jun  4, 1999","Wed, Jun  2, 1999"
4014,Louisville International Airport,Louisville,United States,SDF,KSDF,38.1740858,-85.7364989,501,-5,A,"Louisville, KY",1881,1885,1915,1915,4.811802232854874,10.204244031830228,36.0,122.0,"Sat, Jun  5, 1999","Sat, Jun 12, 1999"
3577,Seattle Tacoma International,Seattle,United States,SEA,KSEA,47.449,-122.309306,433,-8,A,"Seattle, WA",8923,8929,9070,9070,4.87134371848033,14.990704446186589,43.0,126.0,"Mon, Jun 14, 1999","Thu, Jun 10, 1999"
3469,San Francisco International,San Francisco,United States,SFO,KSFO,37.618972,-122.374889,13,-8,A,"San Francisco, CA",11156,11187,11521,11519,5.615543205449989,17.607133279699553,78.0,141.0,"Thu, Jun  3, 1999","Fri, Jun 11, 1999"
4348,Springfield Branson National,Springfield,United States,SGF,KSGF,37.245667,-93.388639,1268,-6,A,"Springfield, MO",164,165,172,172,3.475609756097561,9.987878787878788,9.0,75.0,"Sun, Jun 27, 1999","Thu, Jun 17, 1999"
3609,Shreveport Regional,Shreveport,United States,SHV,KSHV,32.446629,-93.8256,258,-6,A,"Shreveport, LA",316,317,322,322,4.999999999999998,9.337539432176653,12.0,29.0,"Wed, Jun 30, 1999","Thu, Jun 24, 1999"
3856,Sitka Rocky Gutierrez,Sitka,United States,SIT,PASI,57.047138,-135.361611,21,-9,A,"Sitka, AK",145,145,145,145,3.0965517241379303,8.917241379310346,7.0,25.0,"Thu, Jun 17, 1999","Sun, Jun 27, 1999"
3748,Norman Y. Mineta San Jose International,San Jose,United States,SJC,KSJC,37.3626,-121.929022,62,-8,A,"San Jose, CA",4279,4282,4350,4346,3.6625379761626555,12.744511910322267,27.0,130.0,"Wed, Jun 30, 1999","Thu, Jun 10, 1999"
3536,Salt Lake City International,Salt Lake City,United States,SLC,KSLC,40.788389,-111.977772,4227,-7,A,"Salt Lake City, UT",6748,6724,6832,6806,5.49881446354476,16.833878643664402,52.0,116.0,"Fri, Jun 18, 1999","Thu, Jun 10, 1999"
3817,Sacramento International,Sacramento,United States,SMF,KSMF,38.695417,-121.590778,27,-8,A,"Sacramento, CA",3048,3045,3059,3058,3.800524934383202,9.627914614121535,17.0,66.0,"Wed, Jun 30, 1999","Mon, Jun 21, 1999"
3867,John Wayne Airport Orange County,Santa Ana,United States,SNA,KSNA,33.675667,-117.868222,56,-8,A,"Santa Ana, CA",2897,2907,2984,2989,6.09492578529513,13.735122119023037,41.0,223.0,"Sat, Jun 26, 1999","Thu, Jun 10, 1999"
4067,Sarasota Bradenton International,Sarasota,United States,SRQ,KSRQ,27.395444,-82.554389,30,-5,A,"Sarasota/Bradenton, FL",377,375,379,378,3.90716180371353,11.002666666666661,9.0,51.0,"Fri, Jun 25, 1999","Wed, Jun  2, 1999"
3678,Lambert St. Louis International,St. Louis,United States,STL,KSTL,38.748697,-90.370028,618,-6,A,"St. Louis, MO",14379,14492,14871,14878,7.084567772445924,20.600814242340643,84.0,274.0,"Tue, Jun  8, 1999","Tue, Jun  1, 1999"
3753,Sioux Gateway-Colonel Bud Day Field,Sioux City,United States,SUX,KSUX,42.402603,-96.384367,1098,-6,A,"Sioux City, IA",59,59,60,60,3.966101694915254,9.35593220338983,8.0,31.0,"Mon, Jun  7, 1999","Tue, Jun 22, 1999"
3661,Stewart International,Newburgh,United States,SWF,KSWF,41.504094,-74.104839,491,-5,A,"Newburgh/Poughkeepsie, NY",110,110,120,120,4.763636363636364,15.1,9.0,171.0,"Fri, Jun 18, 1999","Mon, Jun 28, 1999"
3745,Syracuse Hancock International,Syracuse,United States,SYR,KSYR,43.111187,-76.106311,421,-5,A,"Syracuse, NY",885,889,918,918,4.5536723163841755,11.916760404949377,16.0,100.0,"Wed, Jun 30, 1999","Thu, Jun 24, 1999"
3698,Tallahassee Regional,Tallahassee,United States,TLH,KTLH,30.396528,-84.350333,81,-5,A,"Tallahassee, FL",197,196,210,209,4.248730964467002,10.183673469387756,13.0,29.0,"Thu, Jun  3, 1999","Sat, Jun 12, 1999"
4040,Toledo,Toledo,United States,TOL,KTOL,41.586806,-83.807833,684,-5,A,"Toledo, OH",79,80,86,86,3.1772151898734173,9.249999999999998,6.0,22.0,"Sat, Jun  5, 1999","Fri, Jun 25, 1999"
3646,Tampa International,Tampa,United States,TPA,KTPA,27.975472,-82.53325,26,-5,A,"Tampa, FL",4838,4841,4909,4913,4.631872674658957,13.195001032844457,103.0,111.0,"Tue, Jun 15, 1999","Fri, Jun  4, 1999"
4116,Tri-Cities Regional Airport,BRISTOL,United States,TRI,KTRI,36.4752222,-82.4074167,1519,-5,A,"Bristol/Johnson City/Kingsport, TN",108,107,112,112,4.13888888888889,6.588785046728972,7.0,25.0,"Tue, Jun  8, 1999","Tue, Jun  1, 1999"
3855,Tulsa International,Tulsa,United States,TUL,KTUL,36.198389,-95.888111,677,-6,A,"Tulsa, OK",1518,1522,1549,1545,3.943346508563895,11.595269382391598,24.0,201.0,"Fri, Jun 11, 1999","Fri, Jun 25, 1999"
3636,Tucson International,Tucson,United States,TUS,KTUS,32.116083,-110.941028,2643,-7,N,"Tucson, AZ",1562,1563,1583,1583,3.8668373879641527,11.516314779270646,37.0,120.0,"Tue, Jun 29, 1999","Tue, Jun 22, 1999"
4023,Cherry Capital Airport,Traverse City,United States,TVC,KTVC,44.741445,-85.582235,624,-5,A,"Traverse City, MI",90,88,90,90,3.311111111111111,11.738636363636362,11.0,30.0,"Sat, Jun 19, 1999","Sat, Jun 19, 1999"
3676,McGhee Tyson,Knoxville,United States,TYS,KTYS,35.810972,-83.994028,981,-5,A,"Knoxville, TN",527,530,540,542,4.853889943074003,12.264150943396226,22.0,89.0,"Sun, Jun 13, 1999","Mon, Jun 28, 1999"
3873,Eglin AFB,Valparaiso,United States,VPS,KVPS,30.48325,-86.5254,87,-6,A,"Valparaiso, FL",90,90,90,90,7.522222222222222,9.9,14.0,28.0,"Tue, Jun  1, 1999","Fri, Jun 25, 1999"
5969,Wrangell Airport,Wrangell,United States,WRG,PAWG,56.4843,-132.37,44,-9,A,"Wrangell, AK",58,59,60,60,2.689655172413793,7.3220338983050866,6.0,17.0,"Thu, Jun 10, 1999","Tue, Jun 15, 1999"
6803,Yakutat,Yakutat,United States,YAK,PAYA,59.3012,-139.3937,33,-9,A,"Yakutat, AK",60,60,60,60,2.483333333333334,5.783333333333332,6.0,14.0,"Thu, Jun 17, 1999","Thu, Jun  3, 1999"
2883,Cyril E. King,St. Thomas,Virgin Islands,STT,TIST,18.337306,-64.973361,23,-4,U,"Charlotte Amalie, VI",210,209,210,210,3.9761904761904763,11.535885167464114,9.0,34.0,"Tue, Jun 15, 1999","Sun, Jun 13, 1999"
2884,Henry E. Rohlsen,St. Croix Island,Virgin Islands,STX,TISX,17.701889,-64.798556,74,-4,U,"Christiansted, VI",89,89,90,90,3.5168539325842696,11.674157303370789,7.0,26.0,"Mon, Jun 14, 1999","Fri, Jun 11, 1999"
2890,Luis Muñoz Marín International,San Juan,Puerto Rico,SJU,TJSJ,18.439417,-66.001833,9,-4,U,"San Juan, PR",1735,1739,1763,1763,6.134870317002884,15.183438757906844,60.0,58.0,"Sat, Jun 26, 1999","Wed, Jun 30, 1999"
