airport_id,name,city,country,iata_faa,iaco,latitude,longitude,altitude,zone,dst,city_state,avg_able_landings,avg_able_takeoffs,total_landings,total_takeoffs,avg_taxi_in,avg_taxi_out,longest_taxi_in,longest_taxi_out,lng_tx_in_date,lng_tx_out_date
4355,Lehigh Valley International,Allentown,United States,ABE,KABE,40.652083,-75.440806,393,-5,A,"Allentown/Bethlehem/Easton, PA",443,443,452,452,3.9525959367945833,11.383747178329575,9.0,71.0,"Fri, Feb 26, 1999","Thu, Feb 11, 1999"
4019,Albuquerque International Sunport,Albuquerque,United States,ABQ,KABQ,35.0402222,-106.6091944,5355,-7,A,"Albuquerque, NM",2769,2763,2806,2805,4.252798844348149,9.642779587404997,28.0,33.0,"Mon, Feb 22, 1999","Mon, Feb 22, 1999"
3531,Kodiak,Kodiak,United States,ADQ,PADQ,57.749967,-152.493856,78,-9,A,"Kodiak, AK",51,51,56,56,3.0588235294117645,8.117647058823529,10.0,21.0,"Sun, Feb 21, 1999","Mon, Feb 22, 1999"
3658,Augusta Regional At Bush Field,Bush Field,United States,AGS,KAGS,33.369944,-81.9645,144,-5,A,"Augusta, GA",136,135,140,140,4.264705882352939,12.28888888888889,7.0,47.0,"Wed, Feb 10, 1999","Wed, Feb 10, 1999"
3794,King Salmon,King Salmon,United States,AKN,PAKN,58.676778,-156.649278,68,-9,A,"King Salmon, AK",16,16,16,16,2.5,6.625,4.0,20.0,"Tue, Feb 16, 1999","Sat, Feb  6, 1999"
3864,Albany International,Albany,United States,ALB,KALB,42.748267,-73.801692,285,-5,A,"Albany, NY",909,910,933,933,4.195819581958203,12.039560439560441,15.0,184.0,"Sun, Feb 21, 1999","Thu, Feb 11, 1999"
3840,Rick Husband Amarillo International,Amarillo,United States,AMA,KAMA,35.219369,-101.705931,3607,-6,A,"Amarillo, TX",365,365,375,374,3.4876712328767128,6.950684931506849,12.0,23.0,"Mon, Feb 15, 1999","Sat, Feb 27, 1999"
3774,Ted Stevens Anchorage International,Anchorage,United States,ANC,PANC,61.174361,-149.996361,152,-9,A,"Anchorage, AK",1170,1194,1287,1288,4.040170940170943,11.828308207705186,22.0,59.0,"Wed, Feb 10, 1999","Thu, Feb 18, 1999"
3682,Hartsfield Jackson Atlanta International,Atlanta,United States,ATL,KATL,33.636719,-84.428067,1026,-5,A,"Atlanta, GA",19603,19695,20189,20206,8.1066163342345,19.213658288905915,63.0,113.0,"Thu, Feb 25, 1999","Wed, Feb 17, 1999"
3673,Austin Bergstrom International,Austin,United States,AUS,KAUS,30.194528,-97.669889,542,-6,A,"Austin, TX",3190,3195,3332,3337,3.772727272727273,10.082003129890449,52.0,155.0,"Sat, Feb 20, 1999","Sat, Feb  6, 1999"
4007,Asheville Regional Airport,Asheville,United States,AVL,KAVL,35.436194,-82.541806,2165,-5,A,"Asheville, NC",93,94,104,104,3.096774193548387,10.574468085106384,9.0,51.0,"Wed, Feb 24, 1999","Tue, Feb  2, 1999"
4286,Wilkes Barre Scranton International,Scranton,United States,AVP,KAVP,41.338478,-75.723403,962,-5,A,"Scranton/Wilkes-Barre, PA",128,130,132,132,3.3984375000000004,7.923076923076927,6.0,29.0,"Fri, Feb 26, 1999","Sat, Feb 27, 1999"
4039,Kalamazoo,Kalamazoo,United States,AZO,KAZO,42.234875,-85.552058,874,-5,A,"Kalamazoo, MI",110,110,112,112,4.054545454545452,9.300000000000004,8.0,30.0,"Wed, Feb 10, 1999","Fri, Feb 12, 1999"
3825,Bradley International,Windsor Locks,United States,BDL,KBDL,41.938889,-72.683222,173,-5,A,"Hartford, CT",2201,2192,2282,2280,4.940027260336221,12.672901459854014,23.0,136.0,"Sun, Feb 28, 1999","Thu, Feb 11, 1999"
3599,Bethel,Bethel,United States,BET,PABE,60.779778,-161.838,121,-9,A,"Bethel, AK",74,74,78,78,2.716216216216216,8.499999999999996,5.0,28.0,"Mon, Feb  8, 1999","Sun, Feb  7, 1999"
4129,Greater Binghamton-Edwin A. Link Field,Binghamton,United States,BGM,KBGM,42.208689,-75.979839,1636,-5,A,"Binghamton, NY",76,77,80,80,3.986842105263158,9.974025974025974,6.0,62.0,"Wed, Feb 24, 1999","Mon, Feb  8, 1999"
3463,Bangor International,Bangor,United States,BGR,KBGR,44.807444,-68.828139,192,-5,A,"Bangor, ME",83,84,84,84,5.216867469879516,10.547619047619047,20.0,66.0,"Thu, Feb 18, 1999","Thu, Feb 18, 1999"
3811,Birmingham International,Birmingham,United States,BHM,KBHM,33.562942,-86.75355,644,-6,A,"Birmingham, AL",1618,1619,1652,1650,3.4116192830655128,9.81161210623843,20.0,80.0,"Sun, Feb  7, 1999","Tue, Feb  2, 1999"
4021,Billings Logan International Airport,Billings,United States,BIL,KBIL,45.80921,-108.537654,3652,-7,A,"Billings, MT",221,221,224,224,3.393665158371041,10.280542986425328,7.0,41.0,"Tue, Feb  2, 1999","Tue, Feb 16, 1999"
4083,Bismarck Municipal Airport,Bismarck,United States,BIS,KBIS,46.775842,-100.757931,1661,-6,A,"Bismarck/Mandan, ND",107,108,108,108,3.7663551401869158,8.564814814814815,6.0,28.0,"Sat, Feb 13, 1999","Sat, Feb 20, 1999"
3690,Nashville International,Nashville,United States,BNA,KBNA,36.124472,-86.678194,599,-6,A,"Nashville, TN",3901,3899,3996,3994,4.837990258907968,10.674275455244933,31.0,99.0,"Wed, Feb 10, 1999","Wed, Feb  3, 1999"
3495,Boise Air Terminal,Boise,United States,BOI,KBOI,43.564361,-116.222861,2871,-7,A,"Boise, ID",880,880,884,883,2.9897727272727272,8.598863636363626,25.0,33.0,"Sun, Feb 14, 1999","Sun, Feb 14, 1999"
3448,General Edward Lawrence Logan International,Boston,United States,BOS,KBOS,42.364347,-71.005181,19,-5,A,"Boston, MA",7246,7263,7914,7913,7.455285674855093,18.24576621230904,78.0,170.0,"Mon, Feb  1, 1999","Thu, Feb 11, 1999"
3738,Brownsville South Padre Island International,Brownsville,United States,BRO,KBRO,25.906833,-97.425861,22,-6,A,"Brownsville, TX",28,28,28,28,4.964285714285714,12.857142857142858,7.0,108.0,"Wed, Feb 17, 1999","Fri, Feb 19, 1999"
3571,Wiley Post Will Rogers Memorial,Barrow,United States,BRW,PABR,71.285446,-156.766003,44,-9,A,"Barrow, AK",63,59,68,68,2.9365079365079363,7.5423728813559325,5.0,20.0,"Sat, Feb  6, 1999","Sun, Feb  7, 1999"
3846,Baton Rouge Metro-Ryan Field,Baton Rouge,United States,BTR,KBTR,30.533167,-91.149639,70,-6,A,"Baton Rouge, LA",358,355,360,358,4.226256983240225,9.96901408450704,19.0,45.0,"Fri, Feb 26, 1999","Mon, Feb 22, 1999"
3711,Burlington International,Burlington,United States,BTV,KBTV,44.471861,-73.153278,335,-5,A,"Burlington, VT",193,195,196,196,3.7253886010362702,11.169230769230774,9.0,63.0,"Fri, Feb 12, 1999","Thu, Feb 25, 1999"
3820,Buffalo Niagara International,Buffalo,United States,BUF,KBUF,42.940525,-78.732167,724,-5,A,"Buffalo, NY",1355,1356,1420,1418,3.5121771217712165,10.606932153392316,28.0,103.0,"Fri, Feb 12, 1999","Mon, Feb  1, 1999"
3644,Bob Hope,Burbank,United States,BUR,KBUR,34.200667,-118.358667,778,-8,A,"Burbank, CA",2052,2054,2111,2111,2.2329434697855746,9.092989289191824,15.0,45.0,"Mon, Feb 22, 1999","Wed, Feb  3, 1999"
3849,Baltimore Washington International,Baltimore,United States,BWI,KBWI,39.175361,-76.668333,146,-5,A,"Baltimore, MD",5775,5772,5900,5899,4.010909090909114,10.837144837144866,27.0,136.0,"Mon, Feb  8, 1999","Mon, Feb  1, 1999"
4020,Gallatin Field,Bozeman,United States,BZN,KBZN,45.777643,-111.160151,4500,-7,A,"Bozeman, MT",147,148,152,151,4.748299319727892,12.020270270270274,14.0,31.0,"Fri, Feb 12, 1999","Sun, Feb 14, 1999"
3561,Columbia Metropolitan,Colombia,United States,CAE,KCAE,33.938833,-81.119528,236,-5,A,"Columbia, SC",365,365,372,372,4.309589041095894,13.715068493150687,9.0,112.0,"Wed, Feb 17, 1999","Tue, Feb  9, 1999"
4112,Akron Canton Regional Airport,Akron,United States,CAK,KCAK,40.9160833,-81.4421944,1228,-5,A,"Akron, OH",75,74,76,76,4.573333333333335,8.824324324324325,10.0,23.0,"Fri, Feb 12, 1999","Wed, Feb 24, 1999"
3610,Merle K. Mudhole Smith,Cordova,United States,CDV,PACV,60.491778,-145.477556,48,-9,A,"Cordova, AK",51,51,56,56,3.1372549019607843,5.529411764705882,7.0,13.0,"Fri, Feb 26, 1999","Fri, Feb 12, 1999"
3578,Lovell Field,Chattanooga,United States,CHA,KCHA,35.035278,-85.203808,683,-5,A,"Chattanooga, TN",74,73,76,76,3.2432432432432434,8.246575342465754,6.0,17.0,"Mon, Feb  1, 1999","Fri, Feb  5, 1999"
3806,Charleston AFB International,Charleston,United States,CHS,KCHS,32.898647,-80.040528,45,-5,A,"Charleston, SC",525,527,547,548,5.3657142857142865,10.436432637571153,119.0,74.0,"Sun, Feb 28, 1999","Thu, Feb  4, 1999"
4043,Cedar Rapids,Cedar Rapids,United States,CID,KCID,41.884694,-91.710806,869,-6,A,"Cedar Rapids/Iowa City, IA",399,401,420,420,4.035087719298242,9.695760598503751,11.0,85.0,"Sun, Feb 28, 1999","Thu, Feb 11, 1999"
3486,Cleveland Hopkins International,Cleveland,United States,CLE,KCLE,41.411689,-81.849794,791,-5,A,"Cleveland, OH",4507,4521,4626,4626,4.877967605946294,15.761557177615572,41.0,108.0,"Sat, Feb 13, 1999","Sun, Feb  7, 1999"
3876,Charlotte Douglas International,Charlotte,United States,CLT,KCLT,35.214,-80.943139,748,-5,A,"Charlotte, NC",8992,9007,9385,9384,4.9939946619217075,14.689907849450437,55.0,205.0,"Tue, Feb  2, 1999","Fri, Feb 19, 1999"
3759,Port Columbus International,Columbus,United States,CMH,KCMH,39.997972,-82.891889,815,-5,A,"Columbus, OH",2732,2730,2789,2788,4.188872620790634,11.064102564102567,59.0,74.0,"Fri, Feb 26, 1999","Wed, Feb 24, 1999"
3819,City Of Colorado Springs Municipal,Colorado Springs,United States,COS,KCOS,38.805805,-104.700778,6187,-7,A,"Colorado Springs, CO",848,848,873,872,5.798349056603771,13.076650943396226,16.0,80.0,"Thu, Feb  4, 1999","Wed, Feb 10, 1999"
3744,Corpus Christi International,Corpus Christi,United States,CRP,KCRP,27.770361,-97.501222,44,-6,A,"Corpus Christi, TX",235,234,236,236,3.0085106382978717,6.901709401709402,10.0,20.0,"Sat, Feb 20, 1999","Sat, Feb 27, 1999"
4285,Yeager,Charleston,United States,CRW,KCRW,38.373147,-81.593189,981,-5,A,"Charleston/Dunbar, WV",92,92,100,100,2.739130434782609,7.195652173913044,7.0,33.0,"Sat, Feb 20, 1999","Thu, Feb 25, 1999"
3488,Cincinnati Northern Kentucky International,Cincinnati,United States,CVG,KCVG,39.048836,-84.667822,896,-5,A,"Cincinnati, OH",5844,5824,5976,5964,6.0183093771389435,17.26923076923089,30.0,113.0,"Tue, Feb 23, 1999","Fri, Feb 12, 1999"
3950,Daytona Beach International,Daytona Beach,United States,DAB,KDAB,29.179917,-81.058056,34,-5,A,"Daytona Beach, FL",224,223,224,223,3.8526785714285716,12.053811659192824,7.0,52.0,"Sat, Feb  6, 1999","Sun, Feb 28, 1999"
3502,Dallas Love Field,Dallas,United States,DAL,KDAL,32.847111,-96.851778,487,-6,A,"Dallas, TX",3810,3818,3931,3931,2.7188976377952736,7.556312205343111,24.0,43.0,"Fri, Feb 19, 1999","Thu, Feb 11, 1999"
3627,James M. Cox Dayton International,Dayton,United States,DAY,KDAY,39.902375,-84.219375,1009,-5,A,"Dayton, OH",814,813,841,841,4.808353808353804,13.799507995079953,23.0,75.0,"Mon, Feb  1, 1999","Fri, Feb 19, 1999"
3520,Ronald Reagan Washington National,Washington,United States,DCA,KDCA,38.852083,-77.037722,15,-5,A,"Washington, DC",5943,5973,6262,6292,4.527006562342243,15.004018081366148,44.0,190.0,"Fri, Feb 12, 1999","Thu, Feb 11, 1999"
3751,Denver International,Denver,United States,DEN,KDEN,39.861656,-104.673178,5431,-7,A,"Denver, CO",10271,10289,10490,10485,7.215558368221208,14.52891437457479,72.0,179.0,"Wed, Feb 10, 1999","Wed, Feb 10, 1999"
3670,Dallas Fort Worth International,Dallas-fort Worth,United States,DFW,KDFW,32.896828,-97.037997,607,-6,A,"Dallas/Fort Worth, TX",17054,17105,18495,18497,9.591532778233852,16.19128909675532,80.0,152.0,"Sat, Feb 20, 1999","Tue, Feb  2, 1999"
3460,Dillingham,Dillingham,United States,DLG,PADL,59.044667,-158.5055,74,-9,A,"Dillingham, AK",14,14,16,16,3.2142857142857144,7.357142857142857,4.0,20.0,"Tue, Feb  2, 1999","Thu, Feb 25, 1999"
3598,Duluth International,Duluth,United States,DLH,KDLH,46.842091,-92.193649,1428,-6,A,"Duluth, MN",75,73,76,76,3.973333333333333,11.671232876712327,19.0,50.0,"Sat, Feb 27, 1999","Wed, Feb 24, 1999"
3713,Durango La Plata County,Durango,United States,DRO,KDRO,37.151516,-107.75377,6685,-7,A,"Durango, CO",31,31,32,32,4.741935483870968,10.290322580645162,9.0,23.0,"Sun, Feb 14, 1999","Sat, Feb  6, 1999"
3729,Des Moines International,Des Moines,United States,DSM,KDSM,41.533972,-93.663083,958,-6,A,"Des Moines, IA",500,497,512,512,4.7059999999999995,11.283702213279673,27.0,56.0,"Fri, Feb 12, 1999","Mon, Feb  1, 1999"
3645,Detroit Metro Wayne County,Detroit,United States,DTW,KDTW,42.212444,-83.353389,645,-5,A,"Detroit, MI",11466,11498,11793,11785,9.29417407988839,20.398330144373084,49.0,230.0,"Sun, Feb 21, 1999","Fri, Feb 12, 1999"
3860,Unalaska,Unalaska,United States,DUT,PADU,53.900139,-166.5435,22,-9,A,"Unalaska, AK",29,28,56,56,2.6551724137931028,7.964285714285711,6.0,18.0,"Tue, Feb  2, 1999","Tue, Feb  9, 1999"
4250,Eagle County Regional,Vail,United States,EGE,KEGE,39.642556,-106.917694,6540,-7,A,"Eagle, CO",291,288,312,312,5.144329896907214,17.937499999999982,18.0,155.0,"Sat, Feb 13, 1999","Thu, Feb 11, 1999"
3946,Elmira Corning Regional,Elmira,United States,ELM,KELM,42.159889,-76.891611,954,-5,A,"Elmira/Corning, NY",96,97,100,100,3.9687499999999982,8.164948453608243,8.0,34.0,"Sun, Feb  7, 1999","Sat, Feb 20, 1999"
3559,El Paso International,El Paso,United States,ELP,KELP,31.80725,-106.377583,3958,-7,A,"El Paso, TX",1820,1819,1856,1855,2.9807692307692286,8.899395272127544,31.0,32.0,"Sat, Feb 13, 1999","Wed, Feb 10, 1999"
4276,Erie International-Tom Ridge Field,Erie,United States,ERI,KERI,42.082022,-80.176217,733,-5,A,"Erie, PA",107,106,108,108,3.317757009345795,6.622641509433962,8.0,14.0,"Wed, Feb 24, 1999","Thu, Feb 18, 1999"
4099,Mahlon Sweet Field,Eugene,United States,EUG,KEUG,44.124583,-123.211972,374,-8,A,"Eugene, OR",164,163,167,167,2.414634146341464,9.306748466257662,4.0,23.0,"Tue, Feb  2, 1999","Tue, Feb  2, 1999"
3494,Newark Liberty International,Newark,United States,EWR,KEWR,40.6925,-74.168667,18,-5,A,"Newark, NJ",9142,9174,9657,9653,8.585648654561355,25.103117505995254,112.0,233.0,"Sat, Feb 13, 1999","Thu, Feb 11, 1999"
3832,Fairbanks International,Fairbanks,United States,FAI,PAFA,64.815114,-147.856267,434,-9,A,"Fairbanks, AK",350,349,371,371,3.1914285714285713,10.87679083094556,18.0,40.0,"Tue, Feb  2, 1999","Mon, Feb  8, 1999"
4292,Hector International Airport,Fargo,United States,FAR,KFAR,46.92065,-96.8157639,902,-6,A,"Fargo, ND",184,185,188,188,4.592391304347824,9.924324324324322,17.0,93.0,"Thu, Feb 11, 1999","Wed, Feb  3, 1999"
3687,Fresno Yosemite International,Fresno,United States,FAT,KFAT,36.776194,-119.71814,336,-8,A,"Fresno, CA",25,25,28,28,5.239999999999998,9.640000000000002,7.0,17.0,"Mon, Feb  1, 1999","Wed, Feb 24, 1999"
5738,Fayetteville Regional-Grannis Field,Fayetteville,United States,FAY,KFAY,34.9912,-78.8803,189,-5,A,"Fayetteville, NC",87,88,104,104,3.8735632183908044,9.556818181818178,7.0,53.0,"Tue, Feb  2, 1999","Tue, Feb  2, 1999"
4127,Glacier Park International,Kalispell,United States,FCA,KFCA,48.310472,-114.256,2977,-7,A,"Kalispell, MT",58,59,58,60,5.120689655172413,11.322033898305088,15.0,30.0,"Fri, Feb 12, 1999","Wed, Feb 17, 1999"
3533,Fort Lauderdale Hollywood International,Fort Lauderdale,United States,FLL,KFLL,26.072583,-80.15275,9,-5,A,"Fort Lauderdale, FL",3698,3693,3755,3749,4.47079502433747,13.88220958570268,44.0,115.0,"Tue, Feb 23, 1999","Sun, Feb 28, 1999"
4089,Bishop International,Flint,United States,FNT,KFNT,42.965424,-83.743629,782,-5,A,"Flint, MI",108,108,108,108,4.287037037037037,9.796296296296301,12.0,49.0,"Fri, Feb 12, 1999","Thu, Feb 25, 1999"
4009,Sioux Falls,Sioux Falls,United States,FSD,KFSD,43.582014,-96.741914,1429,-6,A,"Sioux Falls, SD",296,297,300,300,5.016891891891895,12.154882154882154,11.0,58.0,"Mon, Feb 22, 1999","Sat, Feb 27, 1999"
4041,Fort Wayne,Fort Wayne,United States,FWA,KFWA,40.978472,-85.195139,815,-5,A,"Fort Wayne, IN",23,23,24,24,4.043478260869565,9.391304347826088,7.0,16.0,"Wed, Feb  3, 1999","Wed, Feb 24, 1999"
3467,Spokane International,Spokane,United States,GEG,KGEG,47.619861,-117.533833,2376,-8,A,"Spokane, WA",996,994,1005,1004,3.4407630522088355,9.754527162977865,30.0,57.0,"Sat, Feb 27, 1999","Tue, Feb 16, 1999"
3442,Grand Forks International,Grand Forks,United States,GFK,KGFK,47.949256,-97.176111,845,-6,A,"Grand Forks, ND",101,101,104,104,3.9504950495049505,7.554455445544554,7.0,25.0,"Mon, Feb  8, 1999","Mon, Feb  1, 1999"
4038,Gulfport-Biloxi,Gulfport,United States,GPT,KGPT,30.407278,-89.070111,28,-6,A,"Gulfport/Biloxi, MS",83,83,84,84,4.590361445783133,8.59036144578313,10.0,19.0,"Thu, Feb  4, 1999","Sat, Feb 13, 1999"
3653,Austin Straubel International,Green Bay,United States,GRB,KGRB,44.485072,-88.129589,695,-6,A,"Green Bay, WI",186,187,188,188,3.71505376344086,11.770053475935834,8.0,96.0,"Fri, Feb  5, 1999","Thu, Feb 25, 1999"
3685,Gerald R. Ford International,Grand Rapids,United States,GRR,KGRR,42.880833,-85.522806,794,-5,A,"Grand Rapids, MI",647,649,659,659,4.037094281298298,10.896764252696457,11.0,89.0,"Fri, Feb  5, 1999","Wed, Feb 10, 1999"
4008,Piedmont Triad,Greensboro,United States,GSO,KGSO,36.09775,-79.937306,925,-5,A,"Greensboro/High Point, NC",1104,1109,1147,1148,3.82518115942029,13.249774571686206,18.0,130.0,"Fri, Feb 19, 1999","Mon, Feb  1, 1999"
4034,Greenville-Spartanburg International,Greenville,United States,GSP,KGSP,34.895556,-82.218889,964,-5,A,"Greer, SC",515,513,536,536,3.6834951456310696,12.30214424951267,10.0,96.0,"Thu, Feb 18, 1999","Tue, Feb  9, 1999"
3880,Great Falls International,Great Falls,United States,GTF,KGTF,47.482,-111.370689,3677,-7,A,"Great Falls, MT",191,190,196,196,4.539267015706807,8.136842105263158,12.0,36.0,"Fri, Feb 12, 1999","Wed, Feb 10, 1999"
7051,Gunnison - Crested Butte,Gunnison,United States,GUC,KGUC,38.533889,-106.933056,7678,-7,A,"Gunnison, CO",56,56,60,60,3.9107142857142856,13.428571428571429,19.0,42.0,"Tue, Feb 16, 1999","Mon, Feb  8, 1999"
4339,Yampa Valley,Hayden,United States,HDN,KHDN,40.481181,-107.21766,6602,-7,A,"Hayden, CO",159,161,167,168,3.69811320754717,14.173913043478262,16.0,78.0,"Fri, Feb 26, 1999","Tue, Feb 16, 1999"
3504,Helena Regional,Helena,United States,HLN,KHLN,46.606806,-111.98275,3877,-7,A,"Helena, MT",53,54,55,56,3.188679245283019,9.259259259259261,6.0,21.0,"Wed, Feb 10, 1999","Wed, Feb 10, 1999"
3728,Honolulu International,Honolulu,United States,HNL,PHNL,21.318681,-157.922428,13,-10,N,"Honolulu, HI",814,819,846,848,5.253071253071253,18.887667887667877,29.0,44.0,"Sat, Feb  6, 1999","Sun, Feb 21, 1999"
3566,William P. Hobby,Houston,United States,HOU,KHOU,29.645419,-95.278889,46,-6,A,"Houston, TX",4304,4309,4395,4394,3.8798791821561447,8.108377813877944,38.0,167.0,"Thu, Feb  4, 1999","Thu, Feb 18, 1999"
3589,Westchester County,White Plains,United States,HPN,KHPN,41.066959,-73.707575,439,-5,A,"White Plains, NY",333,339,374,375,4.306306306306309,14.693215339233038,23.0,250.0,"Fri, Feb  5, 1999","Thu, Feb 11, 1999"
3560,Valley International,Harlingen,United States,HRL,KHRL,26.2285,-97.654389,36,-6,A,"Harlingen/San Benito, TX",314,315,316,316,2.1401273885350314,6.038095238095238,21.0,15.0,"Thu, Feb 11, 1999","Thu, Feb 18, 1999"
4113,Huntsville International Airport-Carl T. Jones Field,Huntsville,United States,HSV,KHSV,34.6371944,-86.7750556,629,-6,A,"Huntsville, AL",416,417,436,436,4.716346153846154,12.491606714628288,13.0,100.0,"Tue, Feb 16, 1999","Tue, Feb  2, 1999"
3714,Washington Dulles International,Washington,United States,IAD,KIAD,38.944533,-77.455811,313,-5,A,"Washington, DC",3951,3967,4162,4157,6.147557580359401,15.894882782959474,58.0,114.0,"Fri, Feb 12, 1999","Tue, Feb  9, 1999"
3550,George Bush Intercontinental Houston,Houston,United States,IAH,KIAH,29.984433,-95.341442,97,-6,A,"Houston, TX",9699,9727,9916,9912,6.779977317249183,16.071861827901703,66.0,190.0,"Sat, Feb 20, 1999","Tue, Feb 16, 1999"
3457,Wichita Mid Continent,Wichita,United States,ICT,KICT,37.649944,-97.433056,1333,-6,A,"Wichita, KS",520,519,536,536,4.013461538461533,10.897880539499027,13.0,80.0,"Sun, Feb 21, 1999","Wed, Feb 24, 1999"
3845,Wilmington International,Wilmington,United States,ILM,KILM,34.270615,-77.902569,32,-5,A,"Wilmington, NC",138,137,148,148,4.0,9.62773722627737,34.0,24.0,"Fri, Feb 12, 1999","Tue, Feb 23, 1999"
3585,Indianapolis International,Indianapolis,United States,IND,KIND,39.717331,-86.294383,797,-5,A,"Indianapolis, IN",2521,2510,2571,2567,7.272114240380803,12.384462151394406,36.0,79.0,"Sat, Feb 13, 1999","Fri, Feb 12, 1999"
3857,Long Island MacArthur,Islip,United States,ISP,KISP,40.79525,-73.100222,99,-5,A,"Islip, NY",160,162,168,168,4.806249999999997,13.425925925925924,12.0,54.0,"Wed, Feb  3, 1999","Wed, Feb 17, 1999"
3947,Ithaca Tompkins Regional,Ithaca,United States,ITH,KITH,42.491028,-76.458444,1099,-5,A,"Ithaca/Cortland, NY",94,97,100,100,4.308510638297869,10.56701030927835,7.0,39.0,"Fri, Feb 19, 1999","Sun, Feb 21, 1999"
4027,Jackson Hole Airport,Jacksn Hole,United States,JAC,KJAC,43.60733333,-110.73775,6451,-7,A,"Jackson, WY",77,79,92,92,3.5714285714285716,14.810126582278482,8.0,55.0,"Sun, Feb 21, 1999","Sun, Feb 14, 1999"
3580,Jackson Evers International,Jackson,United States,JAN,KJAN,32.311167,-90.075889,346,-6,A,"Jackson/Vicksburg, MS",696,704,707,718,4.274425287356324,8.901988636363644,25.0,57.0,"Sun, Feb 14, 1999","Thu, Feb 11, 1999"
3712,Jacksonville International,Jacksonville,United States,JAX,KJAX,30.494056,-81.687861,30,-5,A,"Jacksonville, FL",1750,1754,1764,1764,4.319999999999997,11.037058152793625,22.0,58.0,"Mon, Feb 15, 1999","Fri, Feb  5, 1999"
3797,John F. Kennedy International,New York,United States,JFK,KJFK,40.639751,-73.778925,13,-5,A,"New York, NY",3090,3117,3351,3356,7.827508090614892,24.830285530959266,70.0,200.0,"Sun, Feb 28, 1999","Thu, Feb 18, 1999"
3492,Juneau International,Juneau,United States,JNU,PAJN,58.354972,-134.576278,21,-9,A,"Juneau, AK",261,266,280,280,3.4482758620689653,12.921052631578947,9.0,51.0,"Thu, Feb 11, 1999","Fri, Feb 12, 1999"
3514,Kona International At Keahole,Kona,United States,KOA,PHKO,19.738767,-156.045631,47,-10,N,"Kona, HI",56,56,56,56,3.8035714285714284,9.946428571428568,6.0,41.0,"Wed, Feb 10, 1999","Tue, Feb  2, 1999"
3808,Ketchikan International,Ketchikan,United States,KTN,PAKT,55.355556,-131.71375,88,-9,A,"Ketchikan, AK",163,163,168,168,3.478527607361963,10.815950920245395,7.0,38.0,"Thu, Feb 18, 1999","Sat, Feb  6, 1999"
3544,Capital City,Lansing,United States,LAN,KLAN,42.7787,-84.587357,861,-5,A,"Lansing, MI",162,162,164,164,4.098765432098762,8.524691358024688,18.0,50.0,"Sun, Feb 14, 1999","Fri, Feb 26, 1999"
3877,McCarran International,Las Vegas,United States,LAS,KLAS,36.080056,-115.15225,2141,-8,A,"Las Vegas, NV",9130,9130,9206,9211,4.783789704271646,13.533625410733855,39.0,94.0,"Thu, Feb 11, 1999","Fri, Feb  5, 1999"
3484,Los Angeles International,Los Angeles,United States,LAX,KLAX,33.942536,-118.408075,126,-8,A,"Los Angeles, CA",13338,13365,14005,14007,8.168241115609627,14.76049382716049,83.0,156.0,"Sat, Feb 13, 1999","Thu, Feb 11, 1999"
3829,Lubbock Preston Smith International,Lubbock,United States,LBB,KLBB,33.663639,-101.822778,3282,-6,A,"Lubbock, TX",488,488,496,496,2.55532786885246,7.434426229508195,10.0,24.0,"Thu, Feb 11, 1999","Tue, Feb  9, 1999"
4017,Blue Grass,Lexington KY,United States,LEX,KLEX,38.0365,-84.605889,979,-5,A,"Lexington, KY",295,296,303,304,4.362711864406781,10.871621621621623,12.0,62.0,"Mon, Feb 22, 1999","Sun, Feb  7, 1999"
3697,LaGuardia Airport,New York,United States,LGA,KLGA,40.777245,-73.872608,22,-5,A,"New York, NY",6952,6939,7406,7399,7.030063291139245,24.89710332900991,140.0,176.0,"Mon, Feb  8, 1999","Mon, Feb  8, 1999"
3582,Long Beach,Long Beach,United States,LGB,KLGB,33.817722,-118.151611,60,-8,A,"Long Beach, CA",216,215,220,219,4.509259259259261,10.59069767441861,13.0,27.0,"Fri, Feb 19, 1999","Thu, Feb  4, 1999"
3602,Lihue,Lihue,United States,LIH,PHLI,21.975983,-159.338958,153,-10,N,"Lihue, HI",28,28,28,28,6.285714285714286,6.25,16.0,13.0,"Sun, Feb  7, 1999","Wed, Feb 17, 1999"
3660,Adams Field,Little Rock,United States,LIT,KLIT,34.729444,-92.224306,262,-6,A,"Little Rock, AR",985,987,1000,1000,4.1147208121827425,9.166160081053707,25.0,96.0,"Mon, Feb 22, 1999","Thu, Feb 11, 1999"
3543,Lincoln,Lincoln,United States,LNK,KLNK,40.850971,-96.75925,1219,-6,A,"Lincoln, NE",212,213,216,215,3.7641509433962264,8.906103286384974,21.0,42.0,"Fri, Feb 19, 1999","Thu, Feb  4, 1999"
4044,LaCrosse Municipal,LaCrosse,United States,LSE,KLSE,43.878986,-91.256711,654,-6,A,"La Crosse, WI",39,39,40,40,3.0256410256410255,8.76923076923077,7.0,19.0,"Wed, Feb  3, 1999","Thu, Feb 25, 1999"
3652,Midland International,Midland,United States,MAF,KMAF,31.942528,-102.201914,2871,-6,A,"Midland/Odessa, TX",481,481,492,492,2.7193347193347193,7.1912681912681915,6.0,18.0,"Tue, Feb  9, 1999","Fri, Feb 26, 1999"
4128,MBS International,Saginaw,United States,MBS,KMBS,43.532913,-84.079647,668,-5,A,"Saginaw/Bay City/Midland, MI",259,259,263,263,3.9227799227799256,9.196911196911193,9.0,60.0,"Wed, Feb 24, 1999","Fri, Feb 26, 1999"
3458,Kansas City International,Kansas City,United States,MCI,KMCI,39.297606,-94.713905,1026,-6,A,"Kansas City, MO",4476,4480,4572,4572,4.174709562109048,11.267857142857133,21.0,208.0,"Mon, Feb 22, 1999","Thu, Feb 11, 1999"
3878,Orlando International,Orlando,United States,MCO,KMCO,28.429394,-81.308994,96,-5,A,"Orlando, FL",7466,7462,7599,7600,4.832038574872753,13.024926293218973,37.0,86.0,"Sun, Feb 21, 1999","Sun, Feb 28, 1999"
3542,Harrisburg International,Harrisburg,United States,MDT,KMDT,40.193494,-76.763403,310,-5,A,"Harrisburg, PA",574,577,601,601,4.076655052264806,11.495667244367423,11.0,114.0,"Sun, Feb 28, 1999","Fri, Feb 26, 1999"
3747,Chicago Midway International,Chicago,United States,MDW,KMDW,41.785972,-87.752417,620,-6,A,"Chicago, IL",3462,3476,3523,3524,4.048238012709425,10.088607594936715,33.0,99.0,"Wed, Feb 24, 1999","Tue, Feb  2, 1999"
3473,Memphis International,Memphis,United States,MEM,KMEM,35.042417,-89.976667,341,-6,A,"Memphis, TN",3969,3962,4025,4022,5.3965734441924935,13.29555779909137,19.0,81.0,"Thu, Feb 25, 1999","Mon, Feb  1, 1999"
3826,McAllen Miller International,Mcallen,United States,MFE,KMFE,26.175833,-98.238611,107,-6,A,"Mission/McAllen/Edinburg, TX",240,240,244,244,3.9833333333333334,9.216666666666665,10.0,58.0,"Tue, Feb 23, 1999","Sat, Feb 20, 1999"
4101,Rogue Valley International Medford,Medford,United States,MFR,KMFR,42.374228,-122.8735,1335,-8,A,"Medford, OR",82,82,84,84,3.1097560975609753,8.743902439024398,8.0,19.0,"Sun, Feb  7, 1999","Wed, Feb 24, 1999"
4115,Montgomery Regional Airport ,MONTGOMERY,United States,MGM,KMGM,32.3006389,-86.3939722,221,-6,A,"Montgomery, AL",110,109,112,112,4.0636363636363635,10.660550458715601,6.0,35.0,"Wed, Feb  3, 1999","Wed, Feb 24, 1999"
4011,Manchester Regional Airport,Manchester NH,United States,MHT,KMHT,42.932556,-71.435667,266,-5,A,"Manchester, NH",951,953,966,966,3.9011566771819144,10.727177334732428,36.0,109.0,"Mon, Feb 15, 1999","Thu, Feb 11, 1999"
3576,Miami International,Miami,United States,MIA,KMIA,25.79325,-80.290556,8,-5,A,"Miami, FL",4691,4690,5117,5115,6.878064378597307,18.652452025586296,62.0,122.0,"Mon, Feb  1, 1999","Mon, Feb  1, 1999"
3717,General Mitchell International,Milwaukee,United States,MKE,KMKE,42.947222,-87.896583,723,-6,A,"Milwaukee, WI",1134,1133,1168,1168,4.578483245149912,11.859664607237418,18.0,79.0,"Mon, Feb 22, 1999","Wed, Feb 10, 1999"
3671,Melbourne International,Melbourne,United States,MLB,KMLB,28.102753,-80.645258,33,-5,A,"Melbourne, FL",167,167,168,168,5.550898203592815,10.514970059880238,13.0,27.0,"Mon, Feb 22, 1999","Mon, Feb  1, 1999"
4072,Quad City International,Moline,United States,MLI,KMLI,41.448528,-90.507539,590,-6,A,"Moline, IL",131,131,132,132,3.221374045801526,8.16030534351145,6.0,25.0,"Thu, Feb 11, 1999","Tue, Feb 23, 1999"
3732,Monroe Regional,Monroe,United States,MLU,KMLU,32.510864,-92.037689,79,-6,A,"Monroe, LA",166,166,168,167,3.8313253012048194,9.602409638554214,8.0,24.0,"Thu, Feb  4, 1999","Sat, Feb 20, 1999"
3782,Mobile Regional,Mobile,United States,MOB,KMOB,30.691231,-88.242814,219,-6,A,"Mobile, AL",331,324,335,329,4.504531722054376,9.432098765432091,23.0,46.0,"Sun, Feb  7, 1999","Sat, Feb 27, 1999"
3498,Minot International,Minot,United States,MOT,KMOT,48.259378,-101.280333,1716,-6,A,"Minot, ND",83,83,84,84,4.759036144578315,9.518072289156628,9.0,29.0,"Thu, Feb  4, 1999","Wed, Feb  3, 1999"
3948,Monterey Peninsula,Monterey,United States,MRY,KMRY,36.587,-121.842944,257,-8,A,"Monterey, CA",52,52,56,56,3.0576923076923075,7.211538461538462,5.0,30.0,"Fri, Feb 26, 1999","Tue, Feb 16, 1999"
3459,Dane County Regional-Truax Field,Madison,United States,MSN,KMSN,43.139858,-89.337514,887,-6,A,"Madison, WI",328,330,348,348,4.237804878048777,11.781818181818174,10.0,88.0,"Wed, Feb 24, 1999","Fri, Feb 26, 1999"
4216,Missoula International,Missoula,United States,MSO,KMSO,46.916306,-114.090556,3205,-7,A,"Missoula, MT",158,160,168,166,4.4936708860759484,9.718749999999996,7.0,31.0,"Mon, Feb  1, 1999","Wed, Feb 17, 1999"
3858,Minneapolis St. Paul International,Minneapolis,United States,MSP,KMSP,44.881956,-93.221767,841,-6,A,"Minneapolis, MN",10338,10377,10648,10659,6.151673437802285,17.470367158138103,87.0,347.0,"Thu, Feb 11, 1999","Thu, Feb 11, 1999"
3861,Louis Armstrong New Orleans International,New Orleans,United States,MSY,KMSY,29.993389,-90.258028,4,-6,A,"New Orleans, LA",3799,3794,3852,3853,3.7101868912871816,9.248813916710581,29.0,114.0,"Wed, Feb 10, 1999","Sun, Feb 28, 1999"
6880,Montrose Regional Airport,Montrose CO,United States,MTJ,KMTJ,38.509794,-107.894242,5759,-7,A,"Montrose/Delta, CO",76,76,76,76,3.6315789473684212,10.210526315789474,7.0,17.0,"Sat, Feb 27, 1999","Sun, Feb 14, 1999"
3515,Myrtle Beach International,Myrtle Beach,United States,MYR,KMYR,33.67975,-78.928333,25,-5,A,"Myrtle Beach, SC",163,164,166,166,3.834355828220859,9.939024390243903,7.0,36.0,"Sun, Feb 14, 1999","Mon, Feb 15, 1999"
3453,Metropolitan Oakland International,Oakland,United States,OAK,KOAK,37.721278,-122.220722,9,-8,A,"Oakland, CA",4185,4191,4269,4269,3.9502986857825566,9.527081842042485,32.0,77.0,"Fri, Feb 12, 1999","Sat, Feb 27, 1999"
3456,Kahului,Kahului,United States,OGG,PHOG,20.89865,-156.430458,54,-10,N,"Kahului, HI",217,217,224,224,4.930875576036867,10.317972350230415,11.0,33.0,"Thu, Feb 25, 1999","Tue, Feb  2, 1999"
3863,Will Rogers World,Oklahoma City,United States,OKC,KOKC,35.393089,-97.600733,1295,-6,A,"Oklahoma City, OK",1513,1514,1535,1535,3.670852610707203,8.969616908850735,17.0,86.0,"Sun, Feb  7, 1999","Wed, Feb 24, 1999"
3454,Eppley Airfield,Omaha,United States,OMA,KOMA,41.303167,-95.894069,984,-6,A,"Omaha, NE",1267,1271,1279,1283,3.3796369376479887,11.484657749803304,36.0,115.0,"Mon, Feb 22, 1999","Wed, Feb 10, 1999"
3615,Nome,Nome,United States,OME,PAOM,64.512203,-165.445247,37,-9,A,"Nome, AK",61,62,68,68,3.081967213114754,7.370967741935484,7.0,29.0,"Sat, Feb 13, 1999","Thu, Feb 25, 1999"
3734,Ontario International,Ontario,United States,ONT,KONT,34.056,-117.601194,944,-8,A,"Ontario, CA",2587,2586,2640,2641,3.923850019327401,9.030549110595512,23.0,51.0,"Fri, Feb 12, 1999","Sun, Feb 28, 1999"
3830,Chicago O'Hare International,Chicago,United States,ORD,KORD,41.978603,-87.904842,668,-6,A,"Chicago, IL",21082,21224,22791,22790,6.983350725737589,17.281332453825854,91.0,205.0,"Thu, Feb 11, 1999","Thu, Feb 18, 1999"
3611,Norfolk International,Norfolk,United States,ORF,KORF,36.894611,-76.201222,26,-5,A,"Norfolk, VA",1175,1164,1214,1212,3.6025531914893634,10.587628865979386,45.0,108.0,"Fri, Feb 12, 1999","Fri, Feb 26, 1999"
3693,Ralph WienMemorial,Kotzebue,United States,OTZ,PAOT,66.884678,-162.59855,11,-9,A,"Kotzebue, AK",59,59,68,68,3.220338983050847,6.3559322033898304,6.0,13.0,"Wed, Feb  3, 1999","Fri, Feb 12, 1999"
3722,Palm Beach International,West Palm Beach,United States,PBI,KPBI,26.683161,-80.095589,19,-5,A,"West Palm Beach/Palm Beach, FL",1896,1897,1926,1926,4.54008438818565,13.305745914602007,38.0,78.0,"Mon, Feb 15, 1999","Sun, Feb 28, 1999"
3720,Portland International,Portland,United States,PDX,KPDX,45.588722,-122.5975,30,-8,A,"Portland, OR",4151,4158,4239,4239,4.041917610214397,11.08633958633959,23.0,39.0,"Sun, Feb 28, 1999","Sun, Feb 28, 1999"
3752,Philadelphia International,Philadelphia,United States,PHL,KPHL,39.871944,-75.241139,36,-5,A,"Philadelphia, PA",8451,8452,8832,8832,6.396402792568923,17.534193090392804,82.0,177.0,"Fri, Feb 12, 1999","Thu, Feb 11, 1999"
3462,Phoenix Sky Harbor International,Phoenix,United States,PHX,KPHX,33.434278,-112.011583,1135,-7,N,"Phoenix, AZ",13524,13558,13723,13725,5.3348861283644,14.498156070216849,45.0,116.0,"Sun, Feb 28, 1999","Thu, Feb 18, 1999"
3570,Pittsburgh International,Pittsburgh (pennsylva),United States,PIT,KPIT,40.491467,-80.232872,1204,-5,A,"Pittsburgh, PA",7678,7741,8000,7999,5.884735608231308,14.428368427851696,30.0,193.0,"Fri, Feb 12, 1999","Fri, Feb 12, 1999"
3564,Pensacola Regional,Pensacola,United States,PNS,KPNS,30.473425,-87.186611,121,-6,A,"Pensacola, FL",463,459,472,469,4.105831533477322,10.276688453159034,11.0,41.0,"Wed, Feb 17, 1999","Mon, Feb 15, 1999"
6133,Tri Cities Airport,Pasco,United States,PSC,PSC,46.2647,-119.119,410,-8,A,"Pasco/Kennewick/Richland, WA",109,107,112,110,4.302752293577979,9.046728971962613,12.0,20.0,"Thu, Feb  4, 1999","Mon, Feb  8, 1999"
4147,Petersburg James A. Johnson,Petersburg,United States,PSG,PAPG,56.801667,-132.945278,105,-9,A,"Petersburg, AK",49,51,56,56,3.061224489795918,6.294117647058823,11.0,12.0,"Sun, Feb 21, 1999","Fri, Feb  5, 1999"
3839,Palm Springs International,Palm Springs,United States,PSP,KPSP,33.829667,-116.506694,477,-8,A,"Palm Springs, CA",419,419,432,432,4.4200477326969,11.133651551312651,19.0,48.0,"Tue, Feb 16, 1999","Mon, Feb  1, 1999"
3641,Theodore Francis Green State,Providence,United States,PVD,KPVD,41.732581,-71.420383,55,-5,A,"Providence, RI",1675,1663,1733,1733,4.103283582089556,11.31749849669271,27.0,90.0,"Sun, Feb 28, 1999","Thu, Feb 25, 1999"
3862,Portland International Jetport,Portland,United States,PWM,KPWM,43.646161,-70.309281,77,-5,A,"Portland, ME",468,472,479,480,3.905982905982902,10.663135593220336,10.0,54.0,"Tue, Feb  2, 1999","Mon, Feb 22, 1999"
4087,Rapid City Regional Airport,Rapid City,United States,RAP,KRAP,44.045278,-103.057222,3204,-7,A,"Rapid City, SD",56,56,56,56,3.982142857142857,8.303571428571427,7.0,17.0,"Sat, Feb  6, 1999","Sat, Feb 20, 1999"
3626,Raleigh Durham International,Raleigh-durham,United States,RDU,KRDU,35.877639,-78.787472,435,-5,A,"Raleigh/Durham, NC",2210,2207,2306,2307,4.015837104072413,11.315360217489806,32.0,141.0,"Fri, Feb 19, 1999","Thu, Feb 11, 1999"
3608,Richmond International,Richmond,United States,RIC,KRIC,37.505167,-77.319667,167,-5,A,"Richmond, VA",1153,1144,1192,1190,4.476149176062448,11.044580419580418,16.0,195.0,"Wed, Feb 17, 1999","Fri, Feb 19, 1999"
3807,Reno Tahoe International,Reno,United States,RNO,KRNO,39.499108,-119.768108,4415,-8,A,"Reno, NV",2002,1997,2014,2014,4.15534465534464,9.89233850776165,21.0,51.0,"Mon, Feb  1, 1999","Wed, Feb 10, 1999"
4016,Roanoke Regional,Roanoke VA,United States,ROA,KROA,37.325472,-79.975417,1175,-5,A,"Roanoke, VA",171,169,184,184,4.426900584795323,8.715976331360947,8.0,24.0,"Wed, Feb 10, 1999","Mon, Feb  1, 1999"
3622,Greater Rochester International,Rochester,United States,ROC,KROC,43.118866,-77.672389,559,-5,A,"Rochester, NY",1132,1131,1176,1173,5.340106007067135,10.55172413793104,35.0,56.0,"Sun, Feb 28, 1999","Tue, Feb  2, 1999"
4048,Rochester,Rochester,United States,RST,KRST,43.908283,-92.500014,1317,-6,A,"Rochester, MN",167,165,179,179,3.5988023952095807,11.18181818181818,8.0,86.0,"Fri, Feb 12, 1999","Thu, Feb 11, 1999"
3793,Southwest Florida International,Fort Myers,United States,RSW,KRSW,26.536167,-81.755167,30,-5,A,"Fort Myers, FL",1316,1317,1326,1328,3.9741641337386064,13.476082004555808,29.0,89.0,"Sun, Feb 28, 1999","Mon, Feb  8, 1999"
3731,San Diego International,San Diego,United States,SAN,KSAN,32.733556,-117.189667,17,-8,A,"San Diego, CA",4857,4848,4985,4985,2.838171710932671,12.131188118811883,22.0,153.0,"Tue, Feb 23, 1999","Mon, Feb  1, 1999"
3621,San Antonio International,San Antonio,United States,SAT,KSAT,29.533694,-98.469778,809,-6,A,"San Antonio, TX",2867,2864,2917,2918,3.1464945936519033,9.172835195530705,21.0,78.0,"Mon, Feb  1, 1999","Mon, Feb  8, 1999"
3613,Savannah Hilton Head International,Savannah,United States,SAV,KSAV,32.127583,-81.202139,51,-5,A,"Savannah, GA",377,376,388,387,5.193633952254642,11.257978723404262,11.0,35.0,"Thu, Feb  4, 1999","Mon, Feb  1, 1999"
3949,Santa Barbara Municipal,Santa Barbara,United States,SBA,KSBA,34.426211,-119.840372,10,-8,A,"Santa Barbara, CA",109,109,111,111,3.036697247706421,6.091743119266055,14.0,15.0,"Mon, Feb 22, 1999","Fri, Feb 26, 1999"
4359,South Bend Regional,South Bend,United States,SBN,KSBN,41.708661,-86.31725,799,-5,A,"South Bend, IN",225,225,228,228,4.1066666666666665,9.955555555555561,12.0,42.0,"Sun, Feb 21, 1999","Sat, Feb 13, 1999"
3620,Deadhorse,Deadhorse,United States,SCC,PASC,70.19475,-148.465167,64,-9,A,"Deadhorse, AK",35,35,40,40,3.085714285714286,6.714285714285714,5.0,13.0,"Tue, Feb  2, 1999","Wed, Feb  3, 1999"
4014,Louisville International Airport,Louisville,United States,SDF,KSDF,38.1740858,-85.7364989,501,-5,A,"Louisville, KY",1734,1733,1767,1767,4.795271049596308,9.532025389497988,48.0,70.0,"Sun, Feb 21, 1999","Fri, Feb 12, 1999"
3577,Seattle Tacoma International,Seattle,United States,SEA,KSEA,47.449,-122.309306,433,-8,A,"Seattle, WA",6916,6948,7128,7126,4.56795835743201,14.211283822682786,34.0,80.0,"Wed, Feb 10, 1999","Mon, Feb  1, 1999"
3469,San Francisco International,San Francisco,United States,SFO,KSFO,37.618972,-122.374889,13,-8,A,"San Francisco, CA",9567,9612,10261,10258,5.451761262673777,16.32937994173956,112.0,123.0,"Sat, Feb 13, 1999","Mon, Feb  1, 1999"
4348,Springfield Branson National,Springfield,United States,SGF,KSGF,37.245667,-93.388639,1268,-6,A,"Springfield, MO",156,156,160,160,3.3076923076923084,8.974358974358974,6.0,27.0,"Sun, Feb 28, 1999","Thu, Feb 11, 1999"
3609,Shreveport Regional,Shreveport,United States,SHV,KSHV,32.446629,-93.8256,258,-6,A,"Shreveport, LA",293,290,300,300,4.563139931740612,8.77241379310345,23.0,21.0,"Wed, Feb 10, 1999","Sun, Feb 14, 1999"
3856,Sitka Rocky Gutierrez,Sitka,United States,SIT,PASI,57.047138,-135.361611,21,-9,A,"Sitka, AK",81,83,84,84,3.728395061728395,10.3855421686747,10.0,29.0,"Thu, Feb  4, 1999","Sun, Feb  7, 1999"
3748,Norman Y. Mineta San Jose International,San Jose,United States,SJC,KSJC,37.3626,-121.929022,62,-8,A,"San Jose, CA",3739,3752,3903,3902,3.663813853971652,11.931503198294243,31.0,65.0,"Tue, Feb  9, 1999","Mon, Feb  1, 1999"
3536,Salt Lake City International,Salt Lake City,United States,SLC,KSLC,40.788389,-111.977772,4227,-7,A,"Salt Lake City, UT",6259,6267,6390,6387,5.4254673270490565,16.049465453965112,54.0,132.0,"Thu, Feb 11, 1999","Wed, Feb  3, 1999"
3817,Sacramento International,Sacramento,United States,SMF,KSMF,38.695417,-121.590778,27,-8,A,"Sacramento, CA",2651,2654,2676,2676,3.5511127876273076,8.876412961567441,23.0,37.0,"Tue, Feb  9, 1999","Tue, Feb  2, 1999"
3867,John Wayne Airport Orange County,Santa Ana,United States,SNA,KSNA,33.675667,-117.868222,56,-8,A,"Santa Ana, CA",2565,2570,2647,2653,5.375048732943466,13.014007782101144,66.0,122.0,"Thu, Feb 11, 1999","Sat, Feb 20, 1999"
4067,Sarasota Bradenton International,Sarasota,United States,SRQ,KSRQ,27.395444,-82.554389,30,-5,A,"Sarasota/Bradenton, FL",459,457,460,458,4.0413943355119875,11.564551422319479,8.0,98.0,"Sat, Feb 20, 1999","Tue, Feb  9, 1999"
3678,Lambert St. Louis International,St. Louis,United States,STL,KSTL,38.748697,-90.370028,618,-6,A,"St. Louis, MO",13143,13175,13437,13443,6.0750970098151145,17.275977229601487,62.0,234.0,"Fri, Feb 26, 1999","Thu, Feb 11, 1999"
3753,Sioux Gateway-Colonel Bud Day Field,Sioux City,United States,SUX,KSUX,42.402603,-96.384367,1098,-6,A,"Sioux City, IA",50,50,52,52,3.8,8.02,7.0,18.0,"Wed, Feb 10, 1999","Thu, Feb 18, 1999"
3661,Stewart International,Newburgh,United States,SWF,KSWF,41.504094,-74.104839,491,-5,A,"Newburgh/Poughkeepsie, NY",77,78,85,84,4.766233766233766,12.858974358974358,13.0,68.0,"Wed, Feb 24, 1999","Mon, Feb  8, 1999"
3745,Syracuse Hancock International,Syracuse,United States,SYR,KSYR,43.111187,-76.106311,421,-5,A,"Syracuse, NY",859,861,887,887,4.254947613504075,12.76422764227642,13.0,76.0,"Sat, Feb 27, 1999","Mon, Feb  8, 1999"
3698,Tallahassee Regional,Tallahassee,United States,TLH,KTLH,30.396528,-84.350333,81,-5,A,"Tallahassee, FL",189,188,196,196,3.8412698412698414,10.074468085106384,11.0,26.0,"Mon, Feb  1, 1999","Fri, Feb 12, 1999"
4040,Toledo,Toledo,United States,TOL,KTOL,41.586806,-83.807833,684,-5,A,"Toledo, OH",73,73,80,80,3.410958904109589,10.02739726027397,7.0,25.0,"Sat, Feb  6, 1999","Sun, Feb  7, 1999"
3646,Tampa International,Tampa,United States,TPA,KTPA,27.975472,-82.53325,26,-5,A,"Tampa, FL",4445,4438,4519,4517,4.1858267716535495,11.877422262280305,48.0,100.0,"Wed, Feb 24, 1999","Sun, Feb 28, 1999"
4116,Tri-Cities Regional Airport,BRISTOL,United States,TRI,KTRI,36.4752222,-82.4074167,1519,-5,A,"Bristol/Johnson City/Kingsport, TN",98,98,104,104,4.010204081632655,6.183673469387755,6.0,15.0,"Fri, Feb 12, 1999","Sat, Feb 20, 1999"
3855,Tulsa International,Tulsa,United States,TUL,KTUL,36.198389,-95.888111,677,-6,A,"Tulsa, OK",1407,1406,1441,1442,4.07533759772566,10.5199146514936,24.0,126.0,"Mon, Feb 15, 1999","Mon, Feb  1, 1999"
3636,Tucson International,Tucson,United States,TUS,KTUS,32.116083,-110.941028,2643,-7,N,"Tucson, AZ",1477,1478,1504,1504,3.9119837508463102,10.686062246278766,25.0,97.0,"Thu, Feb  4, 1999","Thu, Feb 18, 1999"
4023,Cherry Capital Airport,Traverse City,United States,TVC,KTVC,44.741445,-85.582235,624,-5,A,"Traverse City, MI",59,59,60,60,3.1016949152542375,15.288135593220339,8.0,70.0,"Wed, Feb 10, 1999","Sun, Feb 28, 1999"
3676,McGhee Tyson,Knoxville,United States,TYS,KTYS,35.810972,-83.994028,981,-5,A,"Knoxville, TN",553,552,560,560,4.3725135623869855,11.489130434782613,14.0,86.0,"Thu, Feb 18, 1999","Thu, Feb 18, 1999"
3873,Eglin AFB,Valparaiso,United States,VPS,KVPS,30.48325,-86.5254,87,-6,A,"Valparaiso, FL",84,83,84,84,6.892857142857143,9.795180722891565,13.0,70.0,"Sat, Feb 20, 1999","Fri, Feb 12, 1999"
5969,Wrangell Airport,Wrangell,United States,WRG,PAWG,56.4843,-132.37,44,-9,A,"Wrangell, AK",52,52,56,56,2.9615384615384617,5.826923076923077,6.0,13.0,"Sun, Feb 21, 1999","Sun, Feb 28, 1999"
6803,Yakutat,Yakutat,United States,YAK,PAYA,59.3012,-139.3937,33,-9,A,"Yakutat, AK",51,53,56,56,3.2941176470588234,5.90566037735849,9.0,16.0,"Sat, Feb 27, 1999","Sun, Feb 14, 1999"
