airport_id,name,city,country,iata_faa,iaco,latitude,longitude,altitude,zone,dst,city_state,avg_able_landings,avg_able_takeoffs,total_landings,total_takeoffs,avg_taxi_in,avg_taxi_out,longest_taxi_in,longest_taxi_out,lng_tx_in_date,lng_tx_out_date
4355,Lehigh Valley International,Allentown,United States,ABE,KABE,40.652083,-75.440806,393,-5,A,"Allentown/Bethlehem/Easton, PA",513,513,527,526,3.988304093567255,11.922027290448343,19.0,120.0,"Sat, May 29, 1999","Wed, May 12, 1999"
4019,Albuquerque International Sunport,Albuquerque,United States,ABQ,KABQ,35.0402222,-106.6091944,5355,-7,A,"Albuquerque, NM",3135,3131,3161,3160,4.364274322169057,10.900351325455103,19.0,86.0,"Sun, May  2, 1999","Tue, May  4, 1999"
3531,Kodiak,Kodiak,United States,ADQ,PADQ,57.749967,-152.493856,78,-9,A,"Kodiak, AK",61,61,62,62,2.540983606557376,6.639344262295082,5.0,16.0,"Sat, May 29, 1999","Sun, May 30, 1999"
3658,Augusta Regional At Bush Field,Bush Field,United States,AGS,KAGS,33.369944,-81.9645,144,-5,A,"Augusta, GA",147,147,154,154,4.428571428571427,11.31292517006803,8.0,42.0,"Tue, May 11, 1999","Thu, May  6, 1999"
3794,King Salmon,King Salmon,United States,AKN,PAKN,58.676778,-156.649278,68,-9,A,"King Salmon, AK",20,20,22,22,3.7,6.2,10.0,13.0,"Mon, May 24, 1999","Mon, May 24, 1999"
3864,Albany International,Albany,United States,ALB,KALB,42.748267,-73.801692,285,-5,A,"Albany, NY",964,960,984,981,4.184647302904556,12.063541666666671,30.0,86.0,"Tue, May 18, 1999","Thu, May 13, 1999"
3840,Rick Husband Amarillo International,Amarillo,United States,AMA,KAMA,35.219369,-101.705931,3607,-6,A,"Amarillo, TX",399,402,410,410,3.3458646616541365,7.992537313432838,9.0,35.0,"Sat, May 15, 1999","Sat, May  1, 1999"
3774,Ted Stevens Anchorage International,Anchorage,United States,ANC,PANC,61.174361,-149.996361,152,-9,A,"Anchorage, AK",1671,1672,1821,1820,4.387193297426686,11.45753588516746,48.0,40.0,"Sat, May 15, 1999","Wed, May 26, 1999"
3682,Hartsfield Jackson Atlanta International,Atlanta,United States,ATL,KATL,33.636719,-84.428067,1026,-5,A,"Atlanta, GA",21614,21756,22260,22304,8.666419913019359,20.46538885824592,124.0,189.0,"Sat, May 22, 1999","Fri, May  7, 1999"
3673,Austin Bergstrom International,Austin,United States,AUS,KAUS,30.194528,-97.669889,542,-6,A,"Austin, TX",3671,3684,3780,3781,4.789430672841185,12.087404994571122,212.0,396.0,"Mon, May 17, 1999","Mon, May 17, 1999"
4007,Asheville Regional Airport,Asheville,United States,AVL,KAVL,35.436194,-82.541806,2165,-5,A,"Asheville, NC",116,117,122,122,3.3620689655172415,9.136752136752143,6.0,29.0,"Thu, May  6, 1999","Tue, May 25, 1999"
4286,Wilkes Barre Scranton International,Scranton,United States,AVP,KAVP,41.338478,-75.723403,962,-5,A,"Scranton/Wilkes-Barre, PA",133,132,140,139,3.5714285714285716,7.803030303030303,7.0,25.0,"Fri, May 21, 1999","Thu, May 27, 1999"
4039,Kalamazoo,Kalamazoo,United States,AZO,KAZO,42.234875,-85.552058,874,-5,A,"Kalamazoo, MI",112,112,113,113,4.062500000000002,8.339285714285717,8.0,23.0,"Sun, May 16, 1999","Mon, May 24, 1999"
3825,Bradley International,Windsor Locks,United States,BDL,KBDL,41.938889,-72.683222,173,-5,A,"Hartford, CT",2536,2553,2592,2609,4.670347003154578,13.216999608303961,23.0,142.0,"Sun, May 23, 1999","Tue, May 18, 1999"
3599,Bethel,Bethel,United States,BET,PABE,60.779778,-161.838,121,-9,A,"Bethel, AK",86,86,88,88,2.895348837209302,8.872093023255816,5.0,27.0,"Thu, May 13, 1999","Thu, May 20, 1999"
3558,Meadows Field,Bakersfield,United States,BFL,KBFL,35.433598,-119.05677,507,-8,A,"Bakersfield, CA",30,30,31,31,6.4,8.266666666666664,10.0,29.0,"Mon, May 10, 1999","Mon, May 10, 1999"
4129,Greater Binghamton-Edwin A. Link Field,Binghamton,United States,BGM,KBGM,42.208689,-75.979839,1636,-5,A,"Binghamton, NY",87,87,87,87,4.241379310344828,7.344827586206897,8.0,18.0,"Wed, May 26, 1999","Sun, May 23, 1999"
3811,Birmingham International,Birmingham,United States,BHM,KBHM,33.562942,-86.75355,644,-6,A,"Birmingham, AL",1797,1793,1828,1827,3.6227045075125197,9.81762409369771,36.0,79.0,"Thu, May  6, 1999","Thu, May  6, 1999"
4021,Billings Logan International Airport,Billings,United States,BIL,KBIL,45.80921,-108.537654,3652,-7,A,"Billings, MT",247,246,247,247,3.6639676113360324,9.788617886178862,7.0,24.0,"Sat, May 29, 1999","Wed, May 19, 1999"
4083,Bismarck Municipal Airport,Bismarck,United States,BIS,KBIS,46.775842,-100.757931,1661,-6,A,"Bismarck/Mandan, ND",121,121,122,122,3.446280991735537,9.272727272727275,6.0,116.0,"Fri, May 14, 1999","Wed, May 12, 1999"
3690,Nashville International,Nashville,United States,BNA,KBNA,36.124472,-86.678194,599,-6,A,"Nashville, TN",4463,4460,4532,4526,5.036970647546489,10.996636771300441,38.0,139.0,"Fri, May  7, 1999","Wed, May 12, 1999"
3495,Boise Air Terminal,Boise,United States,BOI,KBOI,43.564361,-116.222861,2871,-7,A,"Boise, ID",968,965,970,969,3.0816115702479343,8.414507772020718,22.0,43.0,"Sat, May 15, 1999","Mon, May  3, 1999"
3448,General Edward Lawrence Logan International,Boston,United States,BOS,KBOS,42.364347,-71.005181,19,-5,A,"Boston, MA",8423,8426,8840,8839,7.639558352131069,18.334678376453795,68.0,207.0,"Sat, May  8, 1999","Tue, May  4, 1999"
3571,Wiley Post Will Rogers Memorial,Barrow,United States,BRW,PABR,71.285446,-156.766003,44,-9,A,"Barrow, AK",66,69,78,78,3.212121212121212,5.869565217391305,14.0,19.0,"Tue, May 25, 1999","Thu, May 27, 1999"
3846,Baton Rouge Metro-Ryan Field,Baton Rouge,United States,BTR,KBTR,30.533167,-91.149639,70,-6,A,"Baton Rouge, LA",387,387,392,394,4.258397932816538,10.09302325581396,10.0,72.0,"Tue, May 11, 1999","Sun, May 30, 1999"
3711,Burlington International,Burlington,United States,BTV,KBTV,44.471861,-73.153278,335,-5,A,"Burlington, VT",210,210,217,217,3.8285714285714287,11.085714285714285,13.0,97.0,"Mon, May 24, 1999","Fri, May  7, 1999"
3820,Buffalo Niagara International,Buffalo,United States,BUF,KBUF,42.940525,-78.732167,724,-5,A,"Buffalo, NY",1572,1569,1612,1608,3.483460559796439,11.289356277883993,27.0,182.0,"Wed, May 19, 1999","Tue, May 18, 1999"
3644,Bob Hope,Burbank,United States,BUR,KBUR,34.200667,-118.358667,778,-8,A,"Burbank, CA",2356,2356,2393,2394,2.0432937181663844,9.628607809847185,37.0,35.0,"Sun, May  9, 1999","Sat, May  8, 1999"
3849,Baltimore Washington International,Baltimore,United States,BWI,KBWI,39.175361,-76.668333,146,-5,A,"Baltimore, MD",6665,6673,6775,6773,4.214853713428359,11.82916229581895,34.0,117.0,"Mon, May 24, 1999","Sat, May 22, 1999"
4020,Gallatin Field,Bozeman,United States,BZN,KBZN,45.777643,-111.160151,4500,-7,A,"Bozeman, MT",123,123,124,124,4.357723577235771,10.69918699186992,8.0,35.0,"Sun, May 23, 1999","Sat, May  8, 1999"
3561,Columbia Metropolitan,Colombia,United States,CAE,KCAE,33.938833,-81.119528,236,-5,A,"Columbia, SC",397,398,409,409,4.5541561712846415,12.193467336683415,18.0,70.0,"Sun, May 23, 1999","Sat, May 22, 1999"
4112,Akron Canton Regional Airport,Akron,United States,CAK,KCAK,40.9160833,-81.4421944,1228,-5,A,"Akron, OH",85,86,87,87,4.082352941176469,9.62790697674419,8.0,78.0,"Fri, May  7, 1999","Sat, May  8, 1999"
3610,Merle K. Mudhole Smith,Cordova,United States,CDV,PACV,60.491778,-145.477556,48,-9,A,"Cordova, AK",60,60,62,62,3.1666666666666665,6.466666666666666,6.0,22.0,"Mon, May 10, 1999","Sat, May  1, 1999"
3578,Lovell Field,Chattanooga,United States,CHA,KCHA,35.035278,-85.203808,683,-5,A,"Chattanooga, TN",84,84,86,86,3.8214285714285716,7.988095238095238,6.0,13.0,"Sat, May  8, 1999","Sun, May 16, 1999"
3806,Charleston AFB International,Charleston,United States,CHS,KCHS,32.898647,-80.040528,45,-5,A,"Charleston, SC",591,588,602,601,5.0642978003384105,10.360544217687078,18.0,66.0,"Thu, May 27, 1999","Wed, May  5, 1999"
4043,Cedar Rapids,Cedar Rapids,United States,CID,KCID,41.884694,-91.710806,869,-6,A,"Cedar Rapids/Iowa City, IA",435,436,446,446,4.117241379310345,10.128440366972473,20.0,205.0,"Fri, May 28, 1999","Wed, May 12, 1999"
3486,Cleveland Hopkins International,Cleveland,United States,CLE,KCLE,41.411689,-81.849794,791,-5,A,"Cleveland, OH",4780,4783,4865,4866,4.397071129707112,15.560526865983686,31.0,122.0,"Sun, May 23, 1999","Mon, May 17, 1999"
3876,Charlotte Douglas International,Charlotte,United States,CLT,KCLT,35.214,-80.943139,748,-5,A,"Charlotte, NC",9907,9918,10199,10195,5.222368022610289,13.96612220205686,74.0,169.0,"Thu, May 13, 1999","Sat, May  8, 1999"
3759,Port Columbus International,Columbus,United States,CMH,KCMH,39.997972,-82.891889,815,-5,A,"Columbus, OH",3106,3103,3177,3174,4.234707018673534,10.935546245568785,38.0,113.0,"Thu, May  6, 1999","Tue, May 11, 1999"
3819,City Of Colorado Springs Municipal,Colorado Springs,United States,COS,KCOS,38.805805,-104.700778,6187,-7,A,"Colorado Springs, CO",936,931,966,966,6.314102564102565,14.193340494092372,23.0,69.0,"Sun, May  2, 1999","Mon, May 31, 1999"
3744,Corpus Christi International,Corpus Christi,United States,CRP,KCRP,27.770361,-97.501222,44,-6,A,"Corpus Christi, TX",246,249,254,254,3.2154471544715446,8.016064257028113,12.0,228.0,"Tue, May 25, 1999","Mon, May 10, 1999"
4285,Yeager,Charleston,United States,CRW,KCRW,38.373147,-81.593189,981,-5,A,"Charleston/Dunbar, WV",102,102,111,111,3.2254901960784315,7.284313725490196,7.0,20.0,"Mon, May  3, 1999","Thu, May 20, 1999"
3488,Cincinnati Northern Kentucky International,Cincinnati,United States,CVG,KCVG,39.048836,-84.667822,896,-5,A,"Cincinnati, OH",6381,6374,6524,6512,6.190722457295095,16.552871038594294,100.0,124.0,"Tue, May 18, 1999","Sun, May 23, 1999"
3950,Daytona Beach International,Daytona Beach,United States,DAB,KDAB,29.179917,-81.058056,34,-5,A,"Daytona Beach, FL",244,244,247,247,3.7131147540983607,11.75819672131147,17.0,32.0,"Thu, May 13, 1999","Mon, May  3, 1999"
3502,Dallas Love Field,Dallas,United States,DAL,KDAL,32.847111,-96.851778,487,-6,A,"Dallas, TX",4032,4064,4253,4255,2.9766865079365092,10.221702755905506,123.0,215.0,"Mon, May 17, 1999","Mon, May 17, 1999"
3627,James M. Cox Dayton International,Dayton,United States,DAY,KDAY,39.902375,-84.219375,1009,-5,A,"Dayton, OH",847,850,878,877,4.677685950413218,12.403529411764698,16.0,78.0,"Mon, May 24, 1999","Mon, May 31, 1999"
3520,Ronald Reagan Washington National,Washington,United States,DCA,KDCA,38.852083,-77.037722,15,-5,A,"Washington, DC",6521,6543,6822,6831,4.736850176353297,16.360537979520196,72.0,223.0,"Sat, May 22, 1999","Tue, May 18, 1999"
3751,Denver International,Denver,United States,DEN,KDEN,39.861656,-104.673178,5431,-7,A,"Denver, CO",11097,11128,11287,11287,6.747409209696322,14.978702372393956,56.0,193.0,"Sat, May 15, 1999","Mon, May 17, 1999"
3670,Dallas Fort Worth International,Dallas-fort Worth,United States,DFW,KDFW,32.896828,-97.037997,607,-6,A,"Dallas/Fort Worth, TX",19590,19775,20708,20689,10.601123021949963,22.56536030341342,129.0,364.0,"Mon, May 17, 1999","Mon, May 17, 1999"
3460,Dillingham,Dillingham,United States,DLG,PADL,59.044667,-158.5055,74,-9,A,"Dillingham, AK",22,22,22,22,2.3181818181818183,7.136363636363637,4.0,20.0,"Mon, May 24, 1999","Sat, May 22, 1999"
3598,Duluth International,Duluth,United States,DLH,KDLH,46.842091,-92.193649,1428,-6,A,"Duluth, MN",85,86,92,92,3.847058823529412,7.883720930232561,10.0,23.0,"Wed, May 26, 1999","Thu, May  6, 1999"
3729,Des Moines International,Des Moines,United States,DSM,KDSM,41.533972,-93.663083,958,-6,A,"Des Moines, IA",542,546,560,560,4.691881918819192,10.921245421245422,12.0,80.0,"Fri, May 28, 1999","Mon, May 31, 1999"
3645,Detroit Metro Wayne County,Detroit,United States,DTW,KDTW,42.212444,-83.353389,645,-5,A,"Detroit, MI",12479,12510,12758,12762,8.986938055933898,19.89472422062347,53.0,184.0,"Fri, May 14, 1999","Mon, May 17, 1999"
3860,Unalaska,Unalaska,United States,DUT,PADU,53.900139,-166.5435,22,-9,A,"Unalaska, AK",48,48,62,62,2.5208333333333344,5.791666666666667,4.0,13.0,"Wed, May  5, 1999","Mon, May 10, 1999"
3946,Elmira Corning Regional,Elmira,United States,ELM,KELM,42.159889,-76.891611,954,-5,A,"Elmira/Corning, NY",109,109,109,109,3.770642201834862,6.761467889908257,8.0,21.0,"Sun, May 16, 1999","Sun, May 16, 1999"
3559,El Paso International,El Paso,United States,ELP,KELP,31.80725,-106.377583,3958,-7,A,"El Paso, TX",2087,2087,2111,2111,3.110685194058457,10.385241974125536,21.0,83.0,"Fri, May 28, 1999","Tue, May  4, 1999"
4276,Erie International-Tom Ridge Field,Erie,United States,ERI,KERI,42.082022,-80.176217,733,-5,A,"Erie, PA",117,117,118,118,3.581196581196582,6.863247863247863,6.0,44.0,"Thu, May  6, 1999","Mon, May 24, 1999"
4099,Mahlon Sweet Field,Eugene,United States,EUG,KEUG,44.124583,-123.211972,374,-8,A,"Eugene, OR",184,184,184,184,2.8695652173913055,9.054347826086957,5.0,23.0,"Fri, May 21, 1999","Thu, May  6, 1999"
3494,Newark Liberty International,Newark,United States,EWR,KEWR,40.6925,-74.168667,18,-5,A,"Newark, NJ",10075,10108,10557,10554,8.669776674938003,32.166007123070706,72.0,243.0,"Tue, May 18, 1999","Thu, May 13, 1999"
3832,Fairbanks International,Fairbanks,United States,FAI,PAFA,64.815114,-147.856267,434,-9,A,"Fairbanks, AK",448,448,476,475,2.953124999999998,9.169642857142852,7.0,30.0,"Tue, May 25, 1999","Sat, May 29, 1999"
4292,Hector International Airport,Fargo,United States,FAR,KFAR,46.92065,-96.8157639,902,-6,A,"Fargo, ND",175,175,178,178,4.394285714285716,9.22857142857143,8.0,33.0,"Mon, May 10, 1999","Tue, May  4, 1999"
3687,Fresno Yosemite International,Fresno,United States,FAT,KFAT,36.776194,-119.71814,336,-8,A,"Fresno, CA",31,31,31,31,4.419354838709678,9.870967741935484,6.0,26.0,"Mon, May 10, 1999","Mon, May 10, 1999"
5738,Fayetteville Regional-Grannis Field,Fayetteville,United States,FAY,KFAY,34.9912,-78.8803,189,-5,A,"Fayetteville, NC",111,111,121,121,3.900900900900901,7.954954954954955,7.0,12.0,"Wed, May 12, 1999","Mon, May 10, 1999"
4127,Glacier Park International,Kalispell,United States,FCA,KFCA,48.310472,-114.256,2977,-7,A,"Kalispell, MT",51,61,51,62,5.137254901960785,9.786885245901642,9.0,33.0,"Sun, May 30, 1999","Sat, May 15, 1999"
3533,Fort Lauderdale Hollywood International,Fort Lauderdale,United States,FLL,KFLL,26.072583,-80.15275,9,-5,A,"Fort Lauderdale, FL",3656,3657,3699,3699,4.442833698030631,14.119223407164338,29.0,218.0,"Thu, May 20, 1999","Sat, May  8, 1999"
4089,Bishop International,Flint,United States,FNT,KFNT,42.965424,-83.743629,782,-5,A,"Flint, MI",115,115,115,115,3.9217391304347853,8.382608695652173,25.0,24.0,"Fri, May 21, 1999","Fri, May  7, 1999"
4009,Sioux Falls,Sioux Falls,United States,FSD,KFSD,43.582014,-96.741914,1429,-6,A,"Sioux Falls, SD",326,326,328,328,4.825153374233131,10.788343558282204,15.0,125.0,"Tue, May 11, 1999","Mon, May 10, 1999"
4041,Fort Wayne,Fort Wayne,United States,FWA,KFWA,40.978472,-85.195139,815,-5,A,"Fort Wayne, IN",25,26,25,26,3.92,9.5,6.0,15.0,"Thu, May 27, 1999","Sun, May  2, 1999"
3467,Spokane International,Spokane,United States,GEG,KGEG,47.619861,-117.533833,2376,-8,A,"Spokane, WA",1115,1112,1157,1157,3.3919282511210773,8.941546762589919,22.0,30.0,"Sat, May  1, 1999","Thu, May 13, 1999"
3442,Grand Forks International,Grand Forks,United States,GFK,KGFK,47.949256,-97.176111,845,-6,A,"Grand Forks, ND",81,81,82,82,3.45679012345679,6.679012345679013,5.0,18.0,"Fri, May 14, 1999","Sun, May  9, 1999"
4038,Gulfport-Biloxi,Gulfport,United States,GPT,KGPT,30.407278,-89.070111,28,-6,A,"Gulfport/Biloxi, MS",92,92,93,93,5.543478260869563,8.58695652173913,9.0,23.0,"Thu, May  6, 1999","Thu, May  6, 1999"
3653,Austin Straubel International,Green Bay,United States,GRB,KGRB,44.485072,-88.129589,695,-6,A,"Green Bay, WI",193,194,195,195,4.005181347150258,10.4020618556701,8.0,95.0,"Sat, May  1, 1999","Wed, May 12, 1999"
3685,Gerald R. Ford International,Grand Rapids,United States,GRR,KGRR,42.880833,-85.522806,794,-5,A,"Grand Rapids, MI",699,699,716,716,4.091559370529334,10.600858369098713,45.0,100.0,"Sun, May  2, 1999","Tue, May 25, 1999"
4008,Piedmont Triad,Greensboro,United States,GSO,KGSO,36.09775,-79.937306,925,-5,A,"Greensboro/High Point, NC",1209,1214,1248,1245,3.998345740281212,12.742174629324545,40.0,95.0,"Thu, May 13, 1999","Sat, May 22, 1999"
4034,Greenville-Spartanburg International,Greenville,United States,GSP,KGSP,34.895556,-82.218889,964,-5,A,"Greer, SC",563,566,586,588,3.873889875666078,12.0547703180212,25.0,47.0,"Mon, May 10, 1999","Sat, May 22, 1999"
3880,Great Falls International,Great Falls,United States,GTF,KGTF,47.482,-111.370689,3677,-7,A,"Great Falls, MT",183,183,185,184,4.1147540983606605,8.792349726775951,8.0,27.0,"Wed, May  5, 1999","Sun, May  9, 1999"
3504,Helena Regional,Helena,United States,HLN,KHLN,46.606806,-111.98275,3877,-7,A,"Helena, MT",60,61,61,61,3.0166666666666666,9.770491803278688,7.0,23.0,"Mon, May  3, 1999","Mon, May 10, 1999"
3728,Honolulu International,Honolulu,United States,HNL,PHNL,21.318681,-157.922428,13,-10,N,"Honolulu, HI",930,931,935,935,4.936559139784946,18.857142857142833,30.0,44.0,"Fri, May 28, 1999","Mon, May 17, 1999"
3566,William P. Hobby,Houston,United States,HOU,KHOU,29.645419,-95.278889,46,-6,A,"Houston, TX",4780,4813,4950,4948,4.3424686192468585,9.469353833367933,37.0,265.0,"Mon, May 10, 1999","Mon, May 10, 1999"
3589,Westchester County,White Plains,United States,HPN,KHPN,41.066959,-73.707575,439,-5,A,"White Plains, NY",374,376,433,433,5.050802139037436,18.906914893617024,27.0,179.0,"Tue, May 18, 1999","Mon, May 31, 1999"
3560,Valley International,Harlingen,United States,HRL,KHRL,26.2285,-97.654389,36,-6,A,"Harlingen/San Benito, TX",338,340,349,349,2.044378698224854,5.805882352941176,5.0,11.0,"Fri, May 14, 1999","Mon, May 10, 1999"
4113,Huntsville International Airport-Carl T. Jones Field,Huntsville,United States,HSV,KHSV,34.6371944,-86.7750556,629,-6,A,"Huntsville, AL",463,463,481,481,4.814254859611229,12.183585313174946,12.0,84.0,"Fri, May 21, 1999","Fri, May  7, 1999"
3714,Washington Dulles International,Washington,United States,IAD,KIAD,38.944533,-77.455811,313,-5,A,"Washington, DC",6096,6093,6337,6328,6.33054461942258,19.317249302478196,48.0,165.0,"Mon, May 24, 1999","Wed, May 19, 1999"
3550,George Bush Intercontinental Houston,Houston,United States,IAH,KIAH,29.984433,-95.341442,97,-6,A,"Houston, TX",10318,10446,10673,10675,6.9493118821477005,19.526325866360246,102.0,261.0,"Mon, May 17, 1999","Mon, May 10, 1999"
3457,Wichita Mid Continent,Wichita,United States,ICT,KICT,37.649944,-97.433056,1333,-6,A,"Wichita, KS",568,569,592,592,4.225352112676059,11.379613356766253,20.0,83.0,"Wed, May 26, 1999","Tue, May  4, 1999"
3845,Wilmington International,Wilmington,United States,ILM,KILM,34.270615,-77.902569,32,-5,A,"Wilmington, NC",168,166,173,173,3.7916666666666665,8.325301204819276,7.0,19.0,"Thu, May 27, 1999","Sun, May 30, 1999"
3585,Indianapolis International,Indianapolis,United States,IND,KIND,39.717331,-86.294383,797,-5,A,"Indianapolis, IN",2885,2881,2939,2937,7.467937608318889,12.825754946199256,27.0,173.0,"Sun, May  9, 1999","Tue, May  4, 1999"
3857,Long Island MacArthur,Islip,United States,ISP,KISP,40.79525,-73.100222,99,-5,A,"Islip, NY",574,576,589,589,3.8745644599303137,10.624999999999995,13.0,160.0,"Sat, May  8, 1999","Mon, May 24, 1999"
3947,Ithaca Tompkins Regional,Ithaca,United States,ITH,KITH,42.491028,-76.458444,1099,-5,A,"Ithaca/Cortland, NY",108,108,109,109,4.092592592592593,9.537037037037036,7.0,36.0,"Thu, May  6, 1999","Mon, May 24, 1999"
3580,Jackson Evers International,Jackson,United States,JAN,KJAN,32.311167,-90.075889,346,-6,A,"Jackson/Vicksburg, MS",774,783,780,790,4.546511627906979,9.02809706257982,33.0,51.0,"Sat, May 22, 1999","Tue, May 25, 1999"
3712,Jacksonville International,Jacksonville,United States,JAX,KJAX,30.494056,-81.687861,30,-5,A,"Jacksonville, FL",1911,1911,1928,1929,4.649398220826797,10.837781266352705,21.0,59.0,"Sun, May 23, 1999","Tue, May 25, 1999"
3797,John F. Kennedy International,New York,United States,JFK,KJFK,40.639751,-73.778925,13,-5,A,"New York, NY",3713,3721,3786,3786,8.474010234311866,30.127653856490188,92.0,251.0,"Sun, May 16, 1999","Tue, May 18, 1999"
3492,Juneau International,Juneau,United States,JNU,PAJN,58.354972,-134.576278,21,-9,A,"Juneau, AK",369,365,372,372,3.197831978319782,10.936986301369856,13.0,49.0,"Mon, May 17, 1999","Fri, May 28, 1999"
3514,Kona International At Keahole,Kona,United States,KOA,PHKO,19.738767,-156.045631,47,-10,N,"Kona, HI",62,62,62,62,3.7096774193548385,8.306451612903228,8.0,19.0,"Thu, May 20, 1999","Wed, May 19, 1999"
3808,Ketchikan International,Ketchikan,United States,KTN,PAKT,55.355556,-131.71375,88,-9,A,"Ketchikan, AK",200,200,217,217,3.345,9.545000000000002,12.0,35.0,"Fri, May 21, 1999","Sat, May 22, 1999"
3544,Capital City,Lansing,United States,LAN,KLAN,42.7787,-84.587357,861,-5,A,"Lansing, MI",177,176,180,180,3.9491525423728815,7.9602272727272725,8.0,30.0,"Sat, May 15, 1999","Wed, May 12, 1999"
3877,McCarran International,Las Vegas,United States,LAS,KLAS,36.080056,-115.15225,2141,-8,A,"Las Vegas, NV",10221,10225,10285,10295,4.958125428040293,14.431882640586785,52.0,129.0,"Fri, May 21, 1999","Fri, May  7, 1999"
3484,Los Angeles International,Los Angeles,United States,LAX,KLAX,33.942536,-118.408075,126,-8,A,"Los Angeles, CA",15325,15325,15812,15804,8.188580750407843,15.367895595432303,115.0,132.0,"Mon, May 10, 1999","Sun, May  2, 1999"
3829,Lubbock Preston Smith International,Lubbock,United States,LBB,KLBB,33.663639,-101.822778,3282,-6,A,"Lubbock, TX",462,466,485,485,2.64069264069264,7.2703862660944205,10.0,100.0,"Thu, May 20, 1999","Tue, May  4, 1999"
4017,Blue Grass,Lexington KY,United States,LEX,KLEX,38.0365,-84.605889,979,-5,A,"Lexington, KY",325,321,334,330,4.344615384615378,11.433021806853578,11.0,159.0,"Wed, May 12, 1999","Thu, May 13, 1999"
3697,LaGuardia Airport,New York,United States,LGA,KLGA,40.777245,-73.872608,22,-5,A,"New York, NY",7752,7780,8210,8209,7.026573787409706,29.313753213367598,140.0,231.0,"Sun, May 16, 1999","Wed, May 19, 1999"
3582,Long Beach,Long Beach,United States,LGB,KLGB,33.817722,-118.151611,60,-8,A,"Long Beach, CA",267,267,271,271,4.588014981273405,12.074906367041198,11.0,36.0,"Fri, May  7, 1999","Mon, May 10, 1999"
3602,Lihue,Lihue,United States,LIH,PHLI,21.975983,-159.338958,153,-10,N,"Lihue, HI",31,31,31,31,5.387096774193548,7.161290322580645,8.0,16.0,"Wed, May 12, 1999","Tue, May 25, 1999"
3660,Adams Field,Little Rock,United States,LIT,KLIT,34.729444,-92.224306,262,-6,A,"Little Rock, AR",1080,1080,1100,1100,4.187037037037038,9.916666666666666,21.0,63.0,"Mon, May 10, 1999","Wed, May 26, 1999"
3543,Lincoln,Lincoln,United States,LNK,KLNK,40.850971,-96.75925,1219,-6,A,"Lincoln, NE",261,259,266,266,3.417624521072797,8.78378378378379,8.0,64.0,"Sat, May 22, 1999","Wed, May 12, 1999"
4044,LaCrosse Municipal,LaCrosse,United States,LSE,KLSE,43.878986,-91.256711,654,-6,A,"La Crosse, WI",61,61,62,62,3.459016393442623,9.819672131147541,9.0,92.0,"Wed, May 26, 1999","Mon, May 10, 1999"
6958,Greenbrier Valley Airport,Lewisburg,United States,LWB,KLWB,37.858333,-80.399444,2302,-5,U,"Lewisburg, WV",14,14,14,14,4.571428571428571,6.571428571428571,10.0,20.0,"Wed, May 19, 1999","Sun, May 16, 1999"
3652,Midland International,Midland,United States,MAF,KMAF,31.942528,-102.201914,2871,-6,A,"Midland/Odessa, TX",519,520,534,534,2.732177263969169,7.448076923076923,7.0,68.0,"Sun, May 23, 1999","Wed, May  5, 1999"
4128,MBS International,Saginaw,United States,MBS,KMBS,43.532913,-84.079647,668,-5,A,"Saginaw/Bay City/Midland, MI",302,304,317,316,3.907284768211922,10.072368421052634,11.0,62.0,"Fri, May 14, 1999","Fri, May 21, 1999"
3458,Kansas City International,Kansas City,United States,MCI,KMCI,39.297606,-94.713905,1026,-6,A,"Kansas City, MO",4936,4930,4995,4989,4.179497568881649,10.967545638945262,62.0,162.0,"Mon, May 17, 1999","Tue, May  4, 1999"
3878,Orlando International,Orlando,United States,MCO,KMCO,28.429394,-81.308994,96,-5,A,"Orlando, FL",8198,8220,8296,8304,4.95193949743839,14.88637469586374,65.0,193.0,"Wed, May  5, 1999","Mon, May 24, 1999"
3542,Harrisburg International,Harrisburg,United States,MDT,KMDT,40.193494,-76.763403,310,-5,A,"Harrisburg, PA",598,601,614,615,4.265886287625417,11.950083194675535,11.0,95.0,"Wed, May 12, 1999","Wed, May 12, 1999"
3747,Chicago Midway International,Chicago,United States,MDW,KMDW,41.785972,-87.752417,620,-6,A,"Chicago, IL",4127,4135,4194,4194,4.500121153380188,14.426360338573156,47.0,178.0,"Wed, May 12, 1999","Wed, May 12, 1999"
3473,Memphis International,Memphis,United States,MEM,KMEM,35.042417,-89.976667,341,-6,A,"Memphis, TN",4226,4230,4310,4304,5.714150496923807,14.59881796690307,54.0,108.0,"Sun, May 16, 1999","Mon, May 10, 1999"
3826,McAllen Miller International,Mcallen,United States,MFE,KMFE,26.175833,-98.238611,107,-6,A,"Mission/McAllen/Edinburg, TX",292,292,297,297,3.9965753424657495,8.873287671232882,13.0,52.0,"Sun, May  2, 1999","Fri, May 28, 1999"
4101,Rogue Valley International Medford,Medford,United States,MFR,KMFR,42.374228,-122.8735,1335,-8,A,"Medford, OR",93,93,93,93,3.4086021505376345,9.494623655913978,5.0,38.0,"Sun, May 23, 1999","Wed, May 19, 1999"
4115,Montgomery Regional Airport ,MONTGOMERY,United States,MGM,KMGM,32.3006389,-86.3939722,221,-6,A,"Montgomery, AL",120,120,122,122,4.150000000000001,12.633333333333333,9.0,40.0,"Fri, May 21, 1999","Fri, May  7, 1999"
4011,Manchester Regional Airport,Manchester NH,United States,MHT,KMHT,42.932556,-71.435667,266,-5,A,"Manchester, NH",1047,1043,1060,1059,3.872015281757402,10.999041227229148,27.0,85.0,"Thu, May  6, 1999","Mon, May 24, 1999"
3576,Miami International,Miami,United States,MIA,KMIA,25.79325,-80.290556,8,-5,A,"Miami, FL",5438,5449,5581,5573,6.869069510849591,19.393650211047905,130.0,261.0,"Tue, May 18, 1999","Mon, May 10, 1999"
3717,General Mitchell International,Milwaukee,United States,MKE,KMKE,42.947222,-87.896583,723,-6,A,"Milwaukee, WI",1255,1253,1280,1279,4.631872509960163,11.674381484437351,24.0,150.0,"Sun, May  2, 1999","Wed, May 12, 1999"
3671,Melbourne International,Melbourne,United States,MLB,KMLB,28.102753,-80.645258,33,-5,A,"Melbourne, FL",181,181,183,183,4.414364640883979,10.430939226519335,11.0,32.0,"Sun, May  9, 1999","Thu, May  6, 1999"
4072,Quad City International,Moline,United States,MLI,KMLI,41.448528,-90.507539,590,-6,A,"Moline, IL",145,144,148,148,3.062068965517242,7.222222222222222,10.0,24.0,"Sun, May 16, 1999","Mon, May 17, 1999"
3732,Monroe Regional,Monroe,United States,MLU,KMLU,32.510864,-92.037689,79,-6,A,"Monroe, LA",183,183,184,184,4.612021857923496,9.841530054644808,27.0,31.0,"Mon, May 17, 1999","Thu, May 13, 1999"
3782,Mobile Regional,Mobile,United States,MOB,KMOB,30.691231,-88.242814,219,-6,A,"Mobile, AL",355,355,368,367,4.011267605633802,9.515492957746478,19.0,64.0,"Thu, May  6, 1999","Sun, May 23, 1999"
3498,Minot International,Minot,United States,MOT,KMOT,48.259378,-101.280333,1716,-6,A,"Minot, ND",93,93,93,93,4.666666666666666,8.559139784946238,8.0,70.0,"Sun, May  2, 1999","Wed, May 12, 1999"
3948,Monterey Peninsula,Monterey,United States,MRY,KMRY,36.587,-121.842944,257,-8,A,"Monterey, CA",61,60,61,61,3.459016393442623,8.299999999999999,8.0,27.0,"Sun, May 16, 1999","Mon, May  3, 1999"
3459,Dane County Regional-Truax Field,Madison,United States,MSN,KMSN,43.139858,-89.337514,887,-6,A,"Madison, WI",377,381,391,391,4.145888594164455,10.889763779527565,8.0,42.0,"Thu, May  6, 1999","Tue, May  4, 1999"
4216,Missoula International,Missoula,United States,MSO,KMSO,46.916306,-114.090556,3205,-7,A,"Missoula, MT",180,177,184,182,4.527777777777781,8.666666666666671,8.0,18.0,"Sat, May  8, 1999","Tue, May 18, 1999"
3858,Minneapolis St. Paul International,Minneapolis,United States,MSP,KMSP,44.881956,-93.221767,841,-6,A,"Minneapolis, MN",11648,11704,11941,11948,6.910199175824173,19.584501025290432,74.0,230.0,"Sun, May 16, 1999","Mon, May 17, 1999"
3861,Louis Armstrong New Orleans International,New Orleans,United States,MSY,KMSY,29.993389,-90.258028,4,-6,A,"New Orleans, LA",4109,4112,4159,4158,3.6444390362618635,9.843628404669282,36.0,158.0,"Sun, May 30, 1999","Tue, May  4, 1999"
3515,Myrtle Beach International,Myrtle Beach,United States,MYR,KMYR,33.67975,-78.928333,25,-5,A,"Myrtle Beach, SC",195,196,196,196,3.928205128205128,9.928571428571427,7.0,65.0,"Mon, May 24, 1999","Mon, May 24, 1999"
3453,Metropolitan Oakland International,Oakland,United States,OAK,KOAK,37.721278,-122.220722,9,-8,A,"Oakland, CA",4634,4632,4735,4735,3.964177816141553,8.771804835924003,30.0,75.0,"Sun, May  2, 1999","Wed, May 12, 1999"
3456,Kahului,Kahului,United States,OGG,PHOG,20.89865,-156.430458,54,-10,N,"Kahului, HI",248,246,248,248,4.879032258064515,11.093495934959353,10.0,47.0,"Fri, May 14, 1999","Sat, May  8, 1999"
3863,Will Rogers World,Oklahoma City,United States,OKC,KOKC,35.393089,-97.600733,1295,-6,A,"Oklahoma City, OK",1652,1656,1678,1678,4.120460048426168,9.794082125603849,40.0,95.0,"Sun, May  9, 1999","Wed, May  5, 1999"
3454,Eppley Airfield,Omaha,United States,OMA,KOMA,41.303167,-95.894069,984,-6,A,"Omaha, NE",1444,1439,1452,1449,3.3206371191135746,10.23071577484366,12.0,119.0,"Fri, May 28, 1999","Tue, May  4, 1999"
3615,Nome,Nome,United States,OME,PAOM,64.512203,-165.445247,37,-9,A,"Nome, AK",69,72,79,79,3.0579710144927534,6.430555555555555,5.0,24.0,"Thu, May 13, 1999","Mon, May 24, 1999"
3734,Ontario International,Ontario,United States,ONT,KONT,34.056,-117.601194,944,-8,A,"Ontario, CA",2875,2879,2921,2922,3.844173913043475,9.085793678360558,16.0,55.0,"Wed, May 26, 1999","Fri, May 14, 1999"
3830,Chicago O'Hare International,Chicago,United States,ORD,KORD,41.978603,-87.904842,668,-6,A,"Chicago, IL",23709,23813,25187,25179,7.166898646083756,21.661193465753982,66.0,230.0,"Mon, May 31, 1999","Mon, May 24, 1999"
3611,Norfolk International,Norfolk,United States,ORF,KORF,36.894611,-76.201222,26,-5,A,"Norfolk, VA",1354,1356,1380,1381,3.7813884785819787,10.966814159292044,15.0,193.0,"Fri, May 14, 1999","Mon, May 17, 1999"
3693,Ralph Wien Memorial,Kotzebue,United States,OTZ,PAOT,66.884678,-162.59855,11,-9,A,"Kotzebue, AK",68,68,80,80,2.705882352941177,6.5,7.0,14.0,"Sat, May  8, 1999","Tue, May 25, 1999"
3722,Palm Beach International,West Palm Beach,United States,PBI,KPBI,26.683161,-80.095589,19,-5,A,"West Palm Beach/Palm Beach, FL",1541,1540,1557,1558,4.532121998702151,12.70454545454547,61.0,148.0,"Wed, May 19, 1999","Thu, May  6, 1999"
3720,Portland International,Portland,United States,PDX,KPDX,45.588722,-122.5975,30,-8,A,"Portland, OR",4625,4624,4683,4685,3.505297297297297,11.520544982698963,30.0,96.0,"Sat, May 15, 1999","Tue, May 25, 1999"
3752,Philadelphia International,Philadelphia,United States,PHL,KPHL,39.871944,-75.241139,36,-5,A,"Philadelphia, PA",9480,9515,9896,9903,6.823734177215191,21.92947976878618,80.0,274.0,"Mon, May 24, 1999","Tue, May 18, 1999"
3462,Phoenix Sky Harbor International,Phoenix,United States,PHX,KPHX,33.434278,-112.011583,1135,-7,N,"Phoenix, AZ",14794,14836,14961,14968,5.415573881303209,14.422822863305482,49.0,127.0,"Sat, May  1, 1999","Mon, May 17, 1999"
4046,Peoria Regional,Peoria,United States,PIA,KPIA,40.664203,-89.693258,660,-6,A,"Peoria, IL",61,61,62,62,4.655737704918033,8.163934426229508,19.0,35.0,"Tue, May 18, 1999","Sat, May 15, 1999"
3570,Pittsburgh International,Pittsburgh (pennsylva),United States,PIT,KPIT,40.491467,-80.232872,1204,-5,A,"Pittsburgh, PA",8221,8262,8493,8492,5.931760126505304,14.016945049624784,33.0,184.0,"Tue, May 18, 1999","Mon, May 17, 1999"
3564,Pensacola Regional,Pensacola,United States,PNS,KPNS,30.473425,-87.186611,121,-6,A,"Pensacola, FL",506,506,517,517,4.254940711462447,10.009881422924904,9.0,29.0,"Wed, May 26, 1999","Thu, May 13, 1999"
6133,Tri Cities Airport,Pasco,United States,PSC,PSC,46.2647,-119.119,410,-8,A,"Pasco/Kennewick/Richland, WA",116,116,121,121,3.956896551724138,8.336206896551717,6.0,21.0,"Thu, May 27, 1999","Sat, May  8, 1999"
4147,Petersburg James A. Johnson,Petersburg,United States,PSG,PAPG,56.801667,-132.945278,105,-9,A,"Petersburg, AK",59,59,62,62,2.7457627118644066,6.6440677966101696,8.0,15.0,"Sun, May 23, 1999","Thu, May 20, 1999"
3839,Palm Springs International,Palm Springs,United States,PSP,KPSP,33.829667,-116.506694,477,-8,A,"Palm Springs, CA",245,248,249,250,4.146938775510203,12.229838709677423,13.0,68.0,"Tue, May 18, 1999","Mon, May 24, 1999"
3641,Theodore Francis Green State,Providence,United States,PVD,KPVD,41.732581,-71.420383,55,-5,A,"Providence, RI",1829,1829,1853,1854,4.289229086932753,11.455986878075446,27.0,67.0,"Mon, May 24, 1999","Mon, May 31, 1999"
3862,Portland International Jetport,Portland,United States,PWM,KPWM,43.646161,-70.309281,77,-5,A,"Portland, ME",479,480,490,490,3.778705636743215,10.822916666666666,8.0,87.0,"Sat, May  8, 1999","Sun, May 23, 1999"
4087,Rapid City Regional Airport,Rapid City,United States,RAP,KRAP,44.045278,-103.057222,3204,-7,A,"Rapid City, SD",124,124,124,124,3.774193548387097,8.01612903225807,6.0,20.0,"Mon, May  3, 1999","Tue, May 25, 1999"
3626,Raleigh Durham International,Raleigh-durham,United States,RDU,KRDU,35.877639,-78.787472,435,-5,A,"Raleigh/Durham, NC",2565,2567,2623,2625,4.354775828460021,11.622126996493956,53.0,103.0,"Tue, May 11, 1999","Tue, May 18, 1999"
3608,Richmond International,Richmond,United States,RIC,KRIC,37.505167,-77.319667,167,-5,A,"Richmond, VA",1376,1373,1409,1403,4.651162790697672,11.249089584850683,58.0,215.0,"Tue, May 18, 1999","Mon, May 24, 1999"
3807,Reno Tahoe International,Reno,United States,RNO,KRNO,39.499108,-119.768108,4415,-8,A,"Reno, NV",2169,2166,2185,2183,4.0728446288612234,9.843490304709137,26.0,68.0,"Sun, May 23, 1999","Sun, May 30, 1999"
4016,Roanoke Regional,Roanoke VA,United States,ROA,KROA,37.325472,-79.975417,1175,-5,A,"Roanoke, VA",189,190,202,202,4.719576719576722,8.73157894736842,9.0,18.0,"Mon, May 17, 1999","Fri, May  7, 1999"
3622,Greater Rochester International,Rochester,United States,ROC,KROC,43.118866,-77.672389,559,-5,A,"Rochester, NY",1222,1216,1259,1255,5.027823240589194,11.452302631578945,27.0,104.0,"Sun, May  9, 1999","Mon, May 24, 1999"
4048,Rochester,Rochester,United States,RST,KRST,43.908283,-92.500014,1317,-6,A,"Rochester, MN",179,178,184,184,3.474860335195532,11.949438202247194,7.0,78.0,"Thu, May 13, 1999","Mon, May 17, 1999"
3793,Southwest Florida International,Fort Myers,United States,RSW,KRSW,26.536167,-81.755167,30,-5,A,"Fort Myers, FL",1009,1015,1017,1020,3.912784935579789,12.285714285714288,20.0,64.0,"Sat, May  1, 1999","Fri, May  7, 1999"
3731,San Diego International,San Diego,United States,SAN,KSAN,32.733556,-117.189667,17,-8,A,"San Diego, CA",5642,5635,5725,5723,2.880184331797237,12.435314995563456,22.0,103.0,"Fri, May 28, 1999","Mon, May 17, 1999"
3621,San Antonio International,San Antonio,United States,SAT,KSAT,29.533694,-98.469778,809,-6,A,"San Antonio, TX",3167,3167,3222,3226,3.0849384275339427,10.326176191979778,31.0,137.0,"Mon, May 17, 1999","Tue, May  4, 1999"
3613,Savannah Hilton Head International,Savannah,United States,SAV,KSAV,32.127583,-81.202139,51,-5,A,"Savannah, GA",426,426,432,432,5.093896713615023,10.80281690140845,12.0,60.0,"Sun, May  2, 1999","Wed, May 26, 1999"
3949,Santa Barbara Municipal,Santa Barbara,United States,SBA,KSBA,34.426211,-119.840372,10,-8,A,"Santa Barbara, CA",120,119,121,121,2.625,6.478991596638656,5.0,19.0,"Fri, May  7, 1999","Wed, May 26, 1999"
4359,South Bend Regional,South Bend,United States,SBN,KSBN,41.708661,-86.31725,799,-5,A,"South Bend, IN",253,254,261,261,4.067193675889323,9.027559055118115,13.0,21.0,"Wed, May 26, 1999","Mon, May 24, 1999"
3620,Deadhorse,Deadhorse,United States,SCC,PASC,70.19475,-148.465167,64,-9,A,"Deadhorse, AK",41,41,47,47,2.3658536585365852,5.585365853658536,4.0,10.0,"Wed, May  5, 1999","Thu, May 13, 1999"
4014,Louisville International Airport,Louisville,United States,SDF,KSDF,38.1740858,-85.7364989,501,-5,A,"Louisville, KY",1950,1943,1972,1970,4.845128205128201,9.540401441070516,16.0,96.0,"Thu, May  6, 1999","Wed, May 12, 1999"
3577,Seattle Tacoma International,Seattle,United States,SEA,KSEA,47.449,-122.309306,433,-8,A,"Seattle, WA",8293,8310,8690,8680,4.953092969974692,14.022984356197355,74.0,118.0,"Thu, May 13, 1999","Fri, May 21, 1999"
3469,San Francisco International,San Francisco,United States,SFO,KSFO,37.618972,-122.374889,13,-8,A,"San Francisco, CA",10915,10948,11314,11310,5.427943197434719,16.99735111435873,66.0,211.0,"Tue, May 25, 1999","Wed, May 26, 1999"
4348,Springfield Branson National,Springfield,United States,SGF,KSGF,37.245667,-93.388639,1268,-6,A,"Springfield, MO",172,172,174,174,3.4709302325581395,10.61046511627907,12.0,52.0,"Fri, May  7, 1999","Wed, May 12, 1999"
3609,Shreveport Regional,Shreveport,United States,SHV,KSHV,32.446629,-93.8256,258,-6,A,"Shreveport, LA",322,319,327,323,4.673913043478265,8.946708463949848,18.0,25.0,"Mon, May 17, 1999","Mon, May 31, 1999"
3856,Sitka Rocky Gutierrez,Sitka,United States,SIT,PASI,57.047138,-135.361611,21,-9,A,"Sitka, AK",123,123,124,124,3.260162601626017,8.682926829268293,7.0,39.0,"Fri, May 14, 1999","Sun, May  2, 1999"
3748,Norman Y. Mineta San Jose International,San Jose,United States,SJC,KSJC,37.3626,-121.929022,62,-8,A,"San Jose, CA",4320,4318,4400,4399,3.5789351851851854,12.462945808244548,27.0,94.0,"Sun, May 23, 1999","Wed, May  5, 1999"
3536,Salt Lake City International,Salt Lake City,United States,SLC,KSLC,40.788389,-111.977772,4227,-7,A,"Salt Lake City, UT",6742,6731,6849,6838,5.313853455947797,15.530530381815485,45.0,146.0,"Sat, May  1, 1999","Fri, May 21, 1999"
3817,Sacramento International,Sacramento,United States,SMF,KSMF,38.695417,-121.590778,27,-8,A,"Sacramento, CA",3079,3080,3104,3103,3.6446898343618046,8.96623376623379,31.0,60.0,"Fri, May 28, 1999","Sun, May 16, 1999"
3867,John Wayne Airport Orange County,Santa Ana,United States,SNA,KSNA,33.675667,-117.868222,56,-8,A,"Santa Ana, CA",2842,2860,2942,2947,5.712878254750178,13.49405594405595,49.0,154.0,"Wed, May 26, 1999","Mon, May 17, 1999"
4067,Sarasota Bradenton International,Sarasota,United States,SRQ,KSRQ,27.395444,-82.554389,30,-5,A,"Sarasota/Bradenton, FL",434,436,439,440,4.320276497695853,9.88761467889909,13.0,26.0,"Fri, May 28, 1999","Tue, May 18, 1999"
3678,Lambert St. Louis International,St. Louis,United States,STL,KSTL,38.748697,-90.370028,618,-6,A,"St. Louis, MO",14599,14650,14809,14824,6.3687923830399455,19.289965870307224,50.0,145.0,"Sat, May  1, 1999","Mon, May 17, 1999"
3753,Sioux Gateway-Colonel Bud Day Field,Sioux City,United States,SUX,KSUX,42.402603,-96.384367,1098,-6,A,"Sioux City, IA",61,61,61,61,4.245901639344259,9.622950819672132,7.0,21.0,"Wed, May  5, 1999","Mon, May 10, 1999"
3661,Stewart International,Newburgh,United States,SWF,KSWF,41.504094,-74.104839,491,-5,A,"Newburgh/Poughkeepsie, NY",112,112,124,123,4.339285714285714,16.91964285714286,10.0,96.0,"Sun, May 30, 1999","Mon, May 31, 1999"
3745,Syracuse Hancock International,Syracuse,United States,SYR,KSYR,43.111187,-76.106311,421,-5,A,"Syracuse, NY",908,907,926,926,4.365638766519835,11.958103638368243,16.0,180.0,"Thu, May 13, 1999","Tue, May 18, 1999"
3698,Tallahassee Regional,Tallahassee,United States,TLH,KTLH,30.396528,-84.350333,81,-5,A,"Tallahassee, FL",203,203,212,212,3.926108374384237,10.40886699507389,7.0,63.0,"Mon, May 17, 1999","Thu, May  6, 1999"
4040,Toledo,Toledo,United States,TOL,KTOL,41.586806,-83.807833,684,-5,A,"Toledo, OH",85,85,87,87,3.388235294117647,10.894117647058824,7.0,40.0,"Tue, May 25, 1999","Wed, May 19, 1999"
3646,Tampa International,Tampa,United States,TPA,KTPA,27.975472,-82.53325,26,-5,A,"Tampa, FL",4973,4977,5031,5030,4.328775387090296,12.362668274060683,102.0,134.0,"Fri, May 21, 1999","Mon, May 10, 1999"
4116,Tri-Cities Regional Airport,BRISTOL,United States,TRI,KTRI,36.4752222,-82.4074167,1519,-5,A,"Bristol/Johnson City/Kingsport, TN",108,108,113,113,3.9722222222222228,6.148148148148148,6.0,25.0,"Wed, May 26, 1999","Thu, May 20, 1999"
3855,Tulsa International,Tulsa,United States,TUL,KTUL,36.198389,-95.888111,677,-6,A,"Tulsa, OK",1541,1548,1579,1579,3.6080467229072033,11.899870801033584,30.0,167.0,"Sun, May 16, 1999","Mon, May 17, 1999"
3636,Tucson International,Tucson,United States,TUS,KTUS,32.116083,-110.941028,2643,-7,N,"Tucson, AZ",1591,1589,1610,1610,3.6756756756756768,11.918187539332918,14.0,76.0,"Fri, May 14, 1999","Sat, May  8, 1999"
4023,Cherry Capital Airport,Traverse City,United States,TVC,KTVC,44.741445,-85.582235,624,-5,A,"Traverse City, MI",82,83,83,83,3.7195121951219514,11.096385542168674,7.0,30.0,"Mon, May  3, 1999","Tue, May 25, 1999"
3676,McGhee Tyson,Knoxville,United States,TYS,KTYS,35.810972,-83.994028,981,-5,A,"Knoxville, TN",537,536,544,545,4.761638733705773,11.533582089552239,21.0,91.0,"Sat, May 22, 1999","Thu, May  6, 1999"
3873,Eglin AFB,Valparaiso,United States,VPS,KVPS,30.48325,-86.5254,87,-6,A,"Valparaiso, FL",93,92,93,93,7.795698924731183,9.413043478260873,13.0,28.0,"Sat, May 22, 1999","Sun, May 16, 1999"
5969,Wrangell Airport,Wrangell,United States,WRG,PAWG,56.4843,-132.37,44,-9,A,"Wrangell, AK",59,60,62,62,2.694915254237288,6.15,5.0,13.0,"Sat, May  8, 1999","Wed, May 19, 1999"
6803,Yakutat,Yakutat,United States,YAK,PAYA,59.3012,-139.3937,33,-9,A,"Yakutat, AK",61,61,62,62,3.1639344262295084,7.606557377049179,6.0,36.0,"Thu, May  6, 1999","Sat, May 29, 1999"
