airport_id,name,city,country,iata_faa,iaco,latitude,longitude,altitude,zone,dst,city_state,avg_able_landings,avg_able_takeoffs,total_landings,total_takeoffs,avg_taxi_in,avg_taxi_out,longest_taxi_in,longest_taxi_out,lng_tx_in_date,lng_tx_out_date
4355,Lehigh Valley International,Allentown,United States,ABE,KABE,40.652083,-75.440806,393,-5,A,"Allentown/Bethlehem/Easton, PA",509,509,517,519,4.275049115913556,11.524557956777995,14.0,57.0,"Wed, Dec 29, 1999","Wed, Dec 29, 1999"
4019,Albuquerque International Sunport,Albuquerque,United States,ABQ,KABQ,35.0402222,-106.6091944,5355,-7,A,"Albuquerque, NM",3012,3013,3029,3032,4.263944223107564,9.46332558911385,32.0,77.0,"Fri, Dec 24, 1999","Fri, Dec 17, 1999"
3531,Kodiak,Kodiak,United States,ADQ,PADQ,57.749967,-152.493856,78,-9,A,"Kodiak, AK",53,52,59,59,2.6226415094339623,7.0576923076923075,5.0,20.0,"Wed, Dec  1, 1999","Sun, Dec  5, 1999"
3658,Augusta Regional At Bush Field,Bush Field,United States,AGS,KAGS,33.369944,-81.9645,144,-5,A,"Augusta, GA",89,90,90,91,4.359550561797752,12.777777777777779,7.0,43.0,"Mon, Dec  6, 1999","Fri, Dec 10, 1999"
3794,King Salmon,King Salmon,United States,AKN,PAKN,58.676778,-156.649278,68,-9,A,"King Salmon, AK",15,15,16,16,2.533333333333333,7.533333333333333,4.0,20.0,"Tue, Dec 21, 1999","Sun, Dec 26, 1999"
3864,Albany International,Albany,United States,ALB,KALB,42.748267,-73.801692,285,-5,A,"Albany, NY",914,915,926,925,3.9573304157549183,12.049180327868852,18.0,74.0,"Fri, Dec 31, 1999","Tue, Dec 14, 1999"
3840,Rick Husband Amarillo International,Amarillo,United States,AMA,KAMA,35.219369,-101.705931,3607,-6,A,"Amarillo, TX",382,387,396,397,3.528795811518326,8.428940568475449,7.0,54.0,"Sun, Dec  5, 1999","Thu, Dec  9, 1999"
3774,Ted Stevens Anchorage International,Anchorage,United States,ANC,PANC,61.174361,-149.996361,152,-9,A,"Anchorage, AK",1375,1390,1484,1487,4.648,14.213669064748201,43.0,94.0,"Mon, Dec 20, 1999","Mon, Dec 20, 1999"
3682,Hartsfield Jackson Atlanta International,Atlanta,United States,ATL,KATL,33.636719,-84.428067,1026,-5,A,"Atlanta, GA",22079,22107,22538,22496,8.610806648851874,19.278147193196716,65.0,117.0,"Wed, Dec  8, 1999","Mon, Dec 20, 1999"
3673,Austin Bergstrom International,Austin,United States,AUS,KAUS,30.194528,-97.669889,542,-6,A,"Austin, TX",3627,3641,3671,3677,4.502619244554733,11.118923372699804,79.0,118.0,"Thu, Dec  2, 1999","Mon, Dec 20, 1999"
4007,Asheville Regional Airport,Asheville,United States,AVL,KAVL,35.436194,-82.541806,2165,-5,A,"Asheville, NC",121,123,124,124,3.1735537190082646,10.073170731707322,12.0,26.0,"Sun, Dec 26, 1999","Tue, Dec 28, 1999"
4286,Wilkes Barre Scranton International,Scranton,United States,AVP,KAVP,41.338478,-75.723403,962,-5,A,"Scranton/Wilkes-Barre, PA",153,153,155,155,3.503267973856209,8.267973856209153,6.0,31.0,"Sun, Dec 19, 1999","Mon, Dec 27, 1999"
4039,Kalamazoo,Kalamazoo,United States,AZO,KAZO,42.234875,-85.552058,874,-5,A,"Kalamazoo, MI",97,98,100,101,4.360824742268042,10.673469387755102,12.0,41.0,"Wed, Dec 22, 1999","Wed, Dec 22, 1999"
3825,Bradley International,Windsor Locks,United States,BDL,KBDL,41.938889,-72.683222,173,-5,A,"Hartford, CT",3002,3004,3040,3044,4.787475016655558,12.821571238348874,39.0,116.0,"Mon, Dec 27, 1999","Thu, Dec 23, 1999"
3599,Bethel,Bethel,United States,BET,PABE,60.779778,-161.838,121,-9,A,"Bethel, AK",77,77,86,86,2.7922077922077926,7.558441558441558,4.0,21.0,"Wed, Dec  8, 1999","Tue, Dec 21, 1999"
4129,Greater Binghamton-Edwin A. Link Field,Binghamton,United States,BGM,KBGM,42.208689,-75.979839,1636,-5,A,"Binghamton, NY",80,80,87,87,4.2124999999999995,10.675,8.0,51.0,"Fri, Dec 17, 1999","Sat, Dec 18, 1999"
3811,Birmingham International,Birmingham,United States,BHM,KBHM,33.562942,-86.75355,644,-6,A,"Birmingham, AL",1708,1709,1719,1718,3.4227166276346592,9.898186073727313,30.0,54.0,"Tue, Dec 21, 1999","Mon, Dec  6, 1999"
4021,Billings Logan International Airport,Billings,United States,BIL,KBIL,45.80921,-108.537654,3652,-7,A,"Billings, MT",245,245,246,247,3.620408163265305,10.644897959183675,38.0,42.0,"Mon, Dec 13, 1999","Mon, Dec 13, 1999"
4083,Bismarck Municipal Airport,Bismarck,United States,BIS,KBIS,46.775842,-100.757931,1661,-6,A,"Bismarck/Mandan, ND",120,119,120,120,3.65,8.428571428571432,8.0,21.0,"Thu, Dec 16, 1999","Mon, Dec  6, 1999"
3690,Nashville International,Nashville,United States,BNA,KBNA,36.124472,-86.678194,599,-6,A,"Nashville, TN",4662,4670,4708,4716,5.087730587730589,10.709850107066348,45.0,71.0,"Fri, Dec  3, 1999","Sat, Dec  4, 1999"
3495,Boise Air Terminal,Boise,United States,BOI,KBOI,43.564361,-116.222861,2871,-7,A,"Boise, ID",929,943,949,949,3.192680301399355,10.08059384941675,11.0,82.0,"Thu, Dec 23, 1999","Fri, Dec 24, 1999"
3448,General Edward Lawrence Logan International,Boston,United States,BOS,KBOS,42.364347,-71.005181,19,-5,A,"Boston, MA",8832,8846,9132,9152,7.205842391304351,18.759213203707915,56.0,143.0,"Wed, Dec 22, 1999","Thu, Dec  9, 1999"
3571,Wiley Post Will Rogers Memorial,Barrow,United States,BRW,PABR,71.285446,-156.766003,44,-9,A,"Barrow, AK",70,69,73,73,3.085714285714286,6.840579710144928,6.0,21.0,"Thu, Dec  9, 1999","Mon, Dec 20, 1999"
3846,Baton Rouge Metro-Ryan Field,Baton Rouge,United States,BTR,KBTR,30.533167,-91.149639,70,-6,A,"Baton Rouge, LA",384,385,390,393,4.513020833333334,11.246753246753237,18.0,89.0,"Sat, Dec 25, 1999","Sat, Dec  4, 1999"
3711,Burlington International,Burlington,United States,BTV,KBTV,44.471861,-73.153278,335,-5,A,"Burlington, VT",216,215,217,217,3.5694444444444446,11.595348837209299,7.0,98.0,"Fri, Dec 10, 1999","Sun, Dec  5, 1999"
3820,Buffalo Niagara International,Buffalo,United States,BUF,KBUF,42.940525,-78.732167,724,-5,A,"Buffalo, NY",1436,1434,1468,1467,3.6525069637882996,12.306136680613681,24.0,173.0,"Sat, Dec 25, 1999","Tue, Dec 14, 1999"
3644,Bob Hope,Burbank,United States,BUR,KBUR,34.200667,-118.358667,778,-8,A,"Burbank, CA",2229,2235,2256,2258,2.2682817406908957,9.060402684563758,17.0,100.0,"Wed, Dec 22, 1999","Wed, Dec  1, 1999"
3849,Baltimore Washington International,Baltimore,United States,BWI,KBWI,39.175361,-76.668333,146,-5,A,"Baltimore, MD",7099,7113,7153,7156,4.587688406817846,11.469703360044976,34.0,64.0,"Sun, Dec  5, 1999","Tue, Dec 21, 1999"
4020,Gallatin Field,Bozeman,United States,BZN,KBZN,45.777643,-111.160151,4500,-7,A,"Bozeman, MT",141,142,143,142,4.581560283687943,11.147887323943658,8.0,34.0,"Tue, Dec  7, 1999","Thu, Dec 23, 1999"
3561,Columbia Metropolitan,Colombia,United States,CAE,KCAE,33.938833,-81.119528,236,-5,A,"Columbia, SC",396,396,411,412,4.419191919191916,13.06060606060606,10.0,42.0,"Wed, Dec 22, 1999","Tue, Dec 21, 1999"
4112,Akron Canton Regional Airport,Akron,United States,CAK,KCAK,40.9160833,-81.4421944,1228,-5,A,"Akron, OH",86,86,87,87,4.546511627906978,9.511627906976745,9.0,33.0,"Mon, Dec  6, 1999","Mon, Dec  6, 1999"
3610,Merle K. Mudhole Smith,Cordova,United States,CDV,PACV,60.491778,-145.477556,48,-9,A,"Cordova, AK",58,58,60,60,3.3620689655172415,8.17241379310345,10.0,35.0,"Sun, Dec 19, 1999","Mon, Dec 13, 1999"
3578,Lovell Field,Chattanooga,United States,CHA,KCHA,35.035278,-85.203808,683,-5,A,"Chattanooga, TN",82,81,87,87,3.3292682926829267,7.9753086419753085,6.0,20.0,"Mon, Dec 27, 1999","Sun, Dec 26, 1999"
3806,Charleston AFB International,Charleston,United States,CHS,KCHS,32.898647,-80.040528,45,-5,A,"Charleston, SC",549,551,566,565,5.43715846994536,11.384754990925588,14.0,47.0,"Tue, Dec 21, 1999","Tue, Dec 21, 1999"
4043,Cedar Rapids,Cedar Rapids,United States,CID,KCID,41.884694,-91.710806,869,-6,A,"Cedar Rapids/Iowa City, IA",398,400,419,420,4.457286432160803,10.642499999999998,29.0,103.0,"Sat, Dec 18, 1999","Fri, Dec  3, 1999"
3486,Cleveland Hopkins International,Cleveland,United States,CLE,KCLE,41.411689,-81.849794,791,-5,A,"Cleveland, OH",4815,4823,4884,4881,5.067705088265837,16.328426290690498,46.0,127.0,"Fri, Dec 24, 1999","Mon, Dec 13, 1999"
3876,Charlotte Douglas International,Charlotte,United States,CLT,KCLT,35.214,-80.943139,748,-5,A,"Charlotte, NC",9960,9998,10152,10151,5.315160642570269,14.44458891778355,62.0,104.0,"Mon, Dec 27, 1999","Mon, Dec 13, 1999"
3759,Port Columbus International,Columbus,United States,CMH,KCMH,39.997972,-82.891889,815,-5,A,"Columbus, OH",3060,3053,3107,3106,4.490849673202608,10.960366852276469,44.0,92.0,"Tue, Dec 28, 1999","Mon, Dec 20, 1999"
3819,City Of Colorado Springs Municipal,Colorado Springs,United States,COS,KCOS,38.805805,-104.700778,6187,-7,A,"Colorado Springs, CO",1026,1025,1045,1048,5.9259259259259265,14.426341463414634,26.0,62.0,"Mon, Dec  6, 1999","Sun, Dec  5, 1999"
3744,Corpus Christi International,Corpus Christi,United States,CRP,KCRP,27.770361,-97.501222,44,-6,A,"Corpus Christi, TX",245,247,249,250,3.0653061224489786,6.659919028340081,15.0,16.0,"Sun, Dec 26, 1999","Thu, Dec 16, 1999"
4285,Yeager,Charleston,United States,CRW,KCRW,38.373147,-81.593189,981,-5,A,"Charleston/Dunbar, WV",109,109,112,112,3.1559633027522938,8.07339449541284,32.0,24.0,"Wed, Dec 22, 1999","Tue, Dec 28, 1999"
3488,Cincinnati Northern Kentucky International,Cincinnati,United States,CVG,KCVG,39.048836,-84.667822,896,-5,A,"Cincinnati, OH",6319,6304,6435,6414,6.393574932742529,17.91767131979694,31.0,115.0,"Tue, Dec 28, 1999","Tue, Dec 14, 1999"
3950,Daytona Beach International,Daytona Beach,United States,DAB,KDAB,29.179917,-81.058056,34,-5,A,"Daytona Beach, FL",183,183,184,184,3.7540983606557377,11.62841530054645,7.0,39.0,"Thu, Dec 30, 1999","Sun, Dec 26, 1999"
3502,Dallas Love Field,Dallas,United States,DAL,KDAL,32.847111,-96.851778,487,-6,A,"Dallas, TX",4027,4035,4150,4146,2.761857462130617,7.700867410161092,16.0,103.0,"Fri, Dec  3, 1999","Sat, Dec  4, 1999"
3627,James M. Cox Dayton International,Dayton,United States,DAY,KDAY,39.902375,-84.219375,1009,-5,A,"Dayton, OH",852,852,872,873,5.000000000000001,14.211267605633802,18.0,136.0,"Fri, Dec 31, 1999","Fri, Dec 24, 1999"
3520,Ronald Reagan Washington National,Washington,United States,DCA,KDCA,38.852083,-77.037722,15,-5,A,"Washington, DC",6487,6517,6695,6713,4.547094188376746,15.531379469080878,52.0,149.0,"Thu, Dec 23, 1999","Tue, Dec  7, 1999"
3751,Denver International,Denver,United States,DEN,KDEN,39.861656,-104.673178,5431,-7,A,"Denver, CO",11076,11081,11214,11207,7.056157457565906,15.590470174172006,45.0,140.0,"Thu, Dec 30, 1999","Fri, Dec 10, 1999"
3670,Dallas Fort Worth International,Dallas-fort Worth,United States,DFW,KDFW,32.896828,-97.037997,607,-6,A,"Dallas/Fort Worth, TX",20113,20184,20475,20474,10.08134042658979,18.487713040031654,72.0,162.0,"Mon, Dec  6, 1999","Fri, Dec 17, 1999"
3460,Dillingham,Dillingham,United States,DLG,PADL,59.044667,-158.5055,74,-9,A,"Dillingham, AK",15,15,16,16,2.8666666666666667,5.666666666666667,5.0,12.0,"Tue, Dec 21, 1999","Sun, Dec 19, 1999"
3598,Duluth International,Duluth,United States,DLH,KDLH,46.842091,-92.193649,1428,-6,A,"Duluth, MN",92,93,95,96,4.141304347826086,8.010752688172044,9.0,32.0,"Sat, Dec 18, 1999","Sat, Dec 25, 1999"
3713,Durango La Plata County,Durango,United States,DRO,KDRO,37.151516,-107.75377,6685,-7,A,"Durango, CO",16,16,16,16,2.6875,10.6875,5.0,23.0,"Sat, Dec 25, 1999","Sun, Dec 26, 1999"
3729,Des Moines International,Des Moines,United States,DSM,KDSM,41.533972,-93.663083,958,-6,A,"Des Moines, IA",552,555,559,561,4.987318840579715,11.68288288288288,17.0,79.0,"Sun, Dec 19, 1999","Sun, Dec 19, 1999"
3645,Detroit Metro Wayne County,Detroit,United States,DTW,KDTW,42.212444,-83.353389,645,-5,A,"Detroit, MI",12653,12686,12899,12902,9.461708685687121,20.050685795364924,74.0,136.0,"Sun, Dec 19, 1999","Fri, Dec 17, 1999"
3860,Unalaska,Unalaska,United States,DUT,PADU,53.900139,-166.5435,22,-9,A,"Unalaska, AK",36,36,59,59,2.4722222222222223,5.583333333333332,4.0,13.0,"Mon, Dec  6, 1999","Thu, Dec 30, 1999"
4250,Eagle County Regional,Vail,United States,EGE,KEGE,39.642556,-106.917694,6540,-7,A,"Eagle, CO",155,154,157,156,5.406451612903226,20.214285714285708,22.0,91.0,"Sat, Dec 25, 1999","Sun, Dec 26, 1999"
3946,Elmira Corning Regional,Elmira,United States,ELM,KELM,42.159889,-76.891611,954,-5,A,"Elmira/Corning, NY",110,111,112,112,4.09090909090909,8.37837837837838,6.0,27.0,"Fri, Dec 10, 1999","Wed, Dec 29, 1999"
3559,El Paso International,El Paso,United States,ELP,KELP,31.80725,-106.377583,3958,-7,A,"El Paso, TX",2036,2039,2041,2044,3.092337917485267,9.174595389896991,25.0,84.0,"Fri, Dec 24, 1999","Tue, Dec 14, 1999"
4276,Erie International-Tom Ridge Field,Erie,United States,ERI,KERI,42.082022,-80.176217,733,-5,A,"Erie, PA",115,115,118,118,3.1478260869565218,7.930434782608696,14.0,25.0,"Fri, Dec  3, 1999","Mon, Dec 27, 1999"
4099,Mahlon Sweet Field,Eugene,United States,EUG,KEUG,44.124583,-123.211972,374,-8,A,"Eugene, OR",180,181,182,182,2.5722222222222237,9.773480662983427,12.0,31.0,"Mon, Dec 20, 1999","Tue, Dec 28, 1999"
3494,Newark Liberty International,Newark,United States,EWR,KEWR,40.6925,-74.168667,18,-5,A,"Newark, NJ",10167,10211,10548,10566,8.444870659978356,24.752227989423154,55.0,146.0,"Thu, Dec 16, 1999","Thu, Dec 23, 1999"
3832,Fairbanks International,Fairbanks,United States,FAI,PAFA,64.815114,-147.856267,434,-9,A,"Fairbanks, AK",387,387,406,408,3.2842377260981905,12.018087855297157,33.0,48.0,"Wed, Dec 29, 1999","Sun, Dec 12, 1999"
4292,Hector International Airport,Fargo,United States,FAR,KFAR,46.92065,-96.8157639,902,-6,A,"Fargo, ND",224,225,227,228,4.669642857142855,9.733333333333333,16.0,31.0,"Fri, Dec 17, 1999","Thu, Dec 23, 1999"
3687,Fresno Yosemite International,Fresno,United States,FAT,KFAT,36.776194,-119.71814,336,-8,A,"Fresno, CA",30,30,30,30,5.0666666666666655,11.966666666666667,8.0,32.0,"Wed, Dec 15, 1999","Tue, Dec 14, 1999"
5738,Fayetteville Regional-Grannis Field,Fayetteville,United States,FAY,KFAY,34.9912,-78.8803,189,-5,A,"Fayetteville, NC",121,121,124,124,3.9917355371900825,9.49586776859504,7.0,47.0,"Mon, Dec 20, 1999","Fri, Dec 24, 1999"
4127,Glacier Park International,Kalispell,United States,FCA,KFCA,48.310472,-114.256,2977,-7,A,"Kalispell, MT",120,122,123,124,4.408333333333333,12.885245901639344,8.0,52.0,"Fri, Dec 10, 1999","Fri, Dec 31, 1999"
3533,Fort Lauderdale Hollywood International,Fort Lauderdale,United States,FLL,KFLL,26.072583,-80.15275,9,-5,A,"Fort Lauderdale, FL",3987,3982,4003,4001,4.413343365939309,13.943746860873933,38.0,83.0,"Tue, Dec 14, 1999","Fri, Dec 10, 1999"
4089,Bishop International,Flint,United States,FNT,KFNT,42.965424,-83.743629,782,-5,A,"Flint, MI",88,89,91,92,5.3636363636363615,13.662921348314606,25.0,50.0,"Tue, Dec 21, 1999","Sun, Dec  5, 1999"
4009,Sioux Falls,Sioux Falls,United States,FSD,KFSD,43.582014,-96.741914,1429,-6,A,"Sioux Falls, SD",332,331,334,334,5.108433734939756,13.135951661631417,12.0,42.0,"Sun, Dec 19, 1999","Mon, Dec 27, 1999"
4041,Fort Wayne,Fort Wayne,United States,FWA,KFWA,40.978472,-85.195139,815,-5,A,"Fort Wayne, IN",29,29,31,31,4.379310344827586,9.551724137931032,9.0,18.0,"Fri, Dec  3, 1999","Mon, Dec 27, 1999"
3467,Spokane International,Spokane,United States,GEG,KGEG,47.619861,-117.533833,2376,-8,A,"Spokane, WA",1039,1043,1052,1055,3.6111645813282003,11.418024928092043,12.0,71.0,"Thu, Dec 16, 1999","Fri, Dec 31, 1999"
3442,Grand Forks International,Grand Forks,United States,GFK,KGFK,47.949256,-97.176111,845,-6,A,"Grand Forks, ND",93,94,93,94,3.7096774193548385,8.414893617021278,7.0,36.0,"Thu, Dec  2, 1999","Mon, Dec 20, 1999"
4038,Gulfport-Biloxi,Gulfport,United States,GPT,KGPT,30.407278,-89.070111,28,-6,A,"Gulfport/Biloxi, MS",92,92,92,92,4.445652173913041,7.945652173913042,11.0,19.0,"Sat, Dec 18, 1999","Mon, Dec 20, 1999"
3653,Austin Straubel International,Green Bay,United States,GRB,KGRB,44.485072,-88.129589,695,-6,A,"Green Bay, WI",177,177,184,185,4.005649717514123,13.395480225988695,10.0,45.0,"Thu, Dec 23, 1999","Fri, Dec 31, 1999"
3685,Gerald R. Ford International,Grand Rapids,United States,GRR,KGRR,42.880833,-85.522806,794,-5,A,"Grand Rapids, MI",744,748,765,766,4.231182795698929,13.133689839572192,40.0,117.0,"Thu, Dec 23, 1999","Mon, Dec 13, 1999"
4008,Piedmont Triad,Greensboro,United States,GSO,KGSO,36.09775,-79.937306,925,-5,A,"Greensboro/High Point, NC",1228,1235,1254,1256,3.919381107491855,12.676113360323876,19.0,108.0,"Thu, Dec  9, 1999","Mon, Dec 13, 1999"
4034,Greenville-Spartanburg International,Greenville,United States,GSP,KGSP,34.895556,-82.218889,964,-5,A,"Greer, SC",562,563,580,583,3.649466192170818,12.198934280639428,15.0,55.0,"Tue, Dec 21, 1999","Mon, Dec 13, 1999"
3880,Great Falls International,Great Falls,United States,GTF,KGTF,47.482,-111.370689,3677,-7,A,"Great Falls, MT",213,212,216,216,4.234741784037558,8.391509433962264,7.0,31.0,"Sun, Dec 26, 1999","Thu, Dec  9, 1999"
7051,Gunnison - Crested Butte,Gunnison,United States,GUC,KGUC,38.533889,-106.933056,7678,-7,A,"Gunnison, CO",30,29,30,30,4.066666666666666,12.586206896551724,7.0,19.0,"Tue, Dec 21, 1999","Mon, Dec 20, 1999"
4339,Yampa Valley,Hayden,United States,HDN,KHDN,40.481181,-107.21766,6602,-7,A,"Hayden, CO",91,90,91,91,4.054945054945055,17.777777777777782,13.0,130.0,"Sat, Dec 25, 1999","Thu, Dec 23, 1999"
3504,Helena Regional,Helena,United States,HLN,KHLN,46.606806,-111.98275,3877,-7,A,"Helena, MT",60,60,62,62,2.5833333333333335,10.466666666666669,5.0,32.0,"Sat, Dec  4, 1999","Tue, Dec 28, 1999"
3728,Honolulu International,Honolulu,United States,HNL,PHNL,21.318681,-157.922428,13,-10,N,"Honolulu, HI",998,992,1007,1005,6.046092184368738,19.418346774193555,29.0,79.0,"Thu, Dec 30, 1999","Sun, Dec 12, 1999"
3566,William P. Hobby,Houston,United States,HOU,KHOU,29.645419,-95.278889,46,-6,A,"Houston, TX",4561,4581,4666,4664,3.7206752905064695,8.287928399912683,25.0,99.0,"Thu, Dec 23, 1999","Sat, Dec  4, 1999"
3589,Westchester County,White Plains,United States,HPN,KHPN,41.066959,-73.707575,439,-5,A,"White Plains, NY",381,381,405,405,4.976377952755907,15.45931758530184,26.0,152.0,"Thu, Dec 16, 1999","Mon, Dec 20, 1999"
3560,Valley International,Harlingen,United States,HRL,KHRL,26.2285,-97.654389,36,-6,A,"Harlingen/San Benito, TX",341,343,351,351,2.158357771260994,5.571428571428575,8.0,12.0,"Tue, Dec 21, 1999","Fri, Dec 17, 1999"
4113,Huntsville International Airport-Carl T. Jones Field,Huntsville,United States,HSV,KHSV,34.6371944,-86.7750556,629,-6,A,"Huntsville, AL",492,493,506,508,4.959349593495931,11.740365111561866,18.0,66.0,"Tue, Dec 14, 1999","Sat, Dec  4, 1999"
3714,Washington Dulles International,Washington,United States,IAD,KIAD,38.944533,-77.455811,313,-5,A,"Washington, DC",6372,6381,6492,6503,6.1395166352793344,17.518727472183,46.0,99.0,"Thu, Dec 30, 1999","Thu, Dec 23, 1999"
3550,George Bush Intercontinental Houston,Houston,United States,IAH,KIAH,29.984433,-95.341442,97,-6,A,"Houston, TX",10820,10881,10965,10972,6.627634011090577,17.237937689550602,72.0,219.0,"Sat, Dec  4, 1999","Sat, Dec  4, 1999"
3457,Wichita Mid Continent,Wichita,United States,ICT,KICT,37.649944,-97.433056,1333,-6,A,"Wichita, KS",488,493,501,506,4.108606557377051,12.531440162271808,14.0,58.0,"Sun, Dec  5, 1999","Tue, Dec 14, 1999"
3845,Wilmington International,Wilmington,United States,ILM,KILM,34.270615,-77.902569,32,-5,A,"Wilmington, NC",182,182,186,186,3.9120879120879133,10.373626373626374,7.0,71.0,"Mon, Dec 20, 1999","Tue, Dec 28, 1999"
3585,Indianapolis International,Indianapolis,United States,IND,KIND,39.717331,-86.294383,797,-5,A,"Indianapolis, IN",2842,2854,2885,2891,7.7051372273047045,13.442887175893487,28.0,138.0,"Thu, Dec 23, 1999","Mon, Dec 20, 1999"
3857,Long Island MacArthur,Islip,United States,ISP,KISP,40.79525,-73.100222,99,-5,A,"Islip, NY",655,659,659,661,4.161832061068702,10.735963581183613,23.0,112.0,"Fri, Dec 24, 1999","Thu, Dec  9, 1999"
3947,Ithaca Tompkins Regional,Ithaca,United States,ITH,KITH,42.491028,-76.458444,1099,-5,A,"Ithaca/Cortland, NY",110,112,112,112,3.927272727272727,11.589285714285719,10.0,40.0,"Mon, Dec 27, 1999","Sat, Dec 25, 1999"
4027,Jackson Hole Airport,Jacksn Hole,United States,JAC,KJAC,43.60733333,-110.73775,6451,-7,A,"Jackson, WY",78,79,82,82,3.730769230769231,14.721518987341772,10.0,56.0,"Sat, Dec 18, 1999","Sat, Dec 18, 1999"
3580,Jackson Evers International,Jackson,United States,JAN,KJAN,32.311167,-90.075889,346,-6,A,"Jackson/Vicksburg, MS",768,774,773,779,3.9296875000000058,9.086563307493543,16.0,72.0,"Wed, Dec  1, 1999","Sat, Dec  4, 1999"
3712,Jacksonville International,Jacksonville,United States,JAX,KJAX,30.494056,-81.687861,30,-5,A,"Jacksonville, FL",1993,1998,2008,2012,4.550928248871051,10.990490490490508,26.0,73.0,"Wed, Dec 29, 1999","Mon, Dec 13, 1999"
3797,John F. Kennedy International,New York,United States,JFK,KJFK,40.639751,-73.778925,13,-5,A,"New York, NY",3541,3571,3594,3609,8.772663089522771,25.46653598431813,81.0,140.0,"Fri, Dec 10, 1999","Thu, Dec  9, 1999"
3492,Juneau International,Juneau,United States,JNU,PAJN,58.354972,-134.576278,21,-9,A,"Juneau, AK",283,292,304,305,3.371024734982332,11.684931506849317,15.0,77.0,"Mon, Dec 27, 1999","Sat, Dec 25, 1999"
3514,Kona International At Keahole,Kona,United States,KOA,PHKO,19.738767,-156.045631,47,-10,N,"Kona, HI",64,64,64,64,4.578124999999999,10.999999999999998,14.0,32.0,"Sat, Dec 25, 1999","Tue, Dec  7, 1999"
3808,Ketchikan International,Ketchikan,United States,KTN,PAKT,55.355556,-131.71375,88,-9,A,"Ketchikan, AK",162,170,184,183,3.5185185185185186,10.15294117647059,8.0,29.0,"Thu, Dec 16, 1999","Tue, Dec 14, 1999"
3544,Capital City,Lansing,United States,LAN,KLAN,42.7787,-84.587357,861,-5,A,"Lansing, MI",178,179,181,182,4.196629213483146,9.53631284916202,7.0,127.0,"Tue, Dec  7, 1999","Mon, Dec 13, 1999"
3877,McCarran International,Las Vegas,United States,LAS,KLAS,36.080056,-115.15225,2141,-8,A,"Las Vegas, NV",11136,11103,11261,11245,5.963451867816108,13.940196343330637,95.0,98.0,"Sun, Dec 19, 1999","Wed, Dec 22, 1999"
3484,Los Angeles International,Los Angeles,United States,LAX,KLAX,33.942536,-118.408075,126,-8,A,"Los Angeles, CA",16989,16997,17330,17318,9.21119547942788,16.236453491792634,190.0,135.0,"Mon, Dec 20, 1999","Wed, Dec 22, 1999"
3829,Lubbock Preston Smith International,Lubbock,United States,LBB,KLBB,33.663639,-101.822778,3282,-6,A,"Lubbock, TX",491,492,498,499,2.6109979633401212,7.162601626016261,13.0,16.0,"Thu, Dec  9, 1999","Fri, Dec 24, 1999"
4017,Blue Grass,Lexington KY,United States,LEX,KLEX,38.0365,-84.605889,979,-5,A,"Lexington, KY",288,284,300,297,4.718750000000001,10.911971830985914,28.0,43.0,"Sun, Dec 26, 1999","Mon, Dec 20, 1999"
3697,LaGuardia Airport,New York,United States,LGA,KLGA,40.777245,-73.872608,22,-5,A,"New York, NY",8277,8286,8518,8522,7.127461640691072,22.71059618633839,56.0,126.0,"Mon, Dec 13, 1999","Thu, Dec 23, 1999"
3582,Long Beach,Long Beach,United States,LGB,KLGB,33.817722,-118.151611,60,-8,A,"Long Beach, CA",302,302,309,310,4.701986754966884,11.79470198675497,14.0,128.0,"Fri, Dec 17, 1999","Thu, Dec 30, 1999"
3602,Lihue,Lihue,United States,LIH,PHLI,21.975983,-159.338958,153,-10,N,"Lihue, HI",39,39,39,39,5.076923076923077,6.333333333333333,8.0,19.0,"Tue, Dec 28, 1999","Wed, Dec 29, 1999"
3660,Adams Field,Little Rock,United States,LIT,KLIT,34.729444,-92.224306,262,-6,A,"Little Rock, AR",1103,1115,1119,1126,3.959202175883956,9.829596412556043,18.0,49.0,"Sat, Dec 18, 1999","Thu, Dec 16, 1999"
3543,Lincoln,Lincoln,United States,LNK,KLNK,40.850971,-96.75925,1219,-6,A,"Lincoln, NE",237,238,240,240,3.548523206751055,9.525210084033615,8.0,42.0,"Thu, Dec 16, 1999","Sun, Dec 19, 1999"
4044,LaCrosse Municipal,LaCrosse,United States,LSE,KLSE,43.878986,-91.256711,654,-6,A,"La Crosse, WI",69,69,70,71,3.217391304347826,8.260869565217394,6.0,34.0,"Mon, Dec 20, 1999","Sun, Dec 19, 1999"
3652,Midland International,Midland,United States,MAF,KMAF,31.942528,-102.201914,2871,-6,A,"Midland/Odessa, TX",495,497,501,503,2.6222222222222222,6.541247484909456,8.0,18.0,"Thu, Dec 23, 1999","Wed, Dec  8, 1999"
4128,MBS International,Saginaw,United States,MBS,KMBS,43.532913,-84.079647,668,-5,A,"Saginaw/Bay City/Midland, MI",339,336,346,345,3.663716814159292,11.383928571428562,11.0,102.0,"Tue, Dec 14, 1999","Mon, Dec 13, 1999"
3458,Kansas City International,Kansas City,United States,MCI,KMCI,39.297606,-94.713905,1026,-6,A,"Kansas City, MO",5051,5052,5081,5086,4.390813700257381,11.511480601741892,56.0,205.0,"Sun, Dec  5, 1999","Sun, Dec  5, 1999"
3878,Orlando International,Orlando,United States,MCO,KMCO,28.429394,-81.308994,96,-5,A,"Orlando, FL",8224,8218,8279,8272,4.866609922178985,13.369676320272562,69.0,142.0,"Tue, Dec 21, 1999","Tue, Dec 14, 1999"
3542,Harrisburg International,Harrisburg,United States,MDT,KMDT,40.193494,-76.763403,310,-5,A,"Harrisburg, PA",633,634,641,643,4.194312796208531,11.627760252365926,12.0,92.0,"Fri, Dec 31, 1999","Thu, Dec 23, 1999"
3747,Chicago Midway International,Chicago,United States,MDW,KMDW,41.785972,-87.752417,620,-6,A,"Chicago, IL",4495,4506,4551,4552,5.149054505005566,11.979804704838024,100.0,152.0,"Fri, Dec 17, 1999","Fri, Dec 10, 1999"
3473,Memphis International,Memphis,United States,MEM,KMEM,35.042417,-89.976667,341,-6,A,"Memphis, TN",4260,4249,4300,4293,5.23943661971831,14.125205930807253,29.0,55.0,"Sun, Dec 26, 1999","Mon, Dec 27, 1999"
3826,McAllen Miller International,Mcallen,United States,MFE,KMFE,26.175833,-98.238611,107,-6,A,"Mission/McAllen/Edinburg, TX",293,294,294,294,3.668941979522185,10.153061224489806,7.0,113.0,"Mon, Dec  6, 1999","Sat, Dec  4, 1999"
4101,Rogue Valley International Medford,Medford,United States,MFR,KMFR,42.374228,-122.8735,1335,-8,A,"Medford, OR",110,114,124,124,2.9090909090909096,10.780701754385962,5.0,63.0,"Mon, Dec 27, 1999","Thu, Dec 23, 1999"
4115,Montgomery Regional Airport ,MONTGOMERY,United States,MGM,KMGM,32.3006389,-86.3939722,221,-6,A,"Montgomery, AL",91,92,91,92,3.901098901098901,12.065217391304348,8.0,31.0,"Fri, Dec 17, 1999","Fri, Dec 17, 1999"
4011,Manchester Regional Airport,Manchester NH,United States,MHT,KMHT,42.932556,-71.435667,266,-5,A,"Manchester, NH",1120,1130,1138,1142,3.943749999999999,10.912389380530978,18.0,100.0,"Sun, Dec 26, 1999","Thu, Dec 23, 1999"
3576,Miami International,Miami,United States,MIA,KMIA,25.79325,-80.290556,8,-5,A,"Miami, FL",5674,5659,5719,5710,7.099400775467048,19.06025799611242,71.0,151.0,"Tue, Dec 14, 1999","Fri, Dec 10, 1999"
3717,General Mitchell International,Milwaukee,United States,MKE,KMKE,42.947222,-87.896583,723,-6,A,"Milwaukee, WI",1327,1323,1360,1362,4.892238131122835,12.5427059712774,37.0,60.0,"Thu, Dec 23, 1999","Mon, Dec 27, 1999"
3671,Melbourne International,Melbourne,United States,MLB,KMLB,28.102753,-80.645258,33,-5,A,"Melbourne, FL",124,124,124,124,4.225806451612901,11.887096774193548,7.0,38.0,"Sat, Dec 25, 1999","Sun, Dec 19, 1999"
4072,Quad City International,Moline,United States,MLI,KMLI,41.448528,-90.507539,590,-6,A,"Moline, IL",140,140,146,147,3.392857142857143,11.135714285714286,29.0,55.0,"Wed, Dec 29, 1999","Sat, Dec  4, 1999"
3732,Monroe Regional,Monroe,United States,MLU,KMLU,32.510864,-92.037689,79,-6,A,"Monroe, LA",182,181,184,185,4.851648351648351,12.02762430939226,25.0,85.0,"Tue, Dec 28, 1999","Thu, Dec  9, 1999"
3782,Mobile Regional,Mobile,United States,MOB,KMOB,30.691231,-88.242814,219,-6,A,"Mobile, AL",357,357,362,362,5.190476190476193,10.619047619047626,19.0,45.0,"Sat, Dec 25, 1999","Fri, Dec 10, 1999"
3498,Minot International,Minot,United States,MOT,KMOT,48.259378,-101.280333,1716,-6,A,"Minot, ND",92,93,93,93,4.010869565217392,8.13978494623656,7.0,20.0,"Fri, Dec 24, 1999","Wed, Dec 15, 1999"
3948,Monterey Peninsula,Monterey,United States,MRY,KMRY,36.587,-121.842944,257,-8,A,"Monterey, CA",57,58,58,59,3.1578947368421053,6.637931034482759,5.0,22.0,"Thu, Dec  2, 1999","Sun, Dec 26, 1999"
3459,Dane County Regional-Truax Field,Madison,United States,MSN,KMSN,43.139858,-89.337514,887,-6,A,"Madison, WI",370,373,382,382,4.202702702702703,12.297587131367292,17.0,92.0,"Wed, Dec 29, 1999","Fri, Dec  3, 1999"
4216,Missoula International,Missoula,United States,MSO,KMSO,46.916306,-114.090556,3205,-7,A,"Missoula, MT",183,183,185,185,4.349726775956282,11.387978142076499,8.0,36.0,"Tue, Dec 21, 1999","Thu, Dec 16, 1999"
3858,Minneapolis St. Paul International,Minneapolis,United States,MSP,KMSP,44.881956,-93.221767,841,-6,A,"Minneapolis, MN",11716,11778,12036,12022,6.78414134516901,19.851332993717207,87.0,180.0,"Thu, Dec 23, 1999","Sun, Dec 26, 1999"
3861,Louis Armstrong New Orleans International,New Orleans,United States,MSY,KMSY,29.993389,-90.258028,4,-6,A,"New Orleans, LA",4114,4113,4146,4147,4.1159455517744155,9.40991976659371,32.0,77.0,"Wed, Dec  1, 1999","Thu, Dec  9, 1999"
6880,Montrose Regional Airport,Montrose CO,United States,MTJ,KMTJ,38.509794,-107.894242,5759,-7,A,"Montrose/Delta, CO",26,26,26,26,4.038461538461538,10.576923076923077,8.0,23.0,"Sat, Dec 25, 1999","Sun, Dec 26, 1999"
3515,Myrtle Beach International,Myrtle Beach,United States,MYR,KMYR,33.67975,-78.928333,25,-5,A,"Myrtle Beach, SC",157,157,157,157,3.9936305732484074,9.605095541401276,9.0,17.0,"Thu, Dec  9, 1999","Thu, Dec  2, 1999"
3453,Metropolitan Oakland International,Oakland,United States,OAK,KOAK,37.721278,-122.220722,9,-8,A,"Oakland, CA",4533,4540,4590,4589,4.086918155746739,9.40440528634362,32.0,46.0,"Wed, Dec 15, 1999","Thu, Dec 16, 1999"
3456,Kahului,Kahului,United States,OGG,PHOG,20.89865,-156.430458,54,-10,N,"Kahului, HI",252,251,252,252,4.928571428571429,12.65338645418327,21.0,28.0,"Sun, Dec 19, 1999","Wed, Dec  8, 1999"
3863,Will Rogers World,Oklahoma City,United States,OKC,KOKC,35.393089,-97.600733,1295,-6,A,"Oklahoma City, OK",1723,1727,1744,1743,3.707486941381312,9.808917197452224,64.0,72.0,"Wed, Dec 22, 1999","Tue, Dec 14, 1999"
3454,Eppley Airfield,Omaha,United States,OMA,KOMA,41.303167,-95.894069,984,-6,A,"Omaha, NE",1379,1376,1389,1387,3.425670775924583,10.84520348837208,17.0,88.0,"Wed, Dec 29, 1999","Wed, Dec 15, 1999"
3615,Nome,Nome,United States,OME,PAOM,64.512203,-165.445247,37,-9,A,"Nome, AK",75,75,78,78,3.026666666666667,6.36,10.0,14.0,"Wed, Dec  8, 1999","Tue, Dec  7, 1999"
3734,Ontario International,Ontario,United States,ONT,KONT,34.056,-117.601194,944,-8,A,"Ontario, CA",2843,2846,2879,2881,3.746746394653538,9.66690091356287,25.0,51.0,"Tue, Dec 14, 1999","Tue, Dec 21, 1999"
3830,Chicago O'Hare International,Chicago,United States,ORD,KORD,41.978603,-87.904842,668,-6,A,"Chicago, IL",23305,23387,24337,24337,7.872216262604604,17.703467738487305,156.0,177.0,"Thu, Dec 23, 1999","Fri, Dec 10, 1999"
3611,Norfolk International,Norfolk,United States,ORF,KORF,36.894611,-76.201222,26,-5,A,"Norfolk, VA",1296,1291,1311,1311,3.7839506172839505,11.54531371030209,14.0,85.0,"Mon, Dec 27, 1999","Tue, Dec 14, 1999"
3693,Ralph WienMemorial,Kotzebue,United States,OTZ,PAOT,66.884678,-162.59855,11,-9,A,"Kotzebue, AK",67,67,72,72,2.880597014925373,6.776119402985074,6.0,22.0,"Fri, Dec 10, 1999","Sat, Dec  4, 1999"
3722,Palm Beach International,West Palm Beach,United States,PBI,KPBI,26.683161,-80.095589,19,-5,A,"West Palm Beach/Palm Beach, FL",2008,2007,2019,2019,4.600099601593626,12.207772795216744,17.0,68.0,"Fri, Dec 31, 1999","Wed, Dec 15, 1999"
3720,Portland International,Portland,United States,PDX,KPDX,45.588722,-122.5975,30,-8,A,"Portland, OR",4828,4852,4906,4907,4.1157829328914435,11.274938169826884,29.0,78.0,"Sat, Dec 18, 1999","Sun, Dec  5, 1999"
3752,Philadelphia International,Philadelphia,United States,PHL,KPHL,39.871944,-75.241139,36,-5,A,"Philadelphia, PA",9413,9433,9678,9682,6.306172314883665,17.64422771122663,61.0,218.0,"Tue, Dec 14, 1999","Fri, Dec 17, 1999"
3462,Phoenix Sky Harbor International,Phoenix,United States,PHX,KPHX,33.434278,-112.011583,1135,-7,N,"Phoenix, AZ",15153,15187,15375,15353,5.460634857783956,14.28102982814249,61.0,107.0,"Fri, Dec 17, 1999","Mon, Dec 20, 1999"
4046,Peoria Regional,Peoria,United States,PIA,KPIA,40.664203,-89.693258,660,-6,A,"Peoria, IL",56,55,59,59,4.642857142857144,11.89090909090909,21.0,44.0,"Wed, Dec 22, 1999","Mon, Dec  6, 1999"
3570,Pittsburgh International,Pittsburgh (pennsylva),United States,PIT,KPIT,40.491467,-80.232872,1204,-5,A,"Pittsburgh, PA",8461,8484,8638,8625,6.3578773194657865,15.192479962281938,42.0,114.0,"Wed, Dec 22, 1999","Mon, Dec 20, 1999"
3564,Pensacola Regional,Pensacola,United States,PNS,KPNS,30.473425,-87.186611,121,-6,A,"Pensacola, FL",492,491,501,500,4.896341463414635,11.026476578411405,13.0,39.0,"Sat, Dec 18, 1999","Tue, Dec 21, 1999"
6133,Tri Cities Airport,Pasco,United States,PSC,PSC,46.2647,-119.119,410,-8,A,"Pasco/Kennewick/Richland, WA",117,117,121,121,4.427350427350423,10.683760683760683,11.0,36.0,"Wed, Dec  8, 1999","Wed, Dec 29, 1999"
4147,Petersburg James A. Johnson,Petersburg,United States,PSG,PAPG,56.801667,-132.945278,105,-9,A,"Petersburg, AK",41,44,60,60,3.0,6.863636363636363,6.0,14.0,"Sun, Dec  5, 1999","Fri, Dec  3, 1999"
3839,Palm Springs International,Palm Springs,United States,PSP,KPSP,33.829667,-116.506694,477,-8,A,"Palm Springs, CA",546,545,556,553,4.269230769230769,11.906422018348621,60.0,68.0,"Thu, Dec 23, 1999","Wed, Dec 22, 1999"
3641,Theodore Francis Green State,Providence,United States,PVD,KPVD,41.732581,-71.420383,55,-5,A,"Providence, RI",2026,2032,2039,2039,4.028627838104636,11.406988188976392,21.0,64.0,"Fri, Dec 10, 1999","Mon, Dec 20, 1999"
3862,Portland International Jetport,Portland,United States,PWM,KPWM,43.646161,-70.309281,77,-5,A,"Portland, ME",481,482,484,485,3.6715176715176723,11.296680497925312,12.0,69.0,"Mon, Dec 20, 1999","Wed, Dec 15, 1999"
4087,Rapid City Regional Airport,Rapid City,United States,RAP,KRAP,44.045278,-103.057222,3204,-7,A,"Rapid City, SD",101,101,103,103,4.178217821782179,8.930693069306933,8.0,36.0,"Wed, Dec 15, 1999","Wed, Dec 22, 1999"
3626,Raleigh Durham International,Raleigh-durham,United States,RDU,KRDU,35.877639,-78.787472,435,-5,A,"Raleigh/Durham, NC",3110,3110,3134,3138,4.0983922829582,12.014147909967866,29.0,104.0,"Fri, Dec 10, 1999","Thu, Dec 23, 1999"
3608,Richmond International,Richmond,United States,RIC,KRIC,37.505167,-77.319667,167,-5,A,"Richmond, VA",1395,1397,1423,1423,4.77060931899641,11.715103793843952,19.0,71.0,"Tue, Dec 14, 1999","Sun, Dec  5, 1999"
3807,Reno Tahoe International,Reno,United States,RNO,KRNO,39.499108,-119.768108,4415,-8,A,"Reno, NV",2884,2884,2914,2916,4.446255201109563,10.361650485436874,33.0,72.0,"Thu, Dec  2, 1999","Sat, Dec  4, 1999"
4016,Roanoke Regional,Roanoke VA,United States,ROA,KROA,37.325472,-79.975417,1175,-5,A,"Roanoke, VA",195,196,205,205,4.215384615384614,8.423469387755109,8.0,23.0,"Tue, Dec 21, 1999","Thu, Dec  2, 1999"
3622,Greater Rochester International,Rochester,United States,ROC,KROC,43.118866,-77.672389,559,-5,A,"Rochester, NY",1156,1157,1192,1192,5.93685121107266,12.8781331028522,18.0,111.0,"Sat, Dec 11, 1999","Tue, Dec 14, 1999"
4048,Rochester,Rochester,United States,RST,KRST,43.908283,-92.500014,1317,-6,A,"Rochester, MN",162,159,172,171,3.685185185185185,13.26415094339623,9.0,88.0,"Sun, Dec 26, 1999","Thu, Dec 23, 1999"
3793,Southwest Florida International,Fort Myers,United States,RSW,KRSW,26.536167,-81.755167,30,-5,A,"Fort Myers, FL",1198,1189,1201,1194,3.8672787979966565,13.158957106812457,37.0,80.0,"Tue, Dec  7, 1999","Mon, Dec 13, 1999"
3731,San Diego International,San Diego,United States,SAN,KSAN,32.733556,-117.189667,17,-8,A,"San Diego, CA",5943,5971,6054,6057,3.040215379437993,12.425891810417026,52.0,78.0,"Wed, Dec 22, 1999","Sun, Dec  5, 1999"
3621,San Antonio International,San Antonio,United States,SAT,KSAT,29.533694,-98.469778,809,-6,A,"San Antonio, TX",3166,3165,3193,3195,3.363550221099178,9.709004739336475,61.0,136.0,"Sat, Dec  4, 1999","Sat, Dec  4, 1999"
3613,Savannah Hilton Head International,Savannah,United States,SAV,KSAV,32.127583,-81.202139,51,-5,A,"Savannah, GA",438,441,441,442,5.027397260273974,11.4671201814059,10.0,33.0,"Sun, Dec 12, 1999","Wed, Dec 22, 1999"
3949,Santa Barbara Municipal,Santa Barbara,United States,SBA,KSBA,34.426211,-119.840372,10,-8,A,"Santa Barbara, CA",239,237,240,240,3.4602510460251046,6.776371308016879,68.0,27.0,"Thu, Dec 23, 1999","Sat, Dec 18, 1999"
4359,South Bend Regional,South Bend,United States,SBN,KSBN,41.708661,-86.31725,799,-5,A,"South Bend, IN",257,256,264,266,4.151750972762646,11.183593749999996,12.0,57.0,"Wed, Dec 29, 1999","Tue, Dec 14, 1999"
3620,Deadhorse,Deadhorse,United States,SCC,PASC,70.19475,-148.465167,64,-9,A,"Deadhorse, AK",37,37,43,43,2.972972972972973,7.162162162162162,7.0,14.0,"Wed, Dec 29, 1999","Sat, Dec 11, 1999"
4014,Louisville International Airport,Louisville,United States,SDF,KSDF,38.1740858,-85.7364989,501,-5,A,"Louisville, KY",1881,1875,1905,1904,4.916002126528439,10.376533333333345,17.0,146.0,"Sun, Dec 26, 1999","Fri, Dec 24, 1999"
3577,Seattle Tacoma International,Seattle,United States,SEA,KSEA,47.449,-122.309306,433,-8,A,"Seattle, WA",8350,8415,8620,8614,5.093173652694595,14.773737373737376,52.0,130.0,"Fri, Dec 24, 1999","Mon, Dec 20, 1999"
3469,San Francisco International,San Francisco,United States,SFO,KSFO,37.618972,-122.374889,13,-8,A,"San Francisco, CA",11062,11087,11308,11304,5.488067257277183,16.425904212140317,60.0,132.0,"Sun, Dec 26, 1999","Mon, Dec 20, 1999"
4348,Springfield Branson National,Springfield,United States,SGF,KSGF,37.245667,-93.388639,1268,-6,A,"Springfield, MO",160,161,167,168,3.1250000000000004,10.503105590062113,8.0,41.0,"Wed, Dec 22, 1999","Thu, Dec  9, 1999"
3609,Shreveport Regional,Shreveport,United States,SHV,KSHV,32.446629,-93.8256,258,-6,A,"Shreveport, LA",321,322,324,326,4.585669781931464,10.388198757763972,14.0,69.0,"Thu, Dec  2, 1999","Sat, Dec  4, 1999"
3856,Sitka Rocky Gutierrez,Sitka,United States,SIT,PASI,57.047138,-135.361611,21,-9,A,"Sitka, AK",87,91,92,93,3.3218390804597706,9.978021978021978,6.0,43.0,"Tue, Dec 14, 1999","Sat, Dec 18, 1999"
3748,Norman Y. Mineta San Jose International,San Jose,United States,SJC,KSJC,37.3626,-121.929022,62,-8,A,"San Jose, CA",5305,5305,5391,5393,3.9986804901036894,13.04410933081997,59.0,94.0,"Mon, Dec 27, 1999","Mon, Dec  6, 1999"
3536,Salt Lake City International,Salt Lake City,United States,SLC,KSLC,40.788389,-111.977772,4227,-7,A,"Salt Lake City, UT",6661,6660,6796,6790,5.638642846419456,17.828078078078146,48.0,164.0,"Thu, Dec 30, 1999","Thu, Dec 30, 1999"
3817,Sacramento International,Sacramento,United States,SMF,KSMF,38.695417,-121.590778,27,-8,A,"Sacramento, CA",3072,3078,3088,3089,3.6868489583333335,9.324561403508751,20.0,61.0,"Thu, Dec  9, 1999","Thu, Dec 16, 1999"
3867,John Wayne Airport Orange County,Santa Ana,United States,SNA,KSNA,33.675667,-117.868222,56,-8,A,"Santa Ana, CA",3633,3637,3739,3742,6.334984860996411,14.076711575474288,47.0,147.0,"Mon, Dec 27, 1999","Tue, Dec 28, 1999"
4067,Sarasota Bradenton International,Sarasota,United States,SRQ,KSRQ,27.395444,-82.554389,30,-5,A,"Sarasota/Bradenton, FL",486,483,486,484,4.16255144032922,11.925465838509316,13.0,61.0,"Mon, Dec 20, 1999","Sat, Dec 11, 1999"
3678,Lambert St. Louis International,St. Louis,United States,STL,KSTL,38.748697,-90.370028,618,-6,A,"St. Louis, MO",14087,14086,14339,14308,5.875346063746706,17.276160726962914,46.0,90.0,"Thu, Dec 16, 1999","Fri, Dec  3, 1999"
3753,Sioux Gateway-Colonel Bud Day Field,Sioux City,United States,SUX,KSUX,42.402603,-96.384367,1098,-6,A,"Sioux City, IA",57,57,57,57,4.0350877192982475,8.842105263157897,6.0,34.0,"Mon, Dec  6, 1999","Sat, Dec 25, 1999"
3661,Stewart International,Newburgh,United States,SWF,KSWF,41.504094,-74.104839,491,-5,A,"Newburgh/Poughkeepsie, NY",89,91,92,93,4.483146067415731,14.703296703296703,7.0,98.0,"Tue, Dec  7, 1999","Mon, Dec 20, 1999"
3745,Syracuse Hancock International,Syracuse,United States,SYR,KSYR,43.111187,-76.106311,421,-5,A,"Syracuse, NY",943,943,956,956,4.498409331919409,14.85471898197243,15.0,81.0,"Wed, Dec  1, 1999","Mon, Dec 27, 1999"
3698,Tallahassee Regional,Tallahassee,United States,TLH,KTLH,30.396528,-84.350333,81,-5,A,"Tallahassee, FL",175,176,180,181,4.17714285714286,11.369318181818185,14.0,37.0,"Tue, Dec 21, 1999","Thu, Dec  9, 1999"
4040,Toledo,Toledo,United States,TOL,KTOL,41.586806,-83.807833,684,-5,A,"Toledo, OH",85,85,87,87,3.7058823529411766,9.882352941176471,10.0,25.0,"Wed, Dec 22, 1999","Mon, Dec  6, 1999"
3646,Tampa International,Tampa,United States,TPA,KTPA,27.975472,-82.53325,26,-5,A,"Tampa, FL",5377,5373,5411,5413,4.390924307234541,11.487809417457669,33.0,96.0,"Mon, Dec 13, 1999","Mon, Dec 20, 1999"
4116,Tri-Cities Regional Airport,BRISTOL,United States,TRI,KTRI,36.4752222,-82.4074167,1519,-5,A,"Bristol/Johnson City/Kingsport, TN",115,113,118,118,4.234782608695651,7.088495575221239,8.0,34.0,"Thu, Dec  2, 1999","Sun, Dec 26, 1999"
3855,Tulsa International,Tulsa,United States,TUL,KTUL,36.198389,-95.888111,677,-6,A,"Tulsa, OK",1607,1618,1632,1640,3.6054760423148737,10.552533992583438,24.0,51.0,"Thu, Dec 23, 1999","Sat, Dec  4, 1999"
3636,Tucson International,Tucson,United States,TUS,KTUS,32.116083,-110.941028,2643,-7,N,"Tucson, AZ",1688,1690,1699,1702,3.81990521327014,10.469230769230773,16.0,100.0,"Thu, Dec 16, 1999","Fri, Dec  3, 1999"
4023,Cherry Capital Airport,Traverse City,United States,TVC,KTVC,44.741445,-85.582235,624,-5,A,"Traverse City, MI",81,80,84,84,2.962962962962963,15.9875,12.0,82.0,"Wed, Dec 29, 1999","Tue, Dec 28, 1999"
3676,McGhee Tyson,Knoxville,United States,TYS,KTYS,35.810972,-83.994028,981,-5,A,"Knoxville, TN",559,555,566,563,4.497316636851524,11.556756756756759,10.0,55.0,"Mon, Dec  6, 1999","Sun, Dec 12, 1999"
3873,Eglin AFB,Valparaiso,United States,VPS,KVPS,30.48325,-86.5254,87,-6,A,"Valparaiso, FL",92,92,93,93,6.5,8.282608695652176,12.0,16.0,"Sun, Dec  5, 1999","Sat, Dec 18, 1999"
5969,Wrangell Airport,Wrangell,United States,WRG,PAWG,56.4843,-132.37,44,-9,A,"Wrangell, AK",39,44,60,60,3.6666666666666665,6.25,30.0,14.0,"Thu, Dec 30, 1999","Wed, Dec 29, 1999"
6803,Yakutat,Yakutat,United States,YAK,PAYA,59.3012,-139.3937,33,-9,A,"Yakutat, AK",56,59,60,60,4.125000000000003,7.6440677966101696,22.0,16.0,"Sun, Dec 26, 1999","Mon, Dec 27, 1999"
