airport_id,name,city,country,iata_faa,iaco,latitude,longitude,altitude,zone,dst,city_state,avg_able_landings,avg_able_takeoffs,total_landings,total_takeoffs,avg_taxi_in,avg_taxi_out,longest_taxi_in,longest_taxi_out,lng_tx_in_date,lng_tx_out_date
4355,Lehigh Valley International,Allentown,United States,ABE,KABE,40.652083,-75.440806,393,-5,A,"Allentown/Bethlehem/Easton, PA",425,429,493,492,4.028235294117645,12.799533799533798,10.0,78.0,"Fri, Jan  1, 1999","Thu, Jan 14, 1999"
4019,Albuquerque International Sunport,Albuquerque,United States,ABQ,KABQ,35.0402222,-106.6091944,5355,-7,A,"Albuquerque, NM",3006,3005,3058,3058,4.149367930805048,9.400332778702172,31.0,82.0,"Wed, Jan 13, 1999","Thu, Jan 21, 1999"
3531,Kodiak,Kodiak,United States,ADQ,PADQ,57.749967,-152.493856,78,-9,A,"Kodiak, AK",61,61,62,62,3.1147540983606556,8.19672131147541,8.0,28.0,"Mon, Jan 25, 1999","Tue, Jan 26, 1999"
3658,Augusta Regional At Bush Field,Bush Field,United States,AGS,KAGS,33.369944,-81.9645,144,-5,A,"Augusta, GA",150,149,155,155,4.299999999999995,11.395973154362418,7.0,43.0,"Thu, Jan  7, 1999","Wed, Jan 20, 1999"
3794,King Salmon,King Salmon,United States,AKN,PAKN,58.676778,-156.649278,68,-9,A,"King Salmon, AK",17,17,18,18,3.0,6.882352941176471,6.0,13.0,"Tue, Jan  5, 1999","Thu, Jan  7, 1999"
3864,Albany International,Albany,United States,ALB,KALB,42.748267,-73.801692,285,-5,A,"Albany, NY",890,896,1025,1024,4.69213483146067,14.735491071428571,28.0,166.0,"Mon, Jan  4, 1999","Thu, Jan 14, 1999"
3840,Rick Husband Amarillo International,Amarillo,United States,AMA,KAMA,35.219369,-101.705931,3607,-6,A,"Amarillo, TX",386,388,407,409,3.455958549222796,7.747422680412375,25.0,45.0,"Sat, Jan 16, 1999","Fri, Jan 29, 1999"
3774,Ted Stevens Anchorage International,Anchorage,United States,ANC,PANC,61.174361,-149.996361,152,-9,A,"Anchorage, AK",1325,1345,1415,1417,4.279999999999997,12.681040892193309,31.0,53.0,"Fri, Jan 15, 1999","Mon, Jan 18, 1999"
3682,Hartsfield Jackson Atlanta International,Atlanta,United States,ATL,KATL,33.636719,-84.428067,1026,-5,A,"Atlanta, GA",20850,21090,21985,22043,8.394532374100752,18.33399715504994,66.0,175.0,"Thu, Jan 21, 1999","Mon, Jan 11, 1999"
3673,Austin Bergstrom International,Austin,United States,AUS,KAUS,30.194528,-97.669889,542,-6,A,"Austin, TX",3445,3446,3571,3574,3.6615384615384627,11.008705745792197,31.0,147.0,"Sat, Jan 16, 1999","Fri, Jan  1, 1999"
4007,Asheville Regional Airport,Asheville,United States,AVL,KAVL,35.436194,-82.541806,2165,-5,A,"Asheville, NC",108,108,114,114,2.990740740740741,10.101851851851851,6.0,74.0,"Sun, Jan 31, 1999","Sat, Jan  2, 1999"
4286,Wilkes Barre Scranton International,Scranton,United States,AVP,KAVP,41.338478,-75.723403,962,-5,A,"Scranton/Wilkes-Barre, PA",127,128,141,141,3.37007874015748,9.140625000000004,7.0,29.0,"Sat, Jan  9, 1999","Thu, Jan 14, 1999"
4039,Kalamazoo,Kalamazoo,United States,AZO,KAZO,42.234875,-85.552058,874,-5,A,"Kalamazoo, MI",108,110,127,127,5.01851851851852,10.963636363636363,28.0,35.0,"Wed, Jan  6, 1999","Sun, Jan 10, 1999"
3825,Bradley International,Windsor Locks,United States,BDL,KBDL,41.938889,-72.683222,173,-5,A,"Hartford, CT",2186,2185,2469,2464,5.35361390667887,16.375286041189916,78.0,161.0,"Sat, Jan 16, 1999","Mon, Jan 11, 1999"
3599,Bethel,Bethel,United States,BET,PABE,60.779778,-161.838,121,-9,A,"Bethel, AK",77,77,83,83,2.7142857142857144,7.51948051948052,6.0,18.0,"Sat, Jan  9, 1999","Sun, Jan 10, 1999"
4129,Greater Binghamton-Edwin A. Link Field,Binghamton,United States,BGM,KBGM,42.208689,-75.979839,1636,-5,A,"Binghamton, NY",75,74,87,87,5.133333333333333,12.432432432432432,26.0,87.0,"Sat, Jan  2, 1999","Sun, Jan 10, 1999"
3463,Bangor International,Bangor,United States,BGR,KBGR,44.807444,-68.828139,192,-5,A,"Bangor, ME",83,86,93,93,6.493975903614458,12.5,33.0,52.0,"Tue, Jan 19, 1999","Tue, Jan 12, 1999"
3811,Birmingham International,Birmingham,United States,BHM,KBHM,33.562942,-86.75355,644,-6,A,"Birmingham, AL",1659,1654,1707,1701,3.453285111512959,9.717049576783536,19.0,102.0,"Sat, Jan 23, 1999","Fri, Jan  8, 1999"
4021,Billings Logan International Airport,Billings,United States,BIL,KBIL,45.80921,-108.537654,3652,-7,A,"Billings, MT",242,244,248,248,3.5578512396694215,11.959016393442623,12.0,39.0,"Tue, Jan 12, 1999","Fri, Jan  8, 1999"
4083,Bismarck Municipal Airport,Bismarck,United States,BIS,KBIS,46.775842,-100.757931,1661,-6,A,"Bismarck/Mandan, ND",114,114,119,119,4.026315789473684,10.552631578947368,7.0,54.0,"Sun, Jan 31, 1999","Wed, Jan 27, 1999"
3690,Nashville International,Nashville,United States,BNA,KBNA,36.124472,-86.678194,599,-6,A,"Nashville, TN",4230,4248,4390,4392,5.1418439716312205,11.261534839924673,218.0,174.0,"Tue, Jan  5, 1999","Wed, Jan  6, 1999"
3495,Boise Air Terminal,Boise,United States,BOI,KBOI,43.564361,-116.222861,2871,-7,A,"Boise, ID",966,965,971,972,2.972049689440993,8.192746113989624,18.0,28.0,"Wed, Jan 20, 1999","Tue, Jan 26, 1999"
3448,General Edward Lawrence Logan International,Boston,United States,BOS,KBOS,42.364347,-71.005181,19,-5,A,"Boston, MA",7517,7531,8574,8578,8.079286949580966,20.729385207807713,139.0,293.0,"Thu, Jan 14, 1999","Fri, Jan  8, 1999"
3738,Brownsville South Padre Island International,Brownsville,United States,BRO,KBRO,25.906833,-97.425861,22,-6,A,"Brownsville, TX",28,28,31,31,4.821428571428571,9.39285714285714,9.0,24.0,"Mon, Jan 11, 1999","Tue, Jan  5, 1999"
3571,Wiley Post Will Rogers Memorial,Barrow,United States,BRW,PABR,71.285446,-156.766003,44,-9,A,"Barrow, AK",69,70,75,75,2.652173913043478,5.9714285714285715,5.0,13.0,"Sun, Jan 24, 1999","Wed, Jan 20, 1999"
3846,Baton Rouge Metro-Ryan Field,Baton Rouge,United States,BTR,KBTR,30.533167,-91.149639,70,-6,A,"Baton Rouge, LA",390,389,397,396,4.256410256410262,10.645244215938298,23.0,72.0,"Fri, Jan 15, 1999","Thu, Jan 28, 1999"
3711,Burlington International,Burlington,United States,BTV,KBTV,44.471861,-73.153278,335,-5,A,"Burlington, VT",190,189,212,212,4.089473684210526,13.201058201058201,37.0,95.0,"Sat, Jan  2, 1999","Thu, Jan 14, 1999"
3820,Buffalo Niagara International,Buffalo,United States,BUF,KBUF,42.940525,-78.732167,724,-5,A,"Buffalo, NY",1345,1348,1553,1548,4.193308550185873,13.912462908011875,46.0,132.0,"Mon, Jan  4, 1999","Thu, Jan 28, 1999"
3644,Bob Hope,Burbank,United States,BUR,KBUR,34.200667,-118.358667,778,-8,A,"Burbank, CA",2226,2227,2310,2309,2.1801437556154504,8.955545577009463,21.0,48.0,"Fri, Jan 29, 1999","Fri, Jan 15, 1999"
3849,Baltimore Washington International,Baltimore,United States,BWI,KBWI,39.175361,-76.668333,146,-5,A,"Baltimore, MD",6110,6163,6533,6531,4.32913256955808,12.873762777867936,49.0,206.0,"Thu, Jan 14, 1999","Thu, Jan 14, 1999"
4020,Gallatin Field,Bozeman,United States,BZN,KBZN,45.777643,-111.160151,4500,-7,A,"Bozeman, MT",171,172,173,172,4.502923976608187,11.959302325581401,13.0,40.0,"Fri, Jan 29, 1999","Sat, Jan 23, 1999"
3561,Columbia Metropolitan,Colombia,United States,CAE,KCAE,33.938833,-81.119528,236,-5,A,"Columbia, SC",399,396,408,408,4.4010025062656695,12.664141414141412,11.0,72.0,"Sun, Jan 31, 1999","Sat, Jan 30, 1999"
4112,Akron Canton Regional Airport,Akron,United States,CAK,KCAK,40.9160833,-81.4421944,1228,-5,A,"Akron, OH",68,67,83,83,4.926470588235294,10.73134328358209,10.0,64.0,"Wed, Jan  6, 1999","Thu, Jan  7, 1999"
3610,Merle K. Mudhole Smith,Cordova,United States,CDV,PACV,60.491778,-145.477556,48,-9,A,"Cordova, AK",55,59,61,62,3.3636363636363638,6.52542372881356,5.0,15.0,"Tue, Jan  5, 1999","Sat, Jan  2, 1999"
3578,Lovell Field,Chattanooga,United States,CHA,KCHA,35.035278,-85.203808,683,-5,A,"Chattanooga, TN",80,81,83,83,3.7,8.62962962962963,7.0,18.0,"Thu, Jan 14, 1999","Wed, Jan  6, 1999"
3806,Charleston AFB International,Charleston,United States,CHS,KCHS,32.898647,-80.040528,45,-5,A,"Charleston, SC",583,581,605,604,4.95711835334477,11.218588640275387,34.0,105.0,"Thu, Jan 14, 1999","Mon, Jan 18, 1999"
4043,Cedar Rapids,Cedar Rapids,United States,CID,KCID,41.884694,-91.710806,869,-6,A,"Cedar Rapids/Iowa City, IA",392,391,457,455,4.283163265306124,11.365728900255755,14.0,79.0,"Sun, Jan 17, 1999","Fri, Jan  1, 1999"
3486,Cleveland Hopkins International,Cleveland,United States,CLE,KCLE,41.411689,-81.849794,791,-5,A,"Cleveland, OH",4531,4557,4998,4998,5.761862723460615,18.624314241825775,73.0,256.0,"Wed, Jan 13, 1999","Wed, Jan 13, 1999"
3876,Charlotte Douglas International,Charlotte,United States,CLT,KCLT,35.214,-80.943139,748,-5,A,"Charlotte, NC",9639,9709,10308,10307,5.317252827056754,14.045833762488412,78.0,100.0,"Sat, Jan 23, 1999","Wed, Jan 13, 1999"
3759,Port Columbus International,Columbus,United States,CMH,KCMH,39.997972,-82.891889,815,-5,A,"Columbus, OH",2808,2829,3051,3055,4.777777777777772,13.420996818663852,56.0,199.0,"Thu, Jan 14, 1999","Sat, Jan  2, 1999"
3819,City Of Colorado Springs Municipal,Colorado Springs,United States,COS,KCOS,38.805805,-104.700778,6187,-7,A,"Colorado Springs, CO",918,915,950,948,5.997821350762529,13.836065573770492,26.0,67.0,"Tue, Jan  5, 1999","Wed, Jan  6, 1999"
3744,Corpus Christi International,Corpus Christi,United States,CRP,KCRP,27.770361,-97.501222,44,-6,A,"Corpus Christi, TX",250,250,254,253,2.984,6.956,7.0,46.0,"Thu, Jan 14, 1999","Mon, Jan 18, 1999"
4285,Yeager,Charleston,United States,CRW,KCRW,38.373147,-81.593189,981,-5,A,"Charleston/Dunbar, WV",93,94,108,108,2.591397849462365,7.287234042553192,6.0,20.0,"Sat, Jan  2, 1999","Wed, Jan 27, 1999"
3488,Cincinnati Northern Kentucky International,Cincinnati,United States,CVG,KCVG,39.048836,-84.667822,896,-5,A,"Cincinnati, OH",6111,6105,6630,6620,6.936835215185733,20.56740376740385,58.0,179.0,"Tue, Jan  5, 1999","Wed, Jan 13, 1999"
3950,Daytona Beach International,Daytona Beach,United States,DAB,KDAB,29.179917,-81.058056,34,-5,A,"Daytona Beach, FL",246,245,248,248,3.6747967479674797,11.922448979591836,9.0,79.0,"Thu, Jan 21, 1999","Mon, Jan 18, 1999"
3502,Dallas Love Field,Dallas,United States,DAL,KDAL,32.847111,-96.851778,487,-6,A,"Dallas, TX",4035,4057,4235,4239,2.7749690210656794,7.971900419028837,25.0,103.0,"Sat, Jan 23, 1999","Wed, Jan 20, 1999"
3627,James M. Cox Dayton International,Dayton,United States,DAY,KDAY,39.902375,-84.219375,1009,-5,A,"Dayton, OH",795,793,908,908,5.783647798742139,17.88146279949557,32.0,385.0,"Fri, Jan 15, 1999","Wed, Jan 13, 1999"
3520,Ronald Reagan Washington National,Washington,United States,DCA,KDCA,38.852083,-77.037722,15,-5,A,"Washington, DC",6087,6126,6811,6832,4.748644652538224,15.295461965393407,57.0,187.0,"Sat, Jan  9, 1999","Wed, Jan 27, 1999"
3751,Denver International,Denver,United States,DEN,KDEN,39.861656,-104.673178,5431,-7,A,"Denver, CO",10966,11003,11297,11301,7.502370964800287,16.51758611287828,64.0,162.0,"Sat, Jan  2, 1999","Sat, Jan  2, 1999"
3670,Dallas Fort Worth International,Dallas-fort Worth,United States,DFW,KDFW,32.896828,-97.037997,607,-6,A,"Dallas/Fort Worth, TX",19645,19735,20458,20440,10.387528633239961,17.98859893590076,100.0,291.0,"Wed, Jan  6, 1999","Mon, Jan 18, 1999"
3460,Dillingham,Dillingham,United States,DLG,PADL,59.044667,-158.5055,74,-9,A,"Dillingham, AK",16,16,18,18,3.0,6.25,4.0,12.0,"Sun, Jan 17, 1999","Sat, Jan 23, 1999"
3598,Duluth International,Duluth,United States,DLH,KDLH,46.842091,-92.193649,1428,-6,A,"Duluth, MN",78,78,84,83,4.410256410256411,11.051282051282055,18.0,64.0,"Fri, Jan 29, 1999","Wed, Jan 27, 1999"
3713,Durango La Plata County,Durango,United States,DRO,KDRO,37.151516,-107.75377,6685,-7,A,"Durango, CO",32,32,32,32,3.9062500000000004,9.75,7.0,22.0,"Fri, Jan 15, 1999","Wed, Jan 20, 1999"
3729,Des Moines International,Des Moines,United States,DSM,KDSM,41.533972,-93.663083,958,-6,A,"Des Moines, IA",528,526,566,565,4.8125,12.260456273764254,20.0,77.0,"Sat, Jan  9, 1999","Fri, Jan  8, 1999"
3645,Detroit Metro Wayne County,Detroit,United States,DTW,KDTW,42.212444,-83.353389,645,-5,A,"Detroit, MI",11180,11245,12772,12770,12.255456171735231,23.499155180079963,504.0,337.0,"Sun, Jan  3, 1999","Sat, Jan 23, 1999"
3860,Unalaska,Unalaska,United States,DUT,PADU,53.900139,-166.5435,22,-9,A,"Unalaska, AK",45,45,62,62,2.733333333333334,6.044444444444444,8.0,10.0,"Sun, Jan 24, 1999","Sun, Jan  3, 1999"
4250,Eagle County Regional,Vail,United States,EGE,KEGE,39.642556,-106.917694,6540,-7,A,"Eagle, CO",281,279,293,292,5.238434163701064,23.566308243727597,16.0,268.0,"Sun, Jan 31, 1999","Thu, Jan 21, 1999"
3946,Elmira Corning Regional,Elmira,United States,ELM,KELM,42.159889,-76.891611,954,-5,A,"Elmira/Corning, NY",96,97,107,107,4.218750000000002,10.56701030927835,7.0,36.0,"Mon, Jan 11, 1999","Wed, Jan 13, 1999"
3559,El Paso International,El Paso,United States,ELP,KELP,31.80725,-106.377583,3958,-7,A,"El Paso, TX",2004,2008,2030,2034,3.0943113772455075,9.160358565737063,36.0,105.0,"Sun, Jan  3, 1999","Sun, Jan 10, 1999"
4276,Erie International-Tom Ridge Field,Erie,United States,ERI,KERI,42.082022,-80.176217,733,-5,A,"Erie, PA",95,94,114,114,3.4947368421052634,9.308510638297877,7.0,87.0,"Fri, Jan  8, 1999","Thu, Jan  7, 1999"
4099,Mahlon Sweet Field,Eugene,United States,EUG,KEUG,44.124583,-123.211972,374,-8,A,"Eugene, OR",174,177,181,182,2.632183908045979,9.259887005649716,6.0,21.0,"Tue, Jan 12, 1999","Tue, Jan 19, 1999"
3494,Newark Liberty International,Newark,United States,EWR,KEWR,40.6925,-74.168667,18,-5,A,"Newark, NJ",9224,9347,10335,10330,9.67996530789248,27.05659569915479,126.0,278.0,"Thu, Jan 14, 1999","Thu, Jan 14, 1999"
3832,Fairbanks International,Fairbanks,United States,FAI,PAFA,64.815114,-147.856267,434,-9,A,"Fairbanks, AK",396,395,411,411,3.2297979797979792,10.718987341772147,29.0,36.0,"Thu, Jan 14, 1999","Mon, Jan 18, 1999"
4292,Hector International Airport,Fargo,United States,FAR,KFAR,46.92065,-96.8157639,902,-6,A,"Fargo, ND",203,204,208,208,4.995073891625612,11.549019607843139,14.0,74.0,"Sun, Jan 17, 1999","Sun, Jan 17, 1999"
3687,Fresno Yosemite International,Fresno,United States,FAT,KFAT,36.776194,-119.71814,336,-8,A,"Fresno, CA",27,31,31,31,4.851851851851851,11.419354838709678,7.0,82.0,"Sun, Jan 24, 1999","Thu, Jan 14, 1999"
5738,Fayetteville Regional-Grannis Field,Fayetteville,United States,FAY,KFAY,34.9912,-78.8803,189,-5,A,"Fayetteville, NC",105,105,114,114,3.8666666666666667,9.466666666666665,7.0,34.0,"Sat, Jan 23, 1999","Sat, Jan 16, 1999"
4127,Glacier Park International,Kalispell,United States,FCA,KFCA,48.310472,-114.256,2977,-7,A,"Kalispell, MT",66,64,67,66,4.878787878787879,12.5625,9.0,36.0,"Wed, Jan 20, 1999","Sat, Jan 16, 1999"
3533,Fort Lauderdale Hollywood International,Fort Lauderdale,United States,FLL,KFLL,26.072583,-80.15275,9,-5,A,"Fort Lauderdale, FL",3935,3937,4041,4042,4.332909783989848,14.11582423164847,58.0,136.0,"Sat, Jan 16, 1999","Sun, Jan  3, 1999"
4089,Bishop International,Flint,United States,FNT,KFNT,42.965424,-83.743629,782,-5,A,"Flint, MI",107,107,120,120,4.317757009345796,11.19626168224299,13.0,44.0,"Sat, Jan 16, 1999","Wed, Jan 13, 1999"
4009,Sioux Falls,Sioux Falls,United States,FSD,KFSD,43.582014,-96.741914,1429,-6,A,"Sioux Falls, SD",310,308,324,324,5.174193548387099,13.37337662337662,12.0,68.0,"Tue, Jan  5, 1999","Sun, Jan 24, 1999"
4041,Fort Wayne,Fort Wayne,United States,FWA,KFWA,40.978472,-85.195139,815,-5,A,"Fort Wayne, IN",41,41,45,45,4.609756097560975,12.439024390243905,9.0,45.0,"Fri, Jan 15, 1999","Wed, Jan  6, 1999"
3467,Spokane International,Spokane,United States,GEG,KGEG,47.619861,-117.533833,2376,-8,A,"Spokane, WA",1084,1085,1102,1100,3.537822878228783,10.066359447004595,11.0,75.0,"Sat, Jan 23, 1999","Sat, Jan 23, 1999"
3442,Grand Forks International,Grand Forks,United States,GFK,KGFK,47.949256,-97.176111,845,-6,A,"Grand Forks, ND",88,85,91,90,3.840909090909092,9.447058823529407,9.0,81.0,"Fri, Jan  1, 1999","Wed, Jan 20, 1999"
4038,Gulfport-Biloxi,Gulfport,United States,GPT,KGPT,30.407278,-89.070111,28,-6,A,"Gulfport/Biloxi, MS",89,90,92,93,4.48314606741573,8.37777777777778,9.0,53.0,"Thu, Jan 21, 1999","Wed, Jan 27, 1999"
3653,Austin Straubel International,Green Bay,United States,GRB,KGRB,44.485072,-88.129589,695,-6,A,"Green Bay, WI",179,176,194,193,4.268156424581002,15.073863636363637,19.0,47.0,"Tue, Jan  5, 1999","Sun, Jan 24, 1999"
3685,Gerald R. Ford International,Grand Rapids,United States,GRR,KGRR,42.880833,-85.522806,794,-5,A,"Grand Rapids, MI",637,637,719,718,4.486656200941919,14.329670329670323,66.0,118.0,"Tue, Jan  5, 1999","Mon, Jan  4, 1999"
4008,Piedmont Triad,Greensboro,United States,GSO,KGSO,36.09775,-79.937306,925,-5,A,"Greensboro/High Point, NC",1180,1176,1270,1266,3.80338983050847,12.795918367346932,23.0,102.0,"Sat, Jan  2, 1999","Mon, Jan 18, 1999"
4034,Greenville-Spartanburg International,Greenville,United States,GSP,KGSP,34.895556,-82.218889,964,-5,A,"Greer, SC",539,539,586,586,3.705009276437846,12.050092764378482,61.0,90.0,"Sun, Jan  3, 1999","Sun, Jan 31, 1999"
3880,Great Falls International,Great Falls,United States,GTF,KGTF,47.482,-111.370689,3677,-7,A,"Great Falls, MT",209,209,217,217,4.19617224880383,9.387559808612442,8.0,50.0,"Mon, Jan  4, 1999","Sat, Jan 23, 1999"
7051,Gunnison - Crested Butte,Gunnison,United States,GUC,KGUC,38.533889,-106.933056,7678,-7,A,"Gunnison, CO",63,63,63,63,3.793650793650795,16.68253968253968,7.0,55.0,"Wed, Jan  6, 1999","Sat, Jan 16, 1999"
4339,Yampa Valley,Hayden,United States,HDN,KHDN,40.481181,-107.21766,6602,-7,A,"Hayden, CO",140,142,146,146,3.664285714285714,17.274647887323958,12.0,80.0,"Sat, Jan 30, 1999","Sat, Jan 16, 1999"
3504,Helena Regional,Helena,United States,HLN,KHLN,46.606806,-111.98275,3877,-7,A,"Helena, MT",59,61,62,62,3.1186440677966103,10.311475409836065,8.0,28.0,"Thu, Jan 21, 1999","Sat, Jan 23, 1999"
3728,Honolulu International,Honolulu,United States,HNL,PHNL,21.318681,-157.922428,13,-10,N,"Honolulu, HI",909,914,925,927,5.2255225522552315,18.371991247264745,24.0,44.0,"Sat, Jan 30, 1999","Mon, Jan  4, 1999"
3566,William P. Hobby,Houston,United States,HOU,KHOU,29.645419,-95.278889,46,-6,A,"Houston, TX",4633,4681,4798,4801,4.0144614720483505,8.020935697500539,60.0,54.0,"Fri, Jan  8, 1999","Tue, Jan 26, 1999"
3589,Westchester County,White Plains,United States,HPN,KHPN,41.066959,-73.707575,439,-5,A,"White Plains, NY",305,313,404,407,5.695081967213113,16.02236421725239,124.0,181.0,"Wed, Jan 13, 1999","Fri, Jan  8, 1999"
3560,Valley International,Harlingen,United States,HRL,KHRL,26.2285,-97.654389,36,-6,A,"Harlingen/San Benito, TX",336,337,345,344,2.178571428571427,5.8160237388724045,10.0,13.0,"Fri, Jan  8, 1999","Thu, Jan 14, 1999"
4113,Huntsville International Airport-Carl T. Jones Field,Huntsville,United States,HSV,KHSV,34.6371944,-86.7750556,629,-6,A,"Huntsville, AL",458,458,479,479,5.122270742358077,12.251091703056773,35.0,71.0,"Sun, Jan 17, 1999","Sat, Jan  2, 1999"
3714,Washington Dulles International,Washington,United States,IAD,KIAD,38.944533,-77.455811,313,-5,A,"Washington, DC",3888,3876,4197,4197,6.431327160493831,17.773993808049525,83.0,320.0,"Thu, Jan 14, 1999","Thu, Jan 14, 1999"
3550,George Bush Intercontinental Houston,Houston,United States,IAH,KIAH,29.984433,-95.341442,97,-6,A,"Houston, TX",10297,10339,10633,10621,6.585995921142078,16.546571235129143,63.0,112.0,"Tue, Jan  5, 1999","Fri, Jan  8, 1999"
3457,Wichita Mid Continent,Wichita,United States,ICT,KICT,37.649944,-97.433056,1333,-6,A,"Wichita, KS",548,545,586,586,4.091240875912405,11.726605504587155,10.0,61.0,"Tue, Jan 19, 1999","Fri, Jan  1, 1999"
3845,Wilmington International,Wilmington,United States,ILM,KILM,34.270615,-77.902569,32,-5,A,"Wilmington, NC",153,154,160,160,3.7320261437908497,9.454545454545457,9.0,30.0,"Wed, Jan 13, 1999","Sun, Jan 31, 1999"
3585,Indianapolis International,Indianapolis,United States,IND,KIND,39.717331,-86.294383,797,-5,A,"Indianapolis, IN",2538,2535,2772,2773,8.897951142631987,15.965285996055247,42.0,136.0,"Fri, Jan  8, 1999","Mon, Jan  4, 1999"
3857,Long Island MacArthur,Islip,United States,ISP,KISP,40.79525,-73.100222,99,-5,A,"Islip, NY",165,166,186,186,4.648484848484848,14.102409638554217,13.0,89.0,"Fri, Jan  8, 1999","Fri, Jan  8, 1999"
3947,Ithaca Tompkins Regional,Ithaca,United States,ITH,KITH,42.491028,-76.458444,1099,-5,A,"Ithaca/Cortland, NY",93,92,107,107,4.860215053763438,13.423913043478262,14.0,52.0,"Sat, Jan  2, 1999","Thu, Jan 14, 1999"
4027,Jackson Hole Airport,Jacksn Hole,United States,JAC,KJAC,43.60733333,-110.73775,6451,-7,A,"Jackson, WY",87,88,99,99,3.3448275862068964,14.522727272727273,6.0,57.0,"Mon, Jan  4, 1999","Fri, Jan 15, 1999"
3580,Jackson Evers International,Jackson,United States,JAN,KJAN,32.311167,-90.075889,346,-6,A,"Jackson/Vicksburg, MS",769,768,786,789,4.265279583875161,8.848958333333321,49.0,57.0,"Sat, Jan 23, 1999","Sat, Jan 30, 1999"
3712,Jacksonville International,Jacksonville,United States,JAX,KJAX,30.494056,-81.687861,30,-5,A,"Jacksonville, FL",1873,1876,1929,1929,4.461825947677509,10.84861407249467,27.0,77.0,"Sun, Jan 17, 1999","Thu, Jan 28, 1999"
3797,John F. Kennedy International,New York,United States,JFK,KJFK,40.639751,-73.778925,13,-5,A,"New York, NY",3389,3428,3625,3629,9.402773679551474,28.542590431738606,131.0,266.0,"Thu, Jan 14, 1999","Thu, Jan 14, 1999"
3492,Juneau International,Juneau,United States,JNU,PAJN,58.354972,-134.576278,21,-9,A,"Juneau, AK",265,270,310,309,3.5660377358490565,14.11111111111111,13.0,77.0,"Sat, Jan  2, 1999","Fri, Jan  8, 1999"
3514,Kona International At Keahole,Kona,United States,KOA,PHKO,19.738767,-156.045631,47,-10,N,"Kona, HI",63,62,63,63,3.7142857142857144,8.758064516129028,7.0,25.0,"Sun, Jan 10, 1999","Wed, Jan 13, 1999"
3808,Ketchikan International,Ketchikan,United States,KTN,PAKT,55.355556,-131.71375,88,-9,A,"Ketchikan, AK",176,179,185,186,3.6761363636363638,9.91620111731844,6.0,54.0,"Sat, Jan 16, 1999","Thu, Jan 28, 1999"
3544,Capital City,Lansing,United States,LAN,KLAN,42.7787,-84.587357,861,-5,A,"Lansing, MI",159,160,180,180,4.490566037735849,10.075,8.0,41.0,"Wed, Jan  6, 1999","Wed, Jan 13, 1999"
3877,McCarran International,Las Vegas,United States,LAS,KLAS,36.080056,-115.15225,2141,-8,A,"Las Vegas, NV",9933,9957,10115,10112,4.753045404208217,13.359847343577371,43.0,128.0,"Sat, Jan  2, 1999","Sun, Jan 10, 1999"
3484,Los Angeles International,Los Angeles,United States,LAX,KLAX,33.942536,-118.408075,126,-8,A,"Los Angeles, CA",14773,14803,15411,15407,7.986461788397683,14.725933932311017,54.0,130.0,"Sun, Jan 24, 1999","Tue, Jan 12, 1999"
3829,Lubbock Preston Smith International,Lubbock,United States,LBB,KLBB,33.663639,-101.822778,3282,-6,A,"Lubbock, TX",525,531,540,540,2.805714285714288,7.772128060263653,12.0,46.0,"Thu, Jan 28, 1999","Sat, Jan 30, 1999"
4017,Blue Grass,Lexington KY,United States,LEX,KLEX,38.0365,-84.605889,979,-5,A,"Lexington, KY",306,309,334,333,4.767973856209151,10.822006472491907,32.0,51.0,"Thu, Jan  7, 1999","Thu, Jan  7, 1999"
3697,LaGuardia Airport,New York,United States,LGA,KLGA,40.777245,-73.872608,22,-5,A,"New York, NY",7060,7090,7956,7945,7.349433427762043,24.511706629055006,98.0,279.0,"Sat, Jan  2, 1999","Thu, Jan 14, 1999"
3582,Long Beach,Long Beach,United States,LGB,KLGB,33.817722,-118.151611,60,-8,A,"Long Beach, CA",262,262,264,264,4.270992366412214,10.423664122137405,9.0,25.0,"Sun, Jan 17, 1999","Mon, Jan 18, 1999"
3602,Lihue,Lihue,United States,LIH,PHLI,21.975983,-159.338958,153,-10,N,"Lihue, HI",31,31,31,31,5.967741935483871,6.774193548387097,9.0,14.0,"Sat, Jan 30, 1999","Thu, Jan  7, 1999"
3660,Adams Field,Little Rock,United States,LIT,KLIT,34.729444,-92.224306,262,-6,A,"Little Rock, AR",1033,1040,1093,1090,4.344627299128747,9.861538461538455,16.0,53.0,"Fri, Jan 29, 1999","Sun, Jan 17, 1999"
3543,Lincoln,Lincoln,United States,LNK,KLNK,40.850971,-96.75925,1219,-6,A,"Lincoln, NE",222,221,237,237,3.675675675675676,9.294117647058826,13.0,47.0,"Sat, Jan  9, 1999","Thu, Jan 21, 1999"
4044,LaCrosse Municipal,LaCrosse,United States,LSE,KLSE,43.878986,-91.256711,654,-6,A,"La Crosse, WI",53,53,60,60,3.5283018867924527,8.641509433962257,7.0,32.0,"Tue, Jan 12, 1999","Sat, Jan  2, 1999"
3652,Midland International,Midland,United States,MAF,KMAF,31.942528,-102.201914,2871,-6,A,"Midland/Odessa, TX",526,528,536,536,2.596958174904943,6.721590909090909,10.0,17.0,"Sat, Jan  2, 1999","Mon, Jan 25, 1999"
4128,MBS International,Saginaw,United States,MBS,KMBS,43.532913,-84.079647,668,-5,A,"Saginaw/Bay City/Midland, MI",261,262,306,306,4.180076628352489,9.931297709923669,18.0,82.0,"Tue, Jan  5, 1999","Wed, Jan 13, 1999"
3458,Kansas City International,Kansas City,United States,MCI,KMCI,39.297606,-94.713905,1026,-6,A,"Kansas City, MO",4698,4713,4914,4912,4.65070242656449,11.659240398896694,46.0,89.0,"Fri, Jan  8, 1999","Wed, Jan 27, 1999"
3878,Orlando International,Orlando,United States,MCO,KMCO,28.429394,-81.308994,96,-5,A,"Orlando, FL",7961,7965,8260,8262,4.861198341916858,13.469303201506586,48.0,144.0,"Sat, Jan  9, 1999","Wed, Jan  6, 1999"
3542,Harrisburg International,Harrisburg,United States,MDT,KMDT,40.193494,-76.763403,310,-5,A,"Harrisburg, PA",556,558,661,662,4.39568345323741,12.695340501792119,19.0,58.0,"Thu, Jan 21, 1999","Fri, Jan  8, 1999"
3747,Chicago Midway International,Chicago,United States,MDW,KMDW,41.785972,-87.752417,620,-6,A,"Chicago, IL",3513,3541,3846,3847,5.200683176772,11.672126517932792,91.0,158.0,"Fri, Jan  8, 1999","Sat, Jan  2, 1999"
3473,Memphis International,Memphis,United States,MEM,KMEM,35.042417,-89.976667,341,-6,A,"Memphis, TN",4155,4198,4386,4383,5.466185318892901,13.687232015245359,32.0,88.0,"Sun, Jan 10, 1999","Thu, Jan 21, 1999"
3826,McAllen Miller International,Mcallen,United States,MFE,KMFE,26.175833,-98.238611,107,-6,A,"Mission/McAllen/Edinburg, TX",265,266,268,269,3.8264150943396227,9.830827067669166,12.0,109.0,"Wed, Jan 13, 1999","Thu, Jan 28, 1999"
4101,Rogue Valley International Medford,Medford,United States,MFR,KMFR,42.374228,-122.8735,1335,-8,A,"Medford, OR",90,90,94,94,3.011111111111111,9.533333333333331,9.0,21.0,"Fri, Jan 22, 1999","Mon, Jan  4, 1999"
4115,Montgomery Regional Airport ,MONTGOMERY,United States,MGM,KMGM,32.3006389,-86.3939722,221,-6,A,"Montgomery, AL",152,151,154,154,3.835526315789474,10.52980132450331,13.0,25.0,"Sat, Jan 23, 1999","Sun, Jan 17, 1999"
4011,Manchester Regional Airport,Manchester NH,United States,MHT,KMHT,42.932556,-71.435667,266,-5,A,"Manchester, NH",970,973,1059,1059,4.1298969072164935,12.02466598150052,18.0,95.0,"Thu, Jan 28, 1999","Fri, Jan 15, 1999"
3576,Miami International,Miami,United States,MIA,KMIA,25.79325,-80.290556,8,-5,A,"Miami, FL",5419,5427,5571,5566,6.843882635172536,18.885940667035186,65.0,197.0,"Sat, Jan  9, 1999","Fri, Jan  8, 1999"
3717,General Mitchell International,Milwaukee,United States,MKE,KMKE,42.947222,-87.896583,723,-6,A,"Milwaukee, WI",1119,1121,1273,1274,5.214477211796245,14.825156110615525,47.0,85.0,"Fri, Jan  8, 1999","Thu, Jan 21, 1999"
3671,Melbourne International,Melbourne,United States,MLB,KMLB,28.102753,-80.645258,33,-5,A,"Melbourne, FL",184,185,186,186,5.130434782608696,11.772972972972976,9.0,71.0,"Tue, Jan  5, 1999","Sat, Jan  2, 1999"
4072,Quad City International,Moline,United States,MLI,KMLI,41.448528,-90.507539,590,-6,A,"Moline, IL",130,130,145,145,3.4461538461538463,10.930769230769231,7.0,49.0,"Sun, Jan 10, 1999","Mon, Jan  4, 1999"
3732,Monroe Regional,Monroe,United States,MLU,KMLU,32.510864,-92.037689,79,-6,A,"Monroe, LA",182,183,185,186,3.912087912087912,9.644808743169401,8.0,20.0,"Fri, Jan 29, 1999","Thu, Jan  7, 1999"
3782,Mobile Regional,Mobile,United States,MOB,KMOB,30.691231,-88.242814,219,-6,A,"Mobile, AL",362,358,372,369,4.4751381215469666,10.013966480446927,36.0,69.0,"Sat, Jan  2, 1999","Wed, Jan 20, 1999"
3498,Minot International,Minot,United States,MOT,KMOT,48.259378,-101.280333,1716,-6,A,"Minot, ND",89,90,92,92,4.382022471910114,11.077777777777778,19.0,113.0,"Wed, Jan  6, 1999","Wed, Jan 20, 1999"
3948,Monterey Peninsula,Monterey,United States,MRY,KMRY,36.587,-121.842944,257,-8,A,"Monterey, CA",60,59,61,61,3.216666666666667,7.186440677966102,6.0,15.0,"Sat, Jan  2, 1999","Thu, Jan 14, 1999"
3459,Dane County Regional-Truax Field,Madison,United States,MSN,KMSN,43.139858,-89.337514,887,-6,A,"Madison, WI",344,342,375,375,4.604651162790699,14.283625730994151,12.0,74.0,"Wed, Jan 20, 1999","Tue, Jan 12, 1999"
4216,Missoula International,Missoula,United States,MSO,KMSO,46.916306,-114.090556,3205,-7,A,"Missoula, MT",149,152,155,156,4.436241610738257,10.822368421052632,11.0,36.0,"Mon, Jan 18, 1999","Mon, Jan 18, 1999"
3858,Minneapolis St. Paul International,Minneapolis,United States,MSP,KMSP,44.881956,-93.221767,841,-6,A,"Minneapolis, MN",10505,10624,11295,11302,7.794002855782962,22.271272590361406,228.0,194.0,"Fri, Jan  8, 1999","Tue, Jan 26, 1999"
3861,Louis Armstrong New Orleans International,New Orleans,United States,MSY,KMSY,29.993389,-90.258028,4,-6,A,"New Orleans, LA",4085,4082,4204,4200,3.6736842105263157,9.705781479666866,30.0,82.0,"Sat, Jan  2, 1999","Sat, Jan 30, 1999"
6880,Montrose Regional Airport,Montrose CO,United States,MTJ,KMTJ,38.509794,-107.894242,5759,-7,A,"Montrose/Delta, CO",87,87,87,87,3.735632183908046,11.77011494252874,11.0,34.0,"Sat, Jan  2, 1999","Thu, Jan 21, 1999"
3515,Myrtle Beach International,Myrtle Beach,United States,MYR,KMYR,33.67975,-78.928333,25,-5,A,"Myrtle Beach, SC",150,150,155,155,3.78,9.20666666666667,6.0,26.0,"Thu, Jan 21, 1999","Fri, Jan  1, 1999"
3453,Metropolitan Oakland International,Oakland,United States,OAK,KOAK,37.721278,-122.220722,9,-8,A,"Oakland, CA",4565,4574,4667,4668,3.9318729463307793,9.198513336248347,30.0,44.0,"Sun, Jan 10, 1999","Thu, Jan 14, 1999"
3456,Kahului,Kahului,United States,OGG,PHOG,20.89865,-156.430458,54,-10,N,"Kahului, HI",246,247,248,248,4.951219512195121,10.854251012145752,33.0,45.0,"Thu, Jan  7, 1999","Sun, Jan 10, 1999"
3863,Will Rogers World,Oklahoma City,United States,OKC,KOKC,35.393089,-97.600733,1295,-6,A,"Oklahoma City, OK",1626,1628,1679,1680,3.680196801968021,9.711302211302229,26.0,105.0,"Sun, Jan 10, 1999","Wed, Jan  6, 1999"
3454,Eppley Airfield,Omaha,United States,OMA,KOMA,41.303167,-95.894069,984,-6,A,"Omaha, NE",1349,1360,1398,1398,3.383246849518163,11.155147058823516,17.0,90.0,"Sat, Jan 23, 1999","Fri, Jan  1, 1999"
3615,Nome,Nome,United States,OME,PAOM,64.512203,-165.445247,37,-9,A,"Nome, AK",67,68,75,75,3.1641791044776117,7.088235294117647,8.0,21.0,"Wed, Jan  6, 1999","Fri, Jan  8, 1999"
3734,Ontario International,Ontario,United States,ONT,KONT,34.056,-117.601194,944,-8,A,"Ontario, CA",2841,2838,2910,2908,3.8458289334741296,8.887949260042275,23.0,110.0,"Sat, Jan 30, 1999","Fri, Jan 22, 1999"
3830,Chicago O'Hare International,Chicago,United States,ORD,KORD,41.978603,-87.904842,668,-6,A,"Chicago, IL",21332,21457,24538,24528,9.283048940558869,19.25231859066975,431.0,247.0,"Sat, Jan  2, 1999","Sat, Jan  2, 1999"
3611,Norfolk International,Norfolk,United States,ORF,KORF,36.894611,-76.201222,26,-5,A,"Norfolk, VA",1248,1241,1347,1345,3.5184294871794872,10.67365028203062,29.0,57.0,"Thu, Jan 28, 1999","Wed, Jan 20, 1999"
3693,Ralph Wien Memorial,Kotzebue,United States,OTZ,PAOT,66.884678,-162.59855,11,-9,A,"Kotzebue, AK",67,67,75,75,2.8059701492537314,5.746268656716418,5.0,14.0,"Fri, Jan  8, 1999","Fri, Jan 15, 1999"
3722,Palm Beach International,West Palm Beach,United States,PBI,KPBI,26.683161,-80.095589,19,-5,A,"West Palm Beach/Palm Beach, FL",2032,2035,2090,2090,4.431594488188972,13.098771498771498,23.0,99.0,"Sun, Jan  3, 1999","Thu, Jan 28, 1999"
3720,Portland International,Portland,United States,PDX,KPDX,45.588722,-122.5975,30,-8,A,"Portland, OR",4482,4521,4642,4647,4.007585899152167,11.299048882990482,29.0,89.0,"Fri, Jan  8, 1999","Fri, Jan 15, 1999"
3752,Philadelphia International,Philadelphia,United States,PHL,KPHL,39.871944,-75.241139,36,-5,A,"Philadelphia, PA",8653,8703,9626,9624,8.241072460418344,20.100654946570224,128.0,281.0,"Fri, Jan  8, 1999","Thu, Jan 14, 1999"
3462,Phoenix Sky Harbor International,Phoenix,United States,PHX,KPHX,33.434278,-112.011583,1135,-7,N,"Phoenix, AZ",14391,14474,14821,14829,5.348968105065677,14.1034268343236,98.0,145.0,"Fri, Jan 15, 1999","Mon, Jan 18, 1999"
3570,Pittsburgh International,Pittsburgh (pennsylva),United States,PIT,KPIT,40.491467,-80.232872,1204,-5,A,"Pittsburgh, PA",7778,7883,8700,8698,6.6594240164566765,19.267410884181135,37.0,149.0,"Fri, Jan 15, 1999","Wed, Jan 13, 1999"
3564,Pensacola Regional,Pensacola,United States,PNS,KPNS,30.473425,-87.186611,121,-6,A,"Pensacola, FL",506,502,522,518,4.270750988142293,10.402390438247009,12.0,49.0,"Sun, Jan 31, 1999","Sat, Jan  9, 1999"
6133,Tri Cities Airport,Pasco,United States,PSC,PSC,46.2647,-119.119,410,-8,A,"Pasco/Kennewick/Richland, WA",119,119,123,123,4.210084033613448,8.890756302521005,10.0,20.0,"Fri, Jan  8, 1999","Sun, Jan  3, 1999"
4147,Petersburg James A. Johnson,Petersburg,United States,PSG,PAPG,56.801667,-132.945278,105,-9,A,"Petersburg, AK",42,42,62,62,2.9285714285714284,5.976190476190475,4.0,15.0,"Fri, Jan  1, 1999","Sat, Jan 30, 1999"
3839,Palm Springs International,Palm Springs,United States,PSP,KPSP,33.829667,-116.506694,477,-8,A,"Palm Springs, CA",432,433,439,439,4.361111111111113,10.810623556581989,26.0,28.0,"Sun, Jan  3, 1999","Sun, Jan 24, 1999"
3641,Theodore Francis Green State,Providence,United States,PVD,KPVD,41.732581,-71.420383,55,-5,A,"Providence, RI",1784,1793,1901,1900,4.272421524663681,12.828778583379803,44.0,114.0,"Fri, Jan  8, 1999","Sun, Jan  3, 1999"
3862,Portland International Jetport,Portland,United States,PWM,KPWM,43.646161,-70.309281,77,-5,A,"Portland, ME",469,472,542,541,3.8976545842217476,12.61864406779661,18.0,66.0,"Mon, Jan  4, 1999","Sun, Jan 24, 1999"
4087,Rapid City Regional Airport,Rapid City,United States,RAP,KRAP,44.045278,-103.057222,3204,-7,A,"Rapid City, SD",64,63,65,65,4.046875,8.746031746031745,7.0,30.0,"Fri, Jan  1, 1999","Fri, Jan  1, 1999"
3626,Raleigh Durham International,Raleigh-durham,United States,RDU,KRDU,35.877639,-78.787472,435,-5,A,"Raleigh/Durham, NC",2197,2203,2341,2341,4.089667728720972,11.649114843395372,45.0,111.0,"Sun, Jan 17, 1999","Wed, Jan  6, 1999"
3608,Richmond International,Richmond,United States,RIC,KRIC,37.505167,-77.319667,167,-5,A,"Richmond, VA",1196,1192,1296,1296,4.531772575250838,11.03355704697987,33.0,131.0,"Sat, Jan  9, 1999","Fri, Jan 15, 1999"
3807,Reno Tahoe International,Reno,United States,RNO,KRNO,39.499108,-119.768108,4415,-8,A,"Reno, NV",2191,2185,2212,2210,4.068918302145138,9.79816933638443,19.0,150.0,"Sat, Jan  9, 1999","Sun, Jan 24, 1999"
4016,Roanoke Regional,Roanoke VA,United States,ROA,KROA,37.325472,-79.975417,1175,-5,A,"Roanoke, VA",175,171,199,199,4.2971428571428625,8.52631578947369,8.0,35.0,"Fri, Jan 22, 1999","Fri, Jan  8, 1999"
3622,Greater Rochester International,Rochester,United States,ROC,KROC,43.118866,-77.672389,559,-5,A,"Rochester, NY",1135,1145,1278,1278,6.610572687224671,14.819213973799126,40.0,152.0,"Fri, Jan 15, 1999","Wed, Jan  6, 1999"
4048,Rochester,Rochester,United States,RST,KRST,43.908283,-92.500014,1317,-6,A,"Rochester, MN",128,128,152,153,3.9609375,15.0703125,9.0,80.0,"Mon, Jan 18, 1999","Thu, Jan 21, 1999"
3793,Southwest Florida International,Fort Myers,United States,RSW,KRSW,26.536167,-81.755167,30,-5,A,"Fort Myers, FL",1374,1374,1418,1420,3.7547307132459977,13.660844250363912,25.0,170.0,"Mon, Jan 25, 1999","Wed, Jan 20, 1999"
3731,San Diego International,San Diego,United States,SAN,KSAN,32.733556,-117.189667,17,-8,A,"San Diego, CA",5237,5273,5496,5500,2.9388963146839844,12.142234022378158,31.0,97.0,"Mon, Jan  4, 1999","Fri, Jan 22, 1999"
3621,San Antonio International,San Antonio,United States,SAT,KSAT,29.533694,-98.469778,809,-6,A,"San Antonio, TX",3122,3124,3179,3182,3.1982703395259438,9.577784891165194,19.0,95.0,"Fri, Jan 29, 1999","Fri, Jan  8, 1999"
3613,Savannah Hilton Head International,Savannah,United States,SAV,KSAV,32.127583,-81.202139,51,-5,A,"Savannah, GA",409,414,430,430,5.193154034229829,10.942028985507237,10.0,53.0,"Fri, Jan  8, 1999","Fri, Jan 22, 1999"
3949,Santa Barbara Municipal,Santa Barbara,United States,SBA,KSBA,34.426211,-119.840372,10,-8,A,"Santa Barbara, CA",117,118,118,118,2.7948717948717947,5.889830508474576,9.0,18.0,"Wed, Jan  6, 1999","Sun, Jan 10, 1999"
4359,South Bend Regional,South Bend,United States,SBN,KSBN,41.708661,-86.31725,799,-5,A,"South Bend, IN",205,205,237,237,4.443902439024393,11.848780487804879,48.0,34.0,"Mon, Jan  4, 1999","Sat, Jan  2, 1999"
3620,Deadhorse,Deadhorse,United States,SCC,PASC,70.19475,-148.465167,64,-9,A,"Deadhorse, AK",38,38,44,44,2.789473684210526,5.921052631578948,5.0,13.0,"Mon, Jan 25, 1999","Fri, Jan  8, 1999"
4014,Louisville International Airport,Louisville,United States,SDF,KSDF,38.1740858,-85.7364989,501,-5,A,"Louisville, KY",1816,1812,1922,1919,5.21916299559471,10.745584988962456,24.0,123.0,"Fri, Jan  8, 1999","Fri, Jan  8, 1999"
3577,Seattle Tacoma International,Seattle,United States,SEA,KSEA,47.449,-122.309306,433,-8,A,"Seattle, WA",7431,7503,7725,7732,4.593325259049944,14.126616020258561,38.0,110.0,"Sun, Jan 10, 1999","Mon, Jan 11, 1999"
3469,San Francisco International,San Francisco,United States,SFO,KSFO,37.618972,-122.374889,13,-8,A,"San Francisco, CA",10419,10463,11207,11191,5.322775698243591,15.945713466500976,51.0,228.0,"Sun, Jan 17, 1999","Mon, Jan 11, 1999"
4348,Springfield Branson National,Springfield,United States,SGF,KSGF,37.245667,-93.388639,1268,-6,A,"Springfield, MO",157,155,172,172,3.8917197452229315,11.116129032258062,47.0,84.0,"Fri, Jan  8, 1999","Wed, Jan 13, 1999"
3609,Shreveport Regional,Shreveport,United States,SHV,KSHV,32.446629,-93.8256,258,-6,A,"Shreveport, LA",312,315,331,331,4.541666666666667,9.120634920634918,10.0,30.0,"Mon, Jan 11, 1999","Sat, Jan 23, 1999"
3856,Sitka Rocky Gutierrez,Sitka,United States,SIT,PASI,57.047138,-135.361611,21,-9,A,"Sitka, AK",87,92,93,93,3.8735632183908044,11.728260869565217,15.0,110.0,"Sun, Jan 31, 1999","Wed, Jan 27, 1999"
3748,Norman Y. Mineta San Jose International,San Jose,United States,SJC,KSJC,37.3626,-121.929022,62,-8,A,"San Jose, CA",4178,4187,4310,4312,3.6682623264719956,12.890852639121087,40.0,201.0,"Thu, Jan 21, 1999","Wed, Jan  6, 1999"
3536,Salt Lake City International,Salt Lake City,United States,SLC,KSLC,40.788389,-111.977772,4227,-7,A,"Salt Lake City, UT",6810,6852,6999,7005,5.2375917767988245,16.19118505545826,31.0,106.0,"Tue, Jan  5, 1999","Thu, Jan 21, 1999"
3817,Sacramento International,Sacramento,United States,SMF,KSMF,38.695417,-121.590778,27,-8,A,"Sacramento, CA",2869,2874,2935,2936,4.000697107005925,9.492345163535196,24.0,128.0,"Sun, Jan 31, 1999","Sat, Jan  2, 1999"
3867,John Wayne Airport Orange County,Santa Ana,United States,SNA,KSNA,33.675667,-117.868222,56,-8,A,"Santa Ana, CA",2761,2794,2906,2909,5.53748641796451,12.916964924838945,55.0,176.0,"Tue, Jan  5, 1999","Thu, Jan  7, 1999"
4067,Sarasota Bradenton International,Sarasota,United States,SRQ,KSRQ,27.395444,-82.554389,30,-5,A,"Sarasota/Bradenton, FL",473,475,498,496,3.9471458773784356,11.593684210526316,16.0,163.0,"Mon, Jan 18, 1999","Mon, Jan 18, 1999"
3678,Lambert St. Louis International,St. Louis,United States,STL,KSTL,38.748697,-90.370028,618,-6,A,"St. Louis, MO",13300,13366,14667,14673,8.200451127819514,19.812958252281778,155.0,190.0,"Sun, Jan  3, 1999","Wed, Jan 13, 1999"
3753,Sioux Gateway-Colonel Bud Day Field,Sioux City,United States,SUX,KSUX,42.402603,-96.384367,1098,-6,A,"Sioux City, IA",54,55,57,57,3.962962962962963,9.618181818181819,9.0,24.0,"Thu, Jan  7, 1999","Wed, Jan  6, 1999"
3661,Stewart International,Newburgh,United States,SWF,KSWF,41.504094,-74.104839,491,-5,A,"Newburgh/Poughkeepsie, NY",77,77,93,93,5.233766233766234,15.5064935064935,12.0,85.0,"Fri, Jan 15, 1999","Fri, Jan  8, 1999"
3745,Syracuse Hancock International,Syracuse,United States,SYR,KSYR,43.111187,-76.106311,421,-5,A,"Syracuse, NY",869,867,971,969,5.227848101265833,19.123414071510975,49.0,170.0,"Tue, Jan  5, 1999","Sat, Jan  9, 1999"
3698,Tallahassee Regional,Tallahassee,United States,TLH,KTLH,30.396528,-84.350333,81,-5,A,"Tallahassee, FL",207,207,216,216,3.8550724637681157,10.212560386473434,9.0,52.0,"Sun, Jan  3, 1999","Sat, Jan  2, 1999"
4040,Toledo,Toledo,United States,TOL,KTOL,41.586806,-83.807833,684,-5,A,"Toledo, OH",74,74,87,87,3.9459459459459443,10.175675675675679,11.0,60.0,"Tue, Jan  5, 1999","Sun, Jan 10, 1999"
3646,Tampa International,Tampa,United States,TPA,KTPA,27.975472,-82.53325,26,-5,A,"Tampa, FL",4761,4765,4923,4919,4.178743961352648,11.654354669464855,44.0,105.0,"Sat, Jan  2, 1999","Sat, Jan 30, 1999"
4116,Tri-Cities Regional Airport,BRISTOL,United States,TRI,KTRI,36.4752222,-82.4074167,1519,-5,A,"Bristol/Johnson City/Kingsport, TN",106,104,114,114,4.009433962264152,6.538461538461538,9.0,14.0,"Sat, Jan 23, 1999","Thu, Jan 21, 1999"
3855,Tulsa International,Tulsa,United States,TUL,KTUL,36.198389,-95.888111,677,-6,A,"Tulsa, OK",1516,1515,1579,1571,4.244063324538259,10.821782178217802,60.0,95.0,"Fri, Jan  8, 1999","Wed, Jan 20, 1999"
3636,Tucson International,Tucson,United States,TUS,KTUS,32.116083,-110.941028,2643,-7,N,"Tucson, AZ",1566,1562,1581,1578,3.9054916985951444,10.536491677336741,30.0,128.0,"Tue, Jan  5, 1999","Fri, Jan 22, 1999"
4023,Cherry Capital Airport,Traverse City,United States,TVC,KTVC,44.741445,-85.582235,624,-5,A,"Traverse City, MI",58,58,65,64,3.086206896551724,15.948275862068966,9.0,39.0,"Fri, Jan 15, 1999","Sat, Jan  9, 1999"
3676,McGhee Tyson,Knoxville,United States,TYS,KTYS,35.810972,-83.994028,981,-5,A,"Knoxville, TN",583,582,618,618,5.644939965694684,11.785223367697593,23.0,45.0,"Thu, Jan  7, 1999","Sun, Jan 17, 1999"
3873,Eglin AFB,Valparaiso,United States,VPS,KVPS,30.48325,-86.5254,87,-6,A,"Valparaiso, FL",90,91,93,93,7.0,9.1978021978022,14.0,36.0,"Wed, Jan  6, 1999","Mon, Jan 18, 1999"
5969,Wrangell Airport,Wrangell,United States,WRG,PAWG,56.4843,-132.37,44,-9,A,"Wrangell, AK",47,51,62,62,2.9361702127659575,6.9411764705882355,5.0,42.0,"Thu, Jan  7, 1999","Thu, Jan 14, 1999"
6803,Yakutat,Yakutat,United States,YAK,PAYA,59.3012,-139.3937,33,-9,A,"Yakutat, AK",55,54,62,61,3.4909090909090907,5.962962962962963,7.0,17.0,"Thu, Jan 28, 1999","Sat, Jan 23, 1999"
