airport_id,name,city,country,iata_faa,iaco,latitude,longitude,altitude,zone,dst,city_state,avg_able_landings,avg_able_takeoffs,total_landings,total_takeoffs,avg_taxi_in,avg_taxi_out,longest_taxi_in,longest_taxi_out,lng_tx_in_date,lng_tx_out_date
4355,Lehigh Valley International,Allentown,United States,ABE,KABE,40.652083,-75.440806,393,-5,A,"Allentown/Bethlehem/Easton, PA",538,534,550,550,3.964684014869891,11.207865168539326,15.0,51.0,"Thu, Mar 23, 2000","Fri, Mar  3, 2000"
4019,Albuquerque International Sunport,Albuquerque,United States,ABQ,KABQ,35.0402222,-106.6091944,5355,-7,A,"Albuquerque, NM",3025,3033,3071,3072,4.212231404958675,10.391361688097607,23.0,77.0,"Mon, Mar 27, 2000","Sun, Mar  5, 2000"
3531,Kodiak,Kodiak,United States,ADQ,PADQ,57.749967,-152.493856,78,-9,A,"Kodiak, AK",62,62,62,62,2.725806451612903,6.612903225806452,5.0,18.0,"Wed, Mar  1, 2000","Sat, Mar 25, 2000"
3658,Augusta Regional At Bush Field,Bush Field,United States,AGS,KAGS,33.369944,-81.9645,144,-5,A,"Augusta, GA",91,91,93,93,4.428571428571427,11.736263736263732,7.0,23.0,"Mon, Mar 27, 2000","Fri, Mar 17, 2000"
3794,King Salmon,King Salmon,United States,AKN,PAKN,58.676778,-156.649278,68,-9,A,"King Salmon, AK",17,17,17,17,3.1176470588235294,6.0588235294117645,4.0,14.0,"Sun, Mar  5, 2000","Sun, Mar 26, 2000"
3864,Albany International,Albany,United States,ALB,KALB,42.748267,-73.801692,285,-5,A,"Albany, NY",960,953,976,970,4.036458333333329,12.355718782791188,15.0,61.0,"Sat, Mar 11, 2000","Sun, Mar 19, 2000"
3840,Rick Husband Amarillo International,Amarillo,United States,AMA,KAMA,35.219369,-101.705931,3607,-6,A,"Amarillo, TX",397,400,410,409,3.4861460957178836,7.962499999999999,12.0,67.0,"Tue, Mar 21, 2000","Sat, Mar 25, 2000"
3774,Ted Stevens Anchorage International,Anchorage,United States,ANC,PANC,61.174361,-149.996361,152,-9,A,"Anchorage, AK",1448,1456,1536,1535,4.165745856353596,11.791208791208787,24.0,70.0,"Sun, Mar 26, 2000","Mon, Mar 27, 2000"
3682,Hartsfield Jackson Atlanta International,Atlanta,United States,ATL,KATL,33.636719,-84.428067,1026,-5,A,"Atlanta, GA",22396,22630,22979,23076,8.56188605108066,19.41595227574034,68.0,154.0,"Fri, Mar 24, 2000","Wed, Mar  8, 2000"
3673,Austin Bergstrom International,Austin,United States,AUS,KAUS,30.194528,-97.669889,542,-6,A,"Austin, TX",3469,3476,3516,3520,4.719227443067167,11.055235903337175,33.0,82.0,"Thu, Mar  2, 2000","Sun, Mar 19, 2000"
4007,Asheville Regional Airport,Asheville,United States,AVL,KAVL,35.436194,-82.541806,2165,-5,A,"Asheville, NC",120,119,124,124,3.3833333333333333,10.126050420168069,6.0,43.0,"Wed, Mar  1, 2000","Mon, Mar 27, 2000"
4286,Wilkes Barre Scranton International,Scranton,United States,AVP,KAVP,41.338478,-75.723403,962,-5,A,"Scranton/Wilkes-Barre, PA",126,126,128,128,3.7936507936507944,8.706349206349207,7.0,44.0,"Thu, Mar 16, 2000","Fri, Mar 17, 2000"
4039,Kalamazoo,Kalamazoo,United States,AZO,KAZO,42.234875,-85.552058,874,-5,A,"Kalamazoo, MI",123,123,124,124,4.016260162601626,8.682926829268297,9.0,29.0,"Mon, Mar 20, 2000","Fri, Mar 10, 2000"
3825,Bradley International,Windsor Locks,United States,BDL,KBDL,41.938889,-72.683222,173,-5,A,"Hartford, CT",3046,3042,3076,3076,4.5975049244911315,12.938856015779102,40.0,103.0,"Sun, Mar 19, 2000","Thu, Mar  9, 2000"
3599,Bethel,Bethel,United States,BET,PABE,60.779778,-161.838,121,-9,A,"Bethel, AK",82,82,89,89,2.8658536585365857,6.646341463414634,6.0,19.0,"Wed, Mar  1, 2000","Fri, Mar 17, 2000"
4129,Greater Binghamton-Edwin A. Link Field,Binghamton,United States,BGM,KBGM,42.208689,-75.979839,1636,-5,A,"Binghamton, NY",66,65,66,66,4.212121212121209,9.876923076923076,12.0,38.0,"Wed, Mar  1, 2000","Thu, Mar  2, 2000"
3811,Birmingham International,Birmingham,United States,BHM,KBHM,33.562942,-86.75355,644,-6,A,"Birmingham, AL",1718,1714,1745,1739,3.3405122235157165,10.120770128354717,41.0,127.0,"Tue, Mar 21, 2000","Sat, Mar 11, 2000"
4021,Billings Logan International Airport,Billings,United States,BIL,KBIL,45.80921,-108.537654,3652,-7,A,"Billings, MT",242,240,248,248,3.454545454545455,10.424999999999994,7.0,42.0,"Thu, Mar 16, 2000","Wed, Mar  8, 2000"
4083,Bismarck Municipal Airport,Bismarck,United States,BIS,KBIS,46.775842,-100.757931,1661,-6,A,"Bismarck/Mandan, ND",118,118,120,120,3.7542372881355934,7.567796610169491,8.0,35.0,"Tue, Mar 14, 2000","Wed, Mar 15, 2000"
3690,Nashville International,Nashville,United States,BNA,KBNA,36.124472,-86.678194,599,-6,A,"Nashville, TN",4846,4841,4879,4880,5.039207593891861,10.84982441644288,46.0,64.0,"Mon, Mar 20, 2000","Mon, Mar 13, 2000"
3495,Boise Air Terminal,Boise,United States,BOI,KBOI,43.564361,-116.222861,2871,-7,A,"Boise, ID",1017,1016,1022,1022,3.1386430678466084,8.90157480314961,10.0,70.0,"Thu, Mar 23, 2000","Thu, Mar  9, 2000"
3448,General Edward Lawrence Logan International,Boston,United States,BOS,KBOS,42.364347,-71.005181,19,-5,A,"Boston, MA",9217,9209,9576,9570,7.870999240533791,18.642415028776206,66.0,180.0,"Fri, Mar 17, 2000","Fri, Mar 17, 2000"
3738,Brownsville South Padre Island International,Brownsville,United States,BRO,KBRO,25.906833,-97.425861,22,-6,A,"Brownsville, TX",8,8,8,8,4.0,10.0,9.0,23.0,"Sat, Mar 11, 2000","Sun, Mar 12, 2000"
3571,Wiley Post Will Rogers Memorial,Barrow,United States,BRW,PABR,71.285446,-156.766003,44,-9,A,"Barrow, AK",70,68,76,76,3.1285714285714286,5.705882352941177,9.0,20.0,"Mon, Mar 27, 2000","Fri, Mar 31, 2000"
3846,Baton Rouge Metro-Ryan Field,Baton Rouge,United States,BTR,KBTR,30.533167,-91.149639,70,-6,A,"Baton Rouge, LA",396,393,399,399,4.303030303030298,10.631043256997465,15.0,60.0,"Thu, Mar  2, 2000","Wed, Mar  1, 2000"
3711,Burlington International,Burlington,United States,BTV,KBTV,44.471861,-73.153278,335,-5,A,"Burlington, VT",211,214,217,217,4.260663507109,13.682242990654206,14.0,86.0,"Thu, Mar 16, 2000","Sun, Mar 19, 2000"
3820,Buffalo Niagara International,Buffalo,United States,BUF,KBUF,42.940525,-78.732167,724,-5,A,"Buffalo, NY",1466,1459,1492,1488,3.758526603001363,12.088416723783405,53.0,134.0,"Thu, Mar 23, 2000","Wed, Mar 15, 2000"
3644,Bob Hope,Burbank,United States,BUR,KBUR,34.200667,-118.358667,778,-8,A,"Burbank, CA",2217,2225,2316,2317,2.2796571944068567,10.168539325842673,25.0,80.0,"Sun, Mar  5, 2000","Mon, Mar 13, 2000"
3849,Baltimore Washington International,Baltimore,United States,BWI,KBWI,39.175361,-76.668333,146,-5,A,"Baltimore, MD",7206,7214,7255,7257,4.686511240632788,11.480177432769631,46.0,72.0,"Thu, Mar  2, 2000","Fri, Mar 10, 2000"
4020,Gallatin Field,Bozeman,United States,BZN,KBZN,45.777643,-111.160151,4500,-7,A,"Bozeman, MT",165,166,167,167,4.6,12.397590361445783,10.0,86.0,"Mon, Mar 13, 2000","Sun, Mar 19, 2000"
3561,Columbia Metropolitan,Colombia,United States,CAE,KCAE,33.938833,-81.119528,236,-5,A,"Columbia, SC",419,419,430,430,4.601431980906919,12.329355608591886,8.0,42.0,"Fri, Mar 10, 2000","Thu, Mar  9, 2000"
4112,Akron Canton Regional Airport,Akron,United States,CAK,KCAK,40.9160833,-81.4421944,1228,-5,A,"Akron, OH",88,88,89,89,4.011363636363636,8.500000000000002,9.0,16.0,"Thu, Mar  9, 2000","Thu, Mar 16, 2000"
3610,Merle K. Mudhole Smith,Cordova,United States,CDV,PACV,60.491778,-145.477556,48,-9,A,"Cordova, AK",59,59,62,62,3.0338983050847452,5.661016949152542,5.0,22.0,"Wed, Mar  1, 2000","Sun, Mar 19, 2000"
3578,Lovell Field,Chattanooga,United States,CHA,KCHA,35.035278,-85.203808,683,-5,A,"Chattanooga, TN",89,89,89,89,3.6741573033707864,7.808988764044947,11.0,19.0,"Thu, Mar  9, 2000","Tue, Mar 21, 2000"
3806,Charleston AFB International,Charleston,United States,CHS,KCHS,32.898647,-80.040528,45,-5,A,"Charleston, SC",580,578,588,588,5.463793103448275,11.108996539792393,18.0,47.0,"Thu, Mar 16, 2000","Fri, Mar 17, 2000"
4043,Cedar Rapids,Cedar Rapids,United States,CID,KCID,41.884694,-91.710806,869,-6,A,"Cedar Rapids/Iowa City, IA",481,480,499,499,3.954261954261955,9.375000000000007,8.0,169.0,"Fri, Mar  3, 2000","Wed, Mar 15, 2000"
3486,Cleveland Hopkins International,Cleveland,United States,CLE,KCLE,41.411689,-81.849794,791,-5,A,"Cleveland, OH",4955,4959,5011,5013,4.42502522704339,16.275055454728797,20.0,119.0,"Sun, Mar 19, 2000","Sun, Mar 12, 2000"
3876,Charlotte Douglas International,Charlotte,United States,CLT,KCLT,35.214,-80.943139,748,-5,A,"Charlotte, NC",10570,10592,10713,10717,5.385714285714312,15.795694864048333,65.0,142.0,"Thu, Mar 16, 2000","Tue, Mar 28, 2000"
3759,Port Columbus International,Columbus,United States,CMH,KCMH,39.997972,-82.891889,815,-5,A,"Columbus, OH",2926,2921,2970,2969,4.364661654135337,10.914412872304014,27.0,71.0,"Fri, Mar 17, 2000","Sat, Mar 11, 2000"
3819,City Of Colorado Springs Municipal,Colorado Springs,United States,COS,KCOS,38.805805,-104.700778,6187,-7,A,"Colorado Springs, CO",996,993,1041,1042,6.55421686746988,15.596173212487411,44.0,119.0,"Fri, Mar 31, 2000","Fri, Mar 31, 2000"
3744,Corpus Christi International,Corpus Christi,United States,CRP,KCRP,27.770361,-97.501222,44,-6,A,"Corpus Christi, TX",254,257,263,263,3.0669291338582676,7.046692607003891,17.0,15.0,"Thu, Mar 23, 2000","Mon, Mar  6, 2000"
4285,Yeager,Charleston,United States,CRW,KCRW,38.373147,-81.593189,981,-5,A,"Charleston/Dunbar, WV",93,94,96,97,3.129032258064516,6.946808510638297,7.0,17.0,"Fri, Mar 31, 2000","Sun, Mar 26, 2000"
3488,Cincinnati Northern Kentucky International,Cincinnati,United States,CVG,KCVG,39.048836,-84.667822,896,-5,A,"Cincinnati, OH",6402,6407,6535,6538,6.169634489222114,18.230841267363886,37.0,238.0,"Sat, Mar 11, 2000","Wed, Mar 15, 2000"
3950,Daytona Beach International,Daytona Beach,United States,DAB,KDAB,29.179917,-81.058056,34,-5,A,"Daytona Beach, FL",183,185,186,186,3.890710382513661,12.286486486486487,7.0,65.0,"Mon, Mar 27, 2000","Sat, Mar 11, 2000"
3502,Dallas Love Field,Dallas,United States,DAL,KDAL,32.847111,-96.851778,487,-6,A,"Dallas, TX",3845,3862,4009,4009,2.777633289987001,8.509321595028483,19.0,140.0,"Tue, Mar  7, 2000","Fri, Mar 10, 2000"
3627,James M. Cox Dayton International,Dayton,United States,DAY,KDAY,39.902375,-84.219375,1009,-5,A,"Dayton, OH",975,973,1011,1012,4.956923076923081,13.009249743062686,19.0,111.0,"Mon, Mar 27, 2000","Sun, Mar 19, 2000"
3520,Ronald Reagan Washington National,Washington,United States,DCA,KDCA,38.852083,-77.037722,15,-5,A,"Washington, DC",6827,6840,6994,7005,4.619745129632355,15.874122807017528,43.0,218.0,"Fri, Mar 10, 2000","Wed, Mar 15, 2000"
3751,Denver International,Denver,United States,DEN,KDEN,39.861656,-104.673178,5431,-7,A,"Denver, CO",11206,11236,11605,11605,7.289398536498311,17.660733357066707,46.0,186.0,"Tue, Mar 14, 2000","Wed, Mar 15, 2000"
3670,Dallas Fort Worth International,Dallas-fort Worth,United States,DFW,KDFW,32.896828,-97.037997,607,-6,A,"Dallas/Fort Worth, TX",20354,20550,21202,21191,10.533899970521741,20.55503649635041,107.0,232.0,"Tue, Mar 28, 2000","Fri, Mar 10, 2000"
3460,Dillingham,Dillingham,United States,DLG,PADL,59.044667,-158.5055,74,-9,A,"Dillingham, AK",16,16,17,17,2.75,5.0625,4.0,11.0,"Sat, Mar 11, 2000","Sun, Mar 19, 2000"
3598,Duluth International,Duluth,United States,DLH,KDLH,46.842091,-92.193649,1428,-6,A,"Duluth, MN",79,81,84,85,3.9240506329113924,8.40740740740741,17.0,28.0,"Tue, Mar 14, 2000","Wed, Mar 15, 2000"
3713,Durango La Plata County,Durango,United States,DRO,KDRO,37.151516,-107.75377,6685,-7,A,"Durango, CO",34,34,35,35,4.264705882352941,11.5,8.0,26.0,"Wed, Mar  8, 2000","Sat, Mar 18, 2000"
3729,Des Moines International,Des Moines,United States,DSM,KDSM,41.533972,-93.663083,958,-6,A,"Des Moines, IA",573,572,578,578,4.602094240837693,10.43181818181819,12.0,57.0,"Fri, Mar 10, 2000","Mon, Mar 13, 2000"
3645,Detroit Metro Wayne County,Detroit,United States,DTW,KDTW,42.212444,-83.353389,645,-5,A,"Detroit, MI",12873,12897,13109,13113,9.554959993785427,19.585950220981605,63.0,146.0,"Tue, Mar 21, 2000","Sun, Mar 19, 2000"
3860,Unalaska,Unalaska,United States,DUT,PADU,53.900139,-166.5435,22,-9,A,"Unalaska, AK",42,42,57,57,2.4285714285714284,6.071428571428571,5.0,13.0,"Fri, Mar  3, 2000","Tue, Mar 21, 2000"
4250,Eagle County Regional,Vail,United States,EGE,KEGE,39.642556,-106.917694,6540,-7,A,"Eagle, CO",338,345,347,349,5.038461538461537,19.898550724637687,19.0,139.0,"Sat, Mar 18, 2000","Fri, Mar 10, 2000"
3946,Elmira Corning Regional,Elmira,United States,ELM,KELM,42.159889,-76.891611,954,-5,A,"Elmira/Corning, NY",112,113,116,116,4.187499999999997,8.097345132743367,9.0,33.0,"Fri, Mar 10, 2000","Fri, Mar 17, 2000"
3559,El Paso International,El Paso,United States,ELP,KELP,31.80725,-106.377583,3958,-7,A,"El Paso, TX",2034,2040,2073,2072,3.0471976401179934,9.823529411764719,17.0,90.0,"Sun, Mar 26, 2000","Tue, Mar 28, 2000"
4276,Erie International-Tom Ridge Field,Erie,United States,ERI,KERI,42.082022,-80.176217,733,-5,A,"Erie, PA",118,118,120,120,3.406779661016949,6.8474576271186445,8.0,18.0,"Thu, Mar 16, 2000","Sun, Mar 12, 2000"
4099,Mahlon Sweet Field,Eugene,United States,EUG,KEUG,44.124583,-123.211972,374,-8,A,"Eugene, OR",181,180,186,186,2.78453038674033,9.722222222222225,7.0,22.0,"Mon, Mar 20, 2000","Sat, Mar  4, 2000"
3494,Newark Liberty International,Newark,United States,EWR,KEWR,40.6925,-74.168667,18,-5,A,"Newark, NJ",10469,10498,10800,10802,8.326010125131415,25.469422747189896,77.0,161.0,"Thu, Mar  9, 2000","Thu, Mar  9, 2000"
3832,Fairbanks International,Fairbanks,United States,FAI,PAFA,64.815114,-147.856267,434,-9,A,"Fairbanks, AK",393,392,412,412,2.9872773536895667,10.01785714285714,17.0,40.0,"Sat, Mar 11, 2000","Sun, Mar  5, 2000"
4292,Hector International Airport,Fargo,United States,FAR,KFAR,46.92065,-96.8157639,902,-6,A,"Fargo, ND",228,226,236,236,4.451754385964909,9.889380530973444,8.0,29.0,"Wed, Mar  8, 2000","Wed, Mar 15, 2000"
3687,Fresno Yosemite International,Fresno,United States,FAT,KFAT,36.776194,-119.71814,336,-8,A,"Fresno, CA",31,31,31,31,4.709677419354839,10.419354838709678,7.0,35.0,"Wed, Mar  1, 2000","Fri, Mar 10, 2000"
5738,Fayetteville Regional-Grannis Field,Fayetteville,United States,FAY,KFAY,34.9912,-78.8803,189,-5,A,"Fayetteville, NC",123,123,124,124,4.186991869918699,8.333333333333334,8.0,21.0,"Thu, Mar 16, 2000","Mon, Mar 20, 2000"
4127,Glacier Park International,Kalispell,United States,FCA,KFCA,48.310472,-114.256,2977,-7,A,"Kalispell, MT",121,122,123,124,4.32231404958678,11.295081967213118,9.0,47.0,"Sat, Mar 18, 2000","Tue, Mar 14, 2000"
3533,Fort Lauderdale Hollywood International,Fort Lauderdale,United States,FLL,KFLL,26.072583,-80.15275,9,-5,A,"Fort Lauderdale, FL",4422,4415,4441,4438,4.552238805970153,15.660249150622876,34.0,145.0,"Thu, Mar 30, 2000","Thu, Mar 30, 2000"
4089,Bishop International,Flint,United States,FNT,KFNT,42.965424,-83.743629,782,-5,A,"Flint, MI",118,118,120,120,5.6440677966101696,12.152542372881356,22.0,93.0,"Thu, Mar 16, 2000","Wed, Mar  1, 2000"
4009,Sioux Falls,Sioux Falls,United States,FSD,KFSD,43.582014,-96.741914,1429,-6,A,"Sioux Falls, SD",319,317,321,321,4.777429467084639,11.621451104100952,11.0,35.0,"Thu, Mar 23, 2000","Wed, Mar 29, 2000"
4041,Fort Wayne,Fort Wayne,United States,FWA,KFWA,40.978472,-85.195139,815,-5,A,"Fort Wayne, IN",23,22,24,23,3.869565217391304,9.045454545454545,7.0,13.0,"Fri, Mar  3, 2000","Tue, Mar 28, 2000"
3467,Spokane International,Spokane,United States,GEG,KGEG,47.619861,-117.533833,2376,-8,A,"Spokane, WA",1120,1122,1143,1143,3.5312500000000018,9.440285204991097,42.0,41.0,"Tue, Mar 28, 2000","Wed, Mar  8, 2000"
3442,Grand Forks International,Grand Forks,United States,GFK,KGFK,47.949256,-97.176111,845,-6,A,"Grand Forks, ND",113,113,116,116,3.309734513274336,6.6902654867256635,6.0,22.0,"Mon, Mar  6, 2000","Wed, Mar 29, 2000"
4038,Gulfport-Biloxi,Gulfport,United States,GPT,KGPT,30.407278,-89.070111,28,-6,A,"Gulfport/Biloxi, MS",93,92,93,93,5.440860215053764,8.565217391304346,20.0,17.0,"Sun, Mar 12, 2000","Tue, Mar 21, 2000"
3653,Austin Straubel International,Green Bay,United States,GRB,KGRB,44.485072,-88.129589,695,-6,A,"Green Bay, WI",235,233,240,240,3.991489361702128,11.20171673819742,8.0,32.0,"Mon, Mar 20, 2000","Fri, Mar 24, 2000"
3685,Gerald R. Ford International,Grand Rapids,United States,GRR,KGRR,42.880833,-85.522806,794,-5,A,"Grand Rapids, MI",753,749,761,760,3.7689243027888453,10.516688918558087,9.0,47.0,"Wed, Mar 22, 2000","Tue, Mar 28, 2000"
4008,Piedmont Triad,Greensboro,United States,GSO,KGSO,36.09775,-79.937306,925,-5,A,"Greensboro/High Point, NC",1269,1260,1300,1291,4.179669030732861,13.321428571428571,20.0,76.0,"Sun, Mar 19, 2000","Thu, Mar 16, 2000"
4034,Greenville-Spartanburg International,Greenville,United States,GSP,KGSP,34.895556,-82.218889,964,-5,A,"Greer, SC",574,573,596,596,3.7108013937282247,12.273996509598604,14.0,38.0,"Tue, Mar 28, 2000","Thu, Mar 16, 2000"
3880,Great Falls International,Great Falls,United States,GTF,KGTF,47.482,-111.370689,3677,-7,A,"Great Falls, MT",212,212,217,217,4.023584905660379,8.551886792452828,7.0,47.0,"Sun, Mar 19, 2000","Wed, Mar  8, 2000"
7051,Gunnison - Crested Butte,Gunnison,United States,GUC,KGUC,38.533889,-106.933056,7678,-7,A,"Gunnison, CO",60,60,61,61,3.433333333333333,13.966666666666667,6.0,37.0,"Wed, Mar  1, 2000","Sun, Mar  5, 2000"
4339,Yampa Valley,Hayden,United States,HDN,KHDN,40.481181,-107.21766,6602,-7,A,"Hayden, CO",190,194,202,202,3.7421052631578946,13.891752577319588,22.0,68.0,"Sat, Mar 11, 2000","Tue, Mar  7, 2000"
3504,Helena Regional,Helena,United States,HLN,KHLN,46.606806,-111.98275,3877,-7,A,"Helena, MT",61,61,62,62,2.8360655737704907,9.836065573770496,5.0,21.0,"Fri, Mar 10, 2000","Tue, Mar 28, 2000"
3728,Honolulu International,Honolulu,United States,HNL,PHNL,21.318681,-157.922428,13,-10,N,"Honolulu, HI",1053,1053,1062,1061,5.2763532763532766,19.070275403608758,25.0,53.0,"Fri, Mar 17, 2000","Thu, Mar  9, 2000"
3566,William P. Hobby,Houston,United States,HOU,KHOU,29.645419,-95.278889,46,-6,A,"Houston, TX",4752,4773,4901,4901,4.202441077441088,7.954745443117532,27.0,86.0,"Mon, Mar 13, 2000","Thu, Mar 16, 2000"
3589,Westchester County,White Plains,United States,HPN,KHPN,41.066959,-73.707575,439,-5,A,"White Plains, NY",385,386,425,425,5.498701298701299,14.707253886010363,29.0,109.0,"Tue, Mar 14, 2000","Thu, Mar  9, 2000"
3560,Valley International,Harlingen,United States,HRL,KHRL,26.2285,-97.654389,36,-6,A,"Harlingen/San Benito, TX",349,350,356,356,2.157593123209171,5.594285714285715,6.0,15.0,"Mon, Mar 20, 2000","Thu, Mar 16, 2000"
4113,Huntsville International Airport-Carl T. Jones Field,Huntsville,United States,HSV,KHSV,34.6371944,-86.7750556,629,-6,A,"Huntsville, AL",482,480,496,495,4.744813278008302,12.23125,17.0,108.0,"Tue, Mar 28, 2000","Sun, Mar 19, 2000"
3714,Washington Dulles International,Washington,United States,IAD,KIAD,38.944533,-77.455811,313,-5,A,"Washington, DC",6205,6204,6398,6395,6.0701047542304485,17.817375886524808,32.0,130.0,"Fri, Mar  3, 2000","Wed, Mar 15, 2000"
3550,George Bush Intercontinental Houston,Houston,United States,IAH,KIAH,29.984433,-95.341442,97,-6,A,"Houston, TX",11044,11060,11168,11163,6.7307135095979715,18.881916817359762,72.0,158.0,"Tue, Mar 28, 2000","Wed, Mar 15, 2000"
3457,Wichita Mid Continent,Wichita,United States,ICT,KICT,37.649944,-97.433056,1333,-6,A,"Wichita, KS",496,493,518,517,4.332661290322581,13.018255578093306,20.0,109.0,"Sun, Mar  5, 2000","Thu, Mar 16, 2000"
3845,Wilmington International,Wilmington,United States,ILM,KILM,34.270615,-77.902569,32,-5,A,"Wilmington, NC",184,185,186,186,4.125000000000001,9.205405405405402,8.0,50.0,"Fri, Mar 31, 2000","Tue, Mar 28, 2000"
3585,Indianapolis International,Indianapolis,United States,IND,KIND,39.717331,-86.294383,797,-5,A,"Indianapolis, IN",2907,2901,2933,2933,7.437564499484004,12.915546363323003,77.0,88.0,"Sat, Mar 11, 2000","Sat, Mar 11, 2000"
3857,Long Island MacArthur,Islip,United States,ISP,KISP,40.79525,-73.100222,99,-5,A,"Islip, NY",650,652,659,659,3.987692307692305,9.567484662576684,33.0,32.0,"Fri, Mar 24, 2000","Sat, Mar  4, 2000"
3947,Ithaca Tompkins Regional,Ithaca,United States,ITH,KITH,42.491028,-76.458444,1099,-5,A,"Ithaca/Cortland, NY",110,113,116,116,3.6363636363636362,10.619469026548675,7.0,37.0,"Tue, Mar  7, 2000","Thu, Mar  2, 2000"
4027,Jackson Hole Airport,Jacksn Hole,United States,JAC,KJAC,43.60733333,-110.73775,6451,-7,A,"Jackson, WY",125,127,132,132,3.2400000000000007,14.464566929133857,6.0,65.0,"Mon, Mar 20, 2000","Sat, Mar 11, 2000"
3580,Jackson Evers International,Jackson,United States,JAN,KJAN,32.311167,-90.075889,346,-6,A,"Jackson/Vicksburg, MS",742,748,754,760,4.231805929919131,8.954545454545455,24.0,74.0,"Sun, Mar  5, 2000","Sat, Mar 11, 2000"
3712,Jacksonville International,Jacksonville,United States,JAX,KJAX,30.494056,-81.687861,30,-5,A,"Jacksonville, FL",2041,2040,2048,2049,4.700636942675157,10.811274509803917,35.0,50.0,"Fri, Mar 10, 2000","Thu, Mar  9, 2000"
3797,John F. Kennedy International,New York,United States,JFK,KJFK,40.639751,-73.778925,13,-5,A,"New York, NY",3674,3692,3738,3753,8.395481763745241,26.307421451787658,68.0,168.0,"Fri, Mar 17, 2000","Sat, Mar 11, 2000"
3492,Juneau International,Juneau,United States,JNU,PAJN,58.354972,-134.576278,21,-9,A,"Juneau, AK",304,305,310,310,3.0328947368421044,10.039344262295085,8.0,32.0,"Sun, Mar 12, 2000","Wed, Mar 22, 2000"
3514,Kona International At Keahole,Kona,United States,KOA,PHKO,19.738767,-156.045631,47,-10,N,"Kona, HI",62,62,62,62,4.709677419354839,10.96774193548387,26.0,29.0,"Fri, Mar 10, 2000","Fri, Mar  3, 2000"
3808,Ketchikan International,Ketchikan,United States,KTN,PAKT,55.355556,-131.71375,88,-9,A,"Ketchikan, AK",182,183,186,186,3.6263736263736264,9.218579234972676,8.0,29.0,"Fri, Mar 31, 2000","Wed, Mar 29, 2000"
3544,Capital City,Lansing,United States,LAN,KLAN,42.7787,-84.587357,861,-5,A,"Lansing, MI",184,181,186,186,4.048913043478264,8.187845303867409,6.0,35.0,"Fri, Mar 24, 2000","Mon, Mar 13, 2000"
3877,McCarran International,Las Vegas,United States,LAS,KLAS,36.080056,-115.15225,2141,-8,A,"Las Vegas, NV",11539,11550,11755,11752,6.001559927203373,15.880865800865799,128.0,111.0,"Sat, Mar 18, 2000","Wed, Mar 29, 2000"
3484,Los Angeles International,Los Angeles,United States,LAX,KLAX,33.942536,-118.408075,126,-8,A,"Los Angeles, CA",17060,17078,17722,17721,8.530480656506398,16.42206347347451,109.0,125.0,"Tue, Mar 21, 2000","Tue, Mar 28, 2000"
3829,Lubbock Preston Smith International,Lubbock,United States,LBB,KLBB,33.663639,-101.822778,3282,-6,A,"Lubbock, TX",490,494,503,503,2.6183673469387783,7.085020242914981,13.0,16.0,"Sun, Mar 19, 2000","Fri, Mar 17, 2000"
4017,Blue Grass,Lexington KY,United States,LEX,KLEX,38.0365,-84.605889,979,-5,A,"Lexington, KY",294,293,304,301,4.45238095238095,9.406143344709903,15.0,38.0,"Wed, Mar 22, 2000","Sun, Mar 19, 2000"
3493,Lafayette Regional,Lafayette,United States,LFT,KLFT,30.205278,-91.987611,43,-6,A,"Lafayette, LA",1,1,1,1,6.0,6.0,6.0,6.0,"Wed, Mar 29, 2000","Wed, Mar 29, 2000"
3697,LaGuardia Airport,New York,United States,LGA,KLGA,40.777245,-73.872608,22,-5,A,"New York, NY",8269,8295,8548,8549,7.137743378884991,25.53236889692589,73.0,193.0,"Sun, Mar 12, 2000","Wed, Mar 15, 2000"
3582,Long Beach,Long Beach,United States,LGB,KLGB,33.817722,-118.151611,60,-8,A,"Long Beach, CA",315,323,335,336,4.707936507936508,13.501547987616096,12.0,124.0,"Thu, Mar  9, 2000","Mon, Mar  6, 2000"
3602,Lihue,Lihue,United States,LIH,PHLI,21.975983,-159.338958,153,-10,N,"Lihue, HI",39,39,39,39,5.410256410256411,6.589743589743589,8.0,13.0,"Fri, Mar  3, 2000","Thu, Mar 30, 2000"
3660,Adams Field,Little Rock,United States,LIT,KLIT,34.729444,-92.224306,262,-6,A,"Little Rock, AR",1129,1125,1146,1145,3.9557130203720177,9.680888888888896,25.0,54.0,"Thu, Mar 16, 2000","Thu, Mar  2, 2000"
3543,Lincoln,Lincoln,United States,LNK,KLNK,40.850971,-96.75925,1219,-6,A,"Lincoln, NE",240,237,244,244,3.683333333333333,9.265822784810124,17.0,40.0,"Tue, Mar 14, 2000","Thu, Mar  9, 2000"
4044,LaCrosse Municipal,LaCrosse,United States,LSE,KLSE,43.878986,-91.256711,654,-6,A,"La Crosse, WI",58,58,58,58,2.9482758620689653,7.051724137931035,5.0,16.0,"Wed, Mar  1, 2000","Tue, Mar 14, 2000"
3652,Midland International,Midland,United States,MAF,KMAF,31.942528,-102.201914,2871,-6,A,"Midland/Odessa, TX",454,455,468,468,2.6101321585903086,6.474725274725275,13.0,15.0,"Wed, Mar 29, 2000","Thu, Mar 23, 2000"
4128,MBS International,Saginaw,United States,MBS,KMBS,43.532913,-84.079647,668,-5,A,"Saginaw/Bay City/Midland, MI",350,348,356,355,4.0742857142857165,10.077586206896564,18.0,47.0,"Tue, Mar 28, 2000","Sun, Mar 19, 2000"
3458,Kansas City International,Kansas City,United States,MCI,KMCI,39.297606,-94.713905,1026,-6,A,"Kansas City, MO",5190,5188,5236,5235,4.306358381502892,10.598111025443329,37.0,129.0,"Wed, Mar  8, 2000","Wed, Mar  8, 2000"
3878,Orlando International,Orlando,United States,MCO,KMCO,28.429394,-81.308994,96,-5,A,"Orlando, FL",8496,8490,8559,8556,5.065089453860642,14.270906949352183,151.0,159.0,"Fri, Mar  3, 2000","Wed, Mar  8, 2000"
3542,Harrisburg International,Harrisburg,United States,MDT,KMDT,40.193494,-76.763403,310,-5,A,"Harrisburg, PA",637,636,651,651,4.405023547880688,10.946540880503147,13.0,77.0,"Tue, Mar 14, 2000","Sun, Mar 19, 2000"
3747,Chicago Midway International,Chicago,United States,MDW,KMDW,41.785972,-87.752417,620,-6,A,"Chicago, IL",4668,4681,4734,4735,4.7247215081405205,11.355693227942746,100.0,156.0,"Wed, Mar 15, 2000","Wed, Mar 15, 2000"
3473,Memphis International,Memphis,United States,MEM,KMEM,35.042417,-89.976667,341,-6,A,"Memphis, TN",4237,4235,4288,4284,5.411375973566203,14.842975206611566,30.0,142.0,"Sun, Mar 19, 2000","Tue, Mar 21, 2000"
3826,McAllen Miller International,Mcallen,United States,MFE,KMFE,26.175833,-98.238611,107,-6,A,"Mission/McAllen/Edinburg, TX",295,295,298,298,4.040677966101695,9.630508474576263,12.0,41.0,"Fri, Mar 10, 2000","Wed, Mar 29, 2000"
4101,Rogue Valley International Medford,Medford,United States,MFR,KMFR,42.374228,-122.8735,1335,-8,A,"Medford, OR",124,124,124,124,3.153225806451613,9.79838709677419,9.0,18.0,"Mon, Mar 13, 2000","Thu, Mar  2, 2000"
4115,Montgomery Regional Airport ,MONTGOMERY,United States,MGM,KMGM,32.3006389,-86.3939722,221,-6,A,"Montgomery, AL",92,92,93,93,4.043478260869564,10.66304347826087,7.0,44.0,"Thu, Mar  9, 2000","Fri, Mar 24, 2000"
4011,Manchester Regional Airport,Manchester NH,United States,MHT,KMHT,42.932556,-71.435667,266,-5,A,"Manchester, NH",1145,1147,1162,1162,3.982532751091703,11.161290322580644,33.0,78.0,"Sat, Mar 11, 2000","Fri, Mar 17, 2000"
3576,Miami International,Miami,United States,MIA,KMIA,25.79325,-80.290556,8,-5,A,"Miami, FL",5780,5775,5833,5827,6.791868512110722,19.898354978354988,50.0,170.0,"Sun, Mar 12, 2000","Sat, Mar 11, 2000"
3717,General Mitchell International,Milwaukee,United States,MKE,KMKE,42.947222,-87.896583,723,-6,A,"Milwaukee, WI",1262,1263,1280,1281,4.6315372424722705,12.486144101346003,16.0,51.0,"Sat, Mar 18, 2000","Thu, Mar  9, 2000"
3671,Melbourne International,Melbourne,United States,MLB,KMLB,28.102753,-80.645258,33,-5,A,"Melbourne, FL",123,123,124,124,4.601626016260159,11.691056910569106,9.0,60.0,"Sat, Mar  4, 2000","Sun, Mar 19, 2000"
4072,Quad City International,Moline,United States,MLI,KMLI,41.448528,-90.507539,590,-6,A,"Moline, IL",149,149,151,151,2.9932885906040263,8.355704697986567,22.0,29.0,"Wed, Mar  8, 2000","Wed, Mar  8, 2000"
3732,Monroe Regional,Monroe,United States,MLU,KMLU,32.510864,-92.037689,79,-6,A,"Monroe, LA",181,180,186,185,4.6298342541436455,10.933333333333334,30.0,110.0,"Fri, Mar 10, 2000","Sun, Mar 19, 2000"
3782,Mobile Regional,Mobile,United States,MOB,KMOB,30.691231,-88.242814,219,-6,A,"Mobile, AL",360,358,372,368,4.658333333333332,10.139664804469287,18.0,30.0,"Thu, Mar 30, 2000","Wed, Mar  1, 2000"
3498,Minot International,Minot,United States,MOT,KMOT,48.259378,-101.280333,1716,-6,A,"Minot, ND",93,93,93,93,4.591397849462366,8.95698924731183,9.0,27.0,"Mon, Mar  6, 2000","Wed, Mar 29, 2000"
3948,Monterey Peninsula,Monterey,United States,MRY,KMRY,36.587,-121.842944,257,-8,A,"Monterey, CA",58,57,62,62,2.8275862068965516,9.210526315789474,5.0,57.0,"Sun, Mar 19, 2000","Sun, Mar  5, 2000"
3459,Dane County Regional-Truax Field,Madison,United States,MSN,KMSN,43.139858,-89.337514,887,-6,A,"Madison, WI",385,384,391,391,4.116883116883116,11.609375000000002,8.0,41.0,"Fri, Mar  3, 2000","Tue, Mar 21, 2000"
4216,Missoula International,Missoula,United States,MSO,KMSO,46.916306,-114.090556,3205,-7,A,"Missoula, MT",153,154,154,155,4.555555555555556,10.051948051948047,9.0,23.0,"Sat, Mar 25, 2000","Fri, Mar 17, 2000"
3858,Minneapolis St. Paul International,Minneapolis,United States,MSP,KMSP,44.881956,-93.221767,841,-6,A,"Minneapolis, MN",12143,12183,12399,12391,6.5055587581322545,18.365427234671355,95.0,160.0,"Tue, Mar 21, 2000","Tue, Mar 21, 2000"
3861,Louis Armstrong New Orleans International,New Orleans,United States,MSY,KMSY,29.993389,-90.258028,4,-6,A,"New Orleans, LA",4269,4272,4289,4290,3.8875614898102566,10.622191011235968,32.0,106.0,"Mon, Mar  6, 2000","Thu, Mar  2, 2000"
6880,Montrose Regional Airport,Montrose CO,United States,MTJ,KMTJ,38.509794,-107.894242,5759,-7,A,"Montrose/Delta, CO",47,47,47,47,4.148936170212766,10.787234042553191,10.0,26.0,"Sat, Mar 18, 2000","Sat, Mar  4, 2000"
3515,Myrtle Beach International,Myrtle Beach,United States,MYR,KMYR,33.67975,-78.928333,25,-5,A,"Myrtle Beach, SC",197,197,198,198,4.401015228426394,10.583756345177667,22.0,27.0,"Sat, Mar 25, 2000","Sat, Mar 11, 2000"
3453,Metropolitan Oakland International,Oakland,United States,OAK,KOAK,37.721278,-122.220722,9,-8,A,"Oakland, CA",4626,4626,4708,4708,4.077388672719418,9.158019887591898,42.0,153.0,"Thu, Mar 30, 2000","Thu, Mar  2, 2000"
3456,Kahului,Kahului,United States,OGG,PHOG,20.89865,-156.430458,54,-10,N,"Kahului, HI",273,274,274,274,4.875457875457876,12.48905109489051,15.0,34.0,"Thu, Mar  9, 2000","Sat, Mar 25, 2000"
3863,Will Rogers World,Oklahoma City,United States,OKC,KOKC,35.393089,-97.600733,1295,-6,A,"Oklahoma City, OK",1741,1741,1764,1763,3.8954623779437116,9.853532452613457,17.0,177.0,"Wed, Mar  8, 2000","Wed, Mar 15, 2000"
3454,Eppley Airfield,Omaha,United States,OMA,KOMA,41.303167,-95.894069,984,-6,A,"Omaha, NE",1435,1427,1449,1445,3.3616724738675954,10.008409250175193,12.0,47.0,"Fri, Mar 31, 2000","Mon, Mar 27, 2000"
3615,Nome,Nome,United States,OME,PAOM,64.512203,-165.445247,37,-9,A,"Nome, AK",82,82,86,86,3.01219512195122,7.097560975609756,13.0,21.0,"Fri, Mar 31, 2000","Sat, Mar 18, 2000"
3734,Ontario International,Ontario,United States,ONT,KONT,34.056,-117.601194,944,-8,A,"Ontario, CA",2945,2944,3009,3006,3.8641765704583935,9.570652173913063,40.0,101.0,"Tue, Mar  7, 2000","Mon, Mar 27, 2000"
3830,Chicago O'Hare International,Chicago,United States,ORD,KORD,41.978603,-87.904842,668,-6,A,"Chicago, IL",24454,24580,25355,25355,7.640181565388071,18.431489015459782,60.0,209.0,"Tue, Mar 21, 2000","Thu, Mar  2, 2000"
3611,Norfolk International,Norfolk,United States,ORF,KORF,36.894611,-76.201222,26,-5,A,"Norfolk, VA",1295,1300,1327,1326,3.8872586872586874,11.515384615384642,24.0,67.0,"Fri, Mar 24, 2000","Wed, Mar  1, 2000"
3693,Ralph Wien Memorial,Kotzebue,United States,OTZ,PAOT,66.884678,-162.59855,11,-9,A,"Kotzebue, AK",75,75,75,75,2.8533333333333335,7.093333333333335,5.0,40.0,"Mon, Mar  6, 2000","Thu, Mar  2, 2000"
3722,Palm Beach International,West Palm Beach,United States,PBI,KPBI,26.683161,-80.095589,19,-5,A,"West Palm Beach/Palm Beach, FL",2256,2253,2263,2262,4.657801418439717,13.402574345317353,41.0,124.0,"Sat, Mar 11, 2000","Sat, Mar 11, 2000"
3720,Portland International,Portland,United States,PDX,KPDX,45.588722,-122.5975,30,-8,A,"Portland, OR",4837,4840,4936,4936,3.9257804424230014,11.263016528925652,55.0,85.0,"Tue, Mar  7, 2000","Tue, Mar 21, 2000"
3752,Philadelphia International,Philadelphia,United States,PHL,KPHL,39.871944,-75.241139,36,-5,A,"Philadelphia, PA",9836,9841,10103,10100,6.424766165107769,18.8827354943603,79.0,150.0,"Fri, Mar 10, 2000","Sun, Mar 19, 2000"
3462,Phoenix Sky Harbor International,Phoenix,United States,PHX,KPHX,33.434278,-112.011583,1135,-7,N,"Phoenix, AZ",15755,15831,16255,16256,5.976134560456993,14.602046617396246,64.0,104.0,"Fri, Mar 24, 2000","Sun, Mar 19, 2000"
3570,Pittsburgh International,Pittsburgh (pennsylva),United States,PIT,KPIT,40.491467,-80.232872,1204,-5,A,"Pittsburgh, PA",8607,8641,8772,8769,6.315092366678283,14.277861358639024,28.0,120.0,"Mon, Mar 13, 2000","Wed, Mar  1, 2000"
3564,Pensacola Regional,Pensacola,United States,PNS,KPNS,30.473425,-87.186611,121,-6,A,"Pensacola, FL",487,490,495,496,4.739219712525667,12.144897959183673,30.0,68.0,"Thu, Mar 30, 2000","Sun, Mar 26, 2000"
6133,Tri Cities Airport,Pasco,United States,PSC,PSC,46.2647,-119.119,410,-8,A,"Pasco/Kennewick/Richland, WA",121,122,124,124,4.371900826446283,9.524590163934429,8.0,20.0,"Tue, Mar 28, 2000","Tue, Mar  7, 2000"
4147,Petersburg James A. Johnson,Petersburg,United States,PSG,PAPG,56.801667,-132.945278,105,-9,A,"Petersburg, AK",61,62,62,62,2.901639344262295,6.209677419354839,9.0,12.0,"Fri, Mar 31, 2000","Sat, Mar  4, 2000"
3839,Palm Springs International,Palm Springs,United States,PSP,KPSP,33.829667,-116.506694,477,-8,A,"Palm Springs, CA",646,650,663,663,4.168730650154802,11.447692307692305,12.0,50.0,"Thu, Mar  9, 2000","Tue, Mar 28, 2000"
3641,Theodore Francis Green State,Providence,United States,PVD,KPVD,41.732581,-71.420383,55,-5,A,"Providence, RI",2085,2084,2094,2094,4.095443645083921,11.372840690978904,47.0,140.0,"Thu, Mar 16, 2000","Sat, Mar 11, 2000"
3862,Portland International Jetport,Portland,United States,PWM,KPWM,43.646161,-70.309281,77,-5,A,"Portland, ME",466,466,488,488,3.766094420600856,11.103004291845494,9.0,65.0,"Fri, Mar 17, 2000","Tue, Mar 21, 2000"
4087,Rapid City Regional Airport,Rapid City,United States,RAP,KRAP,44.045278,-103.057222,3204,-7,A,"Rapid City, SD",86,86,89,89,3.802325581395349,9.034883720930232,6.0,39.0,"Fri, Mar 17, 2000","Tue, Mar 21, 2000"
3626,Raleigh Durham International,Raleigh-durham,United States,RDU,KRDU,35.877639,-78.787472,435,-5,A,"Raleigh/Durham, NC",3071,3065,3096,3097,4.025398892868769,11.636215334420873,36.0,123.0,"Sun, Mar 19, 2000","Thu, Mar  9, 2000"
3608,Richmond International,Richmond,United States,RIC,KRIC,37.505167,-77.319667,167,-5,A,"Richmond, VA",1461,1456,1494,1492,4.795345653661883,11.423763736263734,18.0,145.0,"Thu, Mar 16, 2000","Wed, Mar 15, 2000"
3807,Reno Tahoe International,Reno,United States,RNO,KRNO,39.499108,-119.768108,4415,-8,A,"Reno, NV",2867,2870,2898,2900,4.303104290198818,11.014634146341454,31.0,83.0,"Mon, Mar 20, 2000","Mon, Mar 20, 2000"
4016,Roanoke Regional,Roanoke VA,United States,ROA,KROA,37.325472,-79.975417,1175,-5,A,"Roanoke, VA",181,182,185,185,4.59668508287293,9.131868131868131,8.0,36.0,"Sat, Mar 11, 2000","Tue, Mar 28, 2000"
3622,Greater Rochester International,Rochester,United States,ROC,KROC,43.118866,-77.672389,559,-5,A,"Rochester, NY",1162,1158,1193,1186,5.472461273666091,13.53454231433506,19.0,168.0,"Wed, Mar 15, 2000","Wed, Mar 15, 2000"
4048,Rochester,Rochester,United States,RST,KRST,43.908283,-92.500014,1317,-6,A,"Rochester, MN",154,153,159,158,3.6233766233766236,10.30065359477124,7.0,37.0,"Sun, Mar 12, 2000","Thu, Mar  9, 2000"
3793,Southwest Florida International,Fort Myers,United States,RSW,KRSW,26.536167,-81.755167,30,-5,A,"Fort Myers, FL",1581,1583,1589,1586,4.048070841239715,13.795957043588121,36.0,130.0,"Sun, Mar 12, 2000","Thu, Mar 30, 2000"
3731,San Diego International,San Diego,United States,SAN,KSAN,32.733556,-117.189667,17,-8,A,"San Diego, CA",6008,6013,6135,6135,3.1694407456724356,12.754199234990836,36.0,94.0,"Fri, Mar 17, 2000","Fri, Mar 10, 2000"
3621,San Antonio International,San Antonio,United States,SAT,KSAT,29.533694,-98.469778,809,-6,A,"San Antonio, TX",3193,3188,3246,3240,3.2574381459442536,10.00062735257213,37.0,113.0,"Thu, Mar  2, 2000","Fri, Mar 10, 2000"
3613,Savannah Hilton Head International,Savannah,United States,SAV,KSAV,32.127583,-81.202139,51,-5,A,"Savannah, GA",432,432,434,434,5.282407407407406,11.879629629629626,30.0,59.0,"Tue, Mar 21, 2000","Sat, Mar  4, 2000"
3949,Santa Barbara Municipal,Santa Barbara,United States,SBA,KSBA,34.426211,-119.840372,10,-8,A,"Santa Barbara, CA",210,213,217,217,2.880952380952381,7.206572769953049,10.0,31.0,"Sat, Mar  4, 2000","Mon, Mar 27, 2000"
4359,South Bend Regional,South Bend,United States,SBN,KSBN,41.708661,-86.31725,799,-5,A,"South Bend, IN",237,236,241,240,4.2742616033755345,9.932203389830507,8.0,27.0,"Mon, Mar  6, 2000","Fri, Mar 17, 2000"
3620,Deadhorse,Deadhorse,United States,SCC,PASC,70.19475,-148.465167,64,-9,A,"Deadhorse, AK",30,30,31,31,3.1,6.033333333333333,4.0,22.0,"Wed, Mar  1, 2000","Fri, Mar  3, 2000"
4014,Louisville International Airport,Louisville,United States,SDF,KSDF,38.1740858,-85.7364989,501,-5,A,"Louisville, KY",1918,1910,1934,1929,4.7122002085505805,9.78586387434556,23.0,46.0,"Sun, Mar 19, 2000","Mon, Mar 20, 2000"
3577,Seattle Tacoma International,Seattle,United States,SEA,KSEA,47.449,-122.309306,433,-8,A,"Seattle, WA",8327,8348,8617,8612,4.89059685360873,13.838045040728314,39.0,73.0,"Mon, Mar 20, 2000","Tue, Mar 21, 2000"
3469,San Francisco International,San Francisco,United States,SFO,KSFO,37.618972,-122.374889,13,-8,A,"San Francisco, CA",10811,10869,11402,11407,5.749144389973149,17.0604471432514,53.0,122.0,"Sat, Mar 25, 2000","Fri, Mar  3, 2000"
4348,Springfield Branson National,Springfield,United States,SGF,KSGF,37.245667,-93.388639,1268,-6,A,"Springfield, MO",171,172,178,178,3.023391812865496,9.534883720930226,7.0,37.0,"Tue, Mar 14, 2000","Fri, Mar  3, 2000"
3609,Shreveport Regional,Shreveport,United States,SHV,KSHV,32.446629,-93.8256,258,-6,A,"Shreveport, LA",321,321,333,333,4.8193146417445485,9.51713395638629,15.0,48.0,"Fri, Mar 24, 2000","Wed, Mar 29, 2000"
3856,Sitka Rocky Gutierrez,Sitka,United States,SIT,PASI,57.047138,-135.361611,21,-9,A,"Sitka, AK",90,91,93,93,3.6222222222222222,8.27472527472527,6.0,21.0,"Mon, Mar 13, 2000","Sun, Mar  5, 2000"
3748,Norman Y. Mineta San Jose International,San Jose,United States,SJC,KSJC,37.3626,-121.929022,62,-8,A,"San Jose, CA",5239,5243,5366,5365,3.913342240885661,13.442494754911294,34.0,112.0,"Fri, Mar 31, 2000","Fri, Mar  3, 2000"
3536,Salt Lake City International,Salt Lake City,United States,SLC,KSLC,40.788389,-111.977772,4227,-7,A,"Salt Lake City, UT",6710,6694,6791,6779,5.536363636363641,16.348670451150245,44.0,81.0,"Wed, Mar  8, 2000","Thu, Mar  2, 2000"
3817,Sacramento International,Sacramento,United States,SMF,KSMF,38.695417,-121.590778,27,-8,A,"Sacramento, CA",3122,3124,3171,3172,3.6543882126841774,8.931818181818198,20.0,70.0,"Fri, Mar 24, 2000","Mon, Mar 20, 2000"
3867,John Wayne Airport Orange County,Santa Ana,United States,SNA,KSNA,33.675667,-117.868222,56,-8,A,"Santa Ana, CA",3664,3669,3817,3816,6.686408296943233,14.140910329790142,53.0,118.0,"Thu, Mar 16, 2000","Wed, Mar  8, 2000"
4067,Sarasota Bradenton International,Sarasota,United States,SRQ,KSRQ,27.395444,-82.554389,30,-5,A,"Sarasota/Bradenton, FL",553,550,554,553,4.533453887884269,12.150909090909085,27.0,84.0,"Fri, Mar 31, 2000","Thu, Mar  9, 2000"
3678,Lambert St. Louis International,St. Louis,United States,STL,KSTL,38.748697,-90.370028,618,-6,A,"St. Louis, MO",14286,14315,14519,14521,5.790984180316424,17.362207474676964,79.0,167.0,"Sat, Mar 11, 2000","Sat, Mar 11, 2000"
3753,Sioux Gateway-Colonel Bud Day Field,Sioux City,United States,SUX,KSUX,42.402603,-96.384367,1098,-6,A,"Sioux City, IA",58,58,58,58,3.2413793103448274,6.0,6.0,19.0,"Wed, Mar 29, 2000","Sat, Mar 18, 2000"
3661,Stewart International,Newburgh,United States,SWF,KSWF,41.504094,-74.104839,491,-5,A,"Newburgh/Poughkeepsie, NY",92,90,93,92,4.858695652173914,12.355555555555556,9.0,51.0,"Tue, Mar  7, 2000","Tue, Mar 21, 2000"
3745,Syracuse Hancock International,Syracuse,United States,SYR,KSYR,43.111187,-76.106311,421,-5,A,"Syracuse, NY",958,954,970,967,4.545929018789139,13.496855345911948,18.0,215.0,"Thu, Mar 30, 2000","Wed, Mar 15, 2000"
3698,Tallahassee Regional,Tallahassee,United States,TLH,KTLH,30.396528,-84.350333,81,-5,A,"Tallahassee, FL",183,182,186,186,4.289617486338797,11.829670329670327,16.0,51.0,"Mon, Mar 13, 2000","Sat, Mar  4, 2000"
4040,Toledo,Toledo,United States,TOL,KTOL,41.586806,-83.807833,684,-5,A,"Toledo, OH",86,85,91,90,3.6511627906976742,11.15294117647059,9.0,55.0,"Fri, Mar  3, 2000","Fri, Mar 10, 2000"
3646,Tampa International,Tampa,United States,TPA,KTPA,27.975472,-82.53325,26,-5,A,"Tampa, FL",5689,5683,5712,5712,4.447354543856571,12.666373394333986,32.0,95.0,"Sun, Mar 19, 2000","Sat, Mar 11, 2000"
4116,Tri-Cities Regional Airport,BRISTOL,United States,TRI,KTRI,36.4752222,-82.4074167,1519,-5,A,"Bristol/Johnson City/Kingsport, TN",92,93,96,96,4.5978260869565215,6.473118279569892,8.0,15.0,"Thu, Mar 16, 2000","Fri, Mar 17, 2000"
3855,Tulsa International,Tulsa,United States,TUL,KTUL,36.198389,-95.888111,677,-6,A,"Tulsa, OK",1674,1662,1697,1691,3.7891278375149344,10.707581227436814,36.0,133.0,"Sat, Mar 11, 2000","Sun, Mar 19, 2000"
3636,Tucson International,Tucson,United States,TUS,KTUS,32.116083,-110.941028,2643,-7,N,"Tucson, AZ",1782,1776,1829,1826,3.8905723905723915,11.264076576576551,17.0,107.0,"Mon, Mar  6, 2000","Sun, Mar 19, 2000"
4023,Cherry Capital Airport,Traverse City,United States,TVC,KTVC,44.741445,-85.582235,624,-5,A,"Traverse City, MI",62,62,62,62,2.693548387096774,12.85483870967742,6.0,31.0,"Sat, Mar 18, 2000","Fri, Mar  3, 2000"
3676,McGhee Tyson,Knoxville,United States,TYS,KTYS,35.810972,-83.994028,981,-5,A,"Knoxville, TN",605,600,618,613,4.2264462809917385,11.431666666666668,17.0,123.0,"Sat, Mar  4, 2000","Sun, Mar 19, 2000"
3873,Eglin AFB,Valparaiso,United States,VPS,KVPS,30.48325,-86.5254,87,-6,A,"Valparaiso, FL",91,91,93,93,7.1208791208791204,9.582417582417584,15.0,46.0,"Wed, Mar 29, 2000","Thu, Mar  9, 2000"
5969,Wrangell Airport,Wrangell,United States,WRG,PAWG,56.4843,-132.37,44,-9,A,"Wrangell, AK",60,61,62,62,2.6499999999999995,5.4262295081967205,4.0,10.0,"Sat, Mar 11, 2000","Thu, Mar 16, 2000"
6803,Yakutat,Yakutat,United States,YAK,PAYA,59.3012,-139.3937,33,-9,A,"Yakutat, AK",59,60,62,62,2.610169491525424,5.483333333333332,6.0,12.0,"Thu, Mar 16, 2000","Thu, Mar 16, 2000"
2883,Cyril E. King,St. Thomas,Virgin Islands,STT,TIST,18.337306,-64.973361,23,-4,U,"Charlotte Amalie, VI",281,281,281,281,4.131672597864772,13.345195729537368,13.0,62.0,"Fri, Mar 24, 2000","Sat, Mar 18, 2000"
2884,Henry E. Rohlsen,St. Croix Island,Virgin Islands,STX,TISX,17.701889,-64.798556,74,-4,U,"Christiansted, VI",62,61,62,62,4.080645161290323,10.26229508196721,8.0,30.0,"Tue, Mar  7, 2000","Sat, Mar 18, 2000"
2890,Luis Muñoz Marín International,San Juan,Puerto Rico,SJU,TJSJ,18.439417,-66.001833,9,-4,U,"San Juan, PR",2154,2154,2176,2174,5.8885793871866285,17.728412256267372,50.0,79.0,"Sat, Mar 25, 2000","Wed, Mar 22, 2000"
