airport_id,name,city,country,iata_faa,iaco,latitude,longitude,altitude,zone,dst,city_state,avg_able_landings,avg_able_takeoffs,total_landings,total_takeoffs,avg_taxi_in,avg_taxi_out,longest_taxi_in,longest_taxi_out,lng_tx_in_date,lng_tx_out_date
4355,Lehigh Valley International,Allentown,United States,ABE,KABE,40.652083,-75.440806,393,-5,A,"Allentown/Bethlehem/Easton, PA",475,475,499,498,4.132631578947373,12.330526315789477,16.0,64.0,"Fri, Feb 18, 2000","Sat, Feb 19, 2000"
4019,Albuquerque International Sunport,Albuquerque,United States,ABQ,KABQ,35.0402222,-106.6091944,5355,-7,A,"Albuquerque, NM",2810,2809,2845,2845,4.128825622775808,9.884656461374162,16.0,80.0,"Sat, Feb 26, 2000","Fri, Feb 25, 2000"
3531,Kodiak,Kodiak,United States,ADQ,PADQ,57.749967,-152.493856,78,-9,A,"Kodiak, AK",46,46,58,58,2.739130434782609,6.6521739130434785,8.0,15.0,"Thu, Feb 10, 2000","Wed, Feb  2, 2000"
3658,Augusta Regional At Bush Field,Bush Field,United States,AGS,KAGS,33.369944,-81.9645,144,-5,A,"Augusta, GA",84,84,87,87,4.226190476190476,13.380952380952381,7.0,70.0,"Fri, Feb 11, 2000","Sun, Feb 13, 2000"
3794,King Salmon,King Salmon,United States,AKN,PAKN,58.676778,-156.649278,68,-9,A,"King Salmon, AK",15,15,17,17,3.4,5.533333333333333,7.0,19.0,"Tue, Feb 15, 2000","Sat, Feb  5, 2000"
3864,Albany International,Albany,United States,ALB,KALB,42.748267,-73.801692,285,-5,A,"Albany, NY",882,876,913,910,4.197278911564624,12.349315068493148,37.0,68.0,"Sat, Feb 19, 2000","Mon, Feb 14, 2000"
3840,Rick Husband Amarillo International,Amarillo,United States,AMA,KAMA,35.219369,-101.705931,3607,-6,A,"Amarillo, TX",368,370,381,381,3.442934782608696,7.308108108108108,10.0,28.0,"Sun, Feb  6, 2000","Tue, Feb  8, 2000"
3774,Ted Stevens Anchorage International,Anchorage,United States,ANC,PANC,61.174361,-149.996361,152,-9,A,"Anchorage, AK",1230,1240,1398,1394,4.378048780487807,12.700000000000015,18.0,95.0,"Tue, Feb 29, 2000","Wed, Feb  2, 2000"
3682,Hartsfield Jackson Atlanta International,Atlanta,United States,ATL,KATL,33.636719,-84.428067,1026,-5,A,"Atlanta, GA",20860,20998,21592,21603,8.529386385426605,18.940851509667596,75.0,155.0,"Sun, Feb 13, 2000","Sun, Feb 13, 2000"
3673,Austin Bergstrom International,Austin,United States,AUS,KAUS,30.194528,-97.669889,542,-6,A,"Austin, TX",3190,3205,3248,3256,4.562382445141069,10.610296411856469,33.0,152.0,"Sun, Feb 13, 2000","Tue, Feb 22, 2000"
4007,Asheville Regional Airport,Asheville,United States,AVL,KAVL,35.436194,-82.541806,2165,-5,A,"Asheville, NC",108,108,116,116,3.2222222222222223,9.527777777777779,5.0,36.0,"Tue, Feb 22, 2000","Fri, Feb 18, 2000"
4286,Wilkes Barre Scranton International,Scranton,United States,AVP,KAVP,41.338478,-75.723403,962,-5,A,"Scranton/Wilkes-Barre, PA",138,135,145,145,3.6811594202898554,8.851851851851853,7.0,22.0,"Sat, Feb  5, 2000","Sat, Feb 12, 2000"
4039,Kalamazoo,Kalamazoo,United States,AZO,KAZO,42.234875,-85.552058,874,-5,A,"Kalamazoo, MI",111,111,116,116,4.3873873873873865,9.9009009009009,13.0,49.0,"Sat, Feb 19, 2000","Sat, Feb 26, 2000"
3825,Bradley International,Windsor Locks,United States,BDL,KBDL,41.938889,-72.683222,173,-5,A,"Hartford, CT",2642,2669,2715,2743,4.819076457229373,14.765455226676657,57.0,180.0,"Fri, Feb 18, 2000","Fri, Feb 18, 2000"
3599,Bethel,Bethel,United States,BET,PABE,60.779778,-161.838,121,-9,A,"Bethel, AK",72,72,83,83,3.4166666666666665,7.083333333333333,7.0,15.0,"Wed, Feb  2, 2000","Tue, Feb  8, 2000"
4129,Greater Binghamton-Edwin A. Link Field,Binghamton,United States,BGM,KBGM,42.208689,-75.979839,1636,-5,A,"Binghamton, NY",78,78,87,87,4.525641025641025,12.371794871794872,12.0,87.0,"Fri, Feb 11, 2000","Sat, Feb 19, 2000"
3811,Birmingham International,Birmingham,United States,BHM,KBHM,33.562942,-86.75355,644,-6,A,"Birmingham, AL",1603,1600,1629,1626,3.395508421709294,9.581249999999988,59.0,45.0,"Sun, Feb 13, 2000","Sat, Feb 12, 2000"
4021,Billings Logan International Airport,Billings,United States,BIL,KBIL,45.80921,-108.537654,3652,-7,A,"Billings, MT",220,222,231,232,3.6863636363636365,12.108108108108105,13.0,50.0,"Fri, Feb 11, 2000","Fri, Feb 25, 2000"
4083,Bismarck Municipal Airport,Bismarck,United States,BIS,KBIS,46.775842,-100.757931,1661,-6,A,"Bismarck/Mandan, ND",109,108,112,112,3.7155963302752295,9.064814814814818,6.0,77.0,"Fri, Feb 25, 2000","Thu, Feb 24, 2000"
3690,Nashville International,Nashville,United States,BNA,KBNA,36.124472,-86.678194,599,-6,A,"Nashville, TN",4366,4368,4442,4441,4.946174988547868,10.832646520146534,42.0,87.0,"Sat, Feb 12, 2000","Fri, Feb 25, 2000"
3495,Boise Air Terminal,Boise,United States,BOI,KBOI,43.564361,-116.222861,2871,-7,A,"Boise, ID",871,873,882,883,3.0068886337543055,8.509736540664392,13.0,37.0,"Fri, Feb  4, 2000","Fri, Feb  4, 2000"
3448,General Edward Lawrence Logan International,Boston,United States,BOS,KBOS,42.364347,-71.005181,19,-5,A,"Boston, MA",7942,7925,8491,8461,7.756610425585493,19.619936908517314,66.0,157.0,"Thu, Feb 17, 2000","Tue, Feb 22, 2000"
3738,Brownsville South Padre Island International,Brownsville,United States,BRO,KBRO,25.906833,-97.425861,22,-6,A,"Brownsville, TX",3,3,3,3,4.666666666666667,8.666666666666666,6.0,11.0,"Sat, Feb 12, 2000","Sat, Feb 12, 2000"
3571,Wiley Post Will Rogers Memorial,Barrow,United States,BRW,PABR,71.285446,-156.766003,44,-9,A,"Barrow, AK",62,66,70,70,2.935483870967742,6.575757575757576,5.0,20.0,"Fri, Feb  4, 2000","Sun, Feb 27, 2000"
3846,Baton Rouge Metro-Ryan Field,Baton Rouge,United States,BTR,KBTR,30.533167,-91.149639,70,-6,A,"Baton Rouge, LA",369,365,373,372,4.4607046070460745,10.446575342465744,10.0,43.0,"Tue, Feb  8, 2000","Thu, Feb 24, 2000"
3711,Burlington International,Burlington,United States,BTV,KBTV,44.471861,-73.153278,335,-5,A,"Burlington, VT",195,195,203,203,4.01025641025641,13.374358974358971,14.0,57.0,"Tue, Feb  1, 2000","Fri, Feb 25, 2000"
3820,Buffalo Niagara International,Buffalo,United States,BUF,KBUF,42.940525,-78.732167,724,-5,A,"Buffalo, NY",1325,1319,1371,1370,3.961509433962261,12.753601213040184,23.0,77.0,"Thu, Feb 17, 2000","Fri, Feb 11, 2000"
3644,Bob Hope,Burbank,United States,BUR,KBUR,34.200667,-118.358667,778,-8,A,"Burbank, CA",2036,2048,2147,2148,2.16306483300589,9.644042968749986,17.0,54.0,"Tue, Feb 29, 2000","Fri, Feb 25, 2000"
3849,Baltimore Washington International,Baltimore,United States,BWI,KBWI,39.175361,-76.668333,146,-5,A,"Baltimore, MD",6621,6632,6747,6747,4.707748074309014,11.777291917973463,54.0,120.0,"Wed, Feb  2, 2000","Fri, Feb 18, 2000"
4020,Gallatin Field,Bozeman,United States,BZN,KBZN,45.777643,-111.160151,4500,-7,A,"Bozeman, MT",156,154,156,155,4.673076923076926,12.168831168831165,24.0,52.0,"Mon, Feb 21, 2000","Sun, Feb 13, 2000"
3561,Columbia Metropolitan,Colombia,United States,CAE,KCAE,33.938833,-81.119528,236,-5,A,"Columbia, SC",383,383,398,398,4.535248041775457,12.362924281984336,9.0,40.0,"Fri, Feb 18, 2000","Wed, Feb  9, 2000"
4112,Akron Canton Regional Airport,Akron,United States,CAK,KCAK,40.9160833,-81.4421944,1228,-5,A,"Akron, OH",80,78,83,83,4.5125,10.410256410256405,10.0,32.0,"Sun, Feb  6, 2000","Fri, Feb 18, 2000"
3610,Merle K. Mudhole Smith,Cordova,United States,CDV,PACV,60.491778,-145.477556,48,-9,A,"Cordova, AK",57,57,58,58,3.210526315789474,6.140350877192983,6.0,17.0,"Tue, Feb 22, 2000","Tue, Feb  8, 2000"
3578,Lovell Field,Chattanooga,United States,CHA,KCHA,35.035278,-85.203808,683,-5,A,"Chattanooga, TN",79,79,83,83,3.5822784810126582,7.7215189873417724,9.0,18.0,"Mon, Feb 21, 2000","Thu, Feb 10, 2000"
3806,Charleston AFB International,Charleston,United States,CHS,KCHS,32.898647,-80.040528,45,-5,A,"Charleston, SC",504,506,525,526,5.251984126984127,11.217391304347826,12.0,29.0,"Thu, Feb 17, 2000","Tue, Feb  1, 2000"
4043,Cedar Rapids,Cedar Rapids,United States,CID,KCID,41.884694,-91.710806,869,-6,A,"Cedar Rapids/Iowa City, IA",426,425,454,454,4.068075117370893,10.27764705882353,15.0,57.0,"Fri, Feb 18, 2000","Fri, Feb 18, 2000"
3486,Cleveland Hopkins International,Cleveland,United States,CLE,KCLE,41.411689,-81.849794,791,-5,A,"Cleveland, OH",4500,4504,4604,4605,4.9862222222222305,17.95426287744228,38.0,166.0,"Fri, Feb  4, 2000","Thu, Feb  3, 2000"
3876,Charlotte Douglas International,Charlotte,United States,CLT,KCLT,35.214,-80.943139,748,-5,A,"Charlotte, NC",9396,9441,9714,9713,5.403043848446148,15.09755322529393,66.0,130.0,"Sat, Feb 19, 2000","Tue, Feb 22, 2000"
3759,Port Columbus International,Columbus,United States,CMH,KCMH,39.997972,-82.891889,815,-5,A,"Columbus, OH",2675,2644,2750,2718,4.413084112149534,11.491301059001522,29.0,118.0,"Fri, Feb  4, 2000","Thu, Feb  3, 2000"
3819,City Of Colorado Springs Municipal,Colorado Springs,United States,COS,KCOS,38.805805,-104.700778,6187,-7,A,"Colorado Springs, CO",938,939,968,969,6.262260127931768,15.05111821086262,20.0,127.0,"Fri, Feb 11, 2000","Tue, Feb 22, 2000"
3744,Corpus Christi International,Corpus Christi,United States,CRP,KCRP,27.770361,-97.501222,44,-6,A,"Corpus Christi, TX",241,242,244,244,3.2655601659751037,7.12396694214876,24.0,34.0,"Thu, Feb 10, 2000","Mon, Feb 14, 2000"
4285,Yeager,Charleston,United States,CRW,KCRW,38.373147,-81.593189,981,-5,A,"Charleston/Dunbar, WV",107,107,111,111,2.626168224299065,7.308411214953273,6.0,47.0,"Sat, Feb 12, 2000","Thu, Feb  3, 2000"
3488,Cincinnati Northern Kentucky International,Cincinnati,United States,CVG,KCVG,39.048836,-84.667822,896,-5,A,"Cincinnati, OH",5881,5904,6112,6114,6.318143172929785,17.95121951219509,37.0,92.0,"Tue, Feb 22, 2000","Fri, Feb 18, 2000"
3950,Daytona Beach International,Daytona Beach,United States,DAB,KDAB,29.179917,-81.058056,34,-5,A,"Daytona Beach, FL",173,174,174,174,3.947976878612717,12.39655172413793,14.0,30.0,"Sat, Feb  5, 2000","Sat, Feb 19, 2000"
3502,Dallas Love Field,Dallas,United States,DAL,KDAL,32.847111,-96.851778,487,-6,A,"Dallas, TX",3617,3639,3731,3731,2.7088747580868033,7.899422918384172,35.0,116.0,"Mon, Feb  7, 2000","Fri, Feb 25, 2000"
3627,James M. Cox Dayton International,Dayton,United States,DAY,KDAY,39.902375,-84.219375,1009,-5,A,"Dayton, OH",889,887,920,921,4.985376827896511,14.476888387824125,14.0,72.0,"Mon, Feb 21, 2000","Fri, Feb 25, 2000"
3520,Ronald Reagan Washington National,Washington,United States,DCA,KDCA,38.852083,-77.037722,15,-5,A,"Washington, DC",6152,6171,6506,6519,4.606306892067634,15.78836493274995,57.0,147.0,"Fri, Feb 18, 2000","Fri, Feb 18, 2000"
3751,Denver International,Denver,United States,DEN,KDEN,39.861656,-104.673178,5431,-7,A,"Denver, CO",10370,10398,10596,10604,7.410800385728059,15.154645124062316,53.0,139.0,"Sat, Feb 26, 2000","Sun, Feb 20, 2000"
3670,Dallas Fort Worth International,Dallas-fort Worth,United States,DFW,KDFW,32.896828,-97.037997,607,-6,A,"Dallas/Fort Worth, TX",18795,18927,19581,19563,10.340409683426458,18.653246684630346,88.0,220.0,"Fri, Feb 25, 2000","Tue, Feb 22, 2000"
3460,Dillingham,Dillingham,United States,DLG,PADL,59.044667,-158.5055,74,-9,A,"Dillingham, AK",15,15,17,17,3.066666666666667,6.866666666666666,4.0,18.0,"Sat, Feb 12, 2000","Thu, Feb  3, 2000"
3598,Duluth International,Duluth,United States,DLH,KDLH,46.842091,-92.193649,1428,-6,A,"Duluth, MN",71,70,79,79,3.8450704225352115,8.771428571428569,9.0,41.0,"Tue, Feb 15, 2000","Thu, Feb 10, 2000"
3713,Durango La Plata County,Durango,United States,DRO,KDRO,37.151516,-107.75377,6685,-7,A,"Durango, CO",33,33,33,33,4.151515151515151,11.090909090909093,7.0,37.0,"Sat, Feb  5, 2000","Sat, Feb 12, 2000"
3729,Des Moines International,Des Moines,United States,DSM,KDSM,41.533972,-93.663083,958,-6,A,"Des Moines, IA",520,519,535,535,4.6173076923076914,10.722543352601162,45.0,76.0,"Wed, Feb 16, 2000","Fri, Feb 25, 2000"
3645,Detroit Metro Wayne County,Detroit,United States,DTW,KDTW,42.212444,-83.353389,645,-5,A,"Detroit, MI",11725,11762,12214,12210,9.659019189765528,20.90375786430877,81.0,136.0,"Fri, Feb 18, 2000","Fri, Feb 25, 2000"
3860,Unalaska,Unalaska,United States,DUT,PADU,53.900139,-166.5435,22,-9,A,"Unalaska, AK",35,34,58,58,2.2000000000000006,7.205882352941177,3.0,25.0,"Tue, Feb  1, 2000","Sun, Feb 20, 2000"
4250,Eagle County Regional,Vail,United States,EGE,KEGE,39.642556,-106.917694,6540,-7,A,"Eagle, CO",311,316,326,327,4.877813504823149,21.164556962025305,21.0,101.0,"Sun, Feb  6, 2000","Tue, Feb 22, 2000"
3946,Elmira Corning Regional,Elmira,United States,ELM,KELM,42.159889,-76.891611,954,-5,A,"Elmira/Corning, NY",104,104,108,108,4.211538461538462,9.855769230769235,7.0,115.0,"Thu, Feb 17, 2000","Sat, Feb 19, 2000"
3559,El Paso International,El Paso,United States,ELP,KELP,31.80725,-106.377583,3958,-7,A,"El Paso, TX",1893,1891,1929,1930,3.1526677231907025,9.350608143839214,21.0,57.0,"Sat, Feb 19, 2000","Thu, Feb 24, 2000"
4276,Erie International-Tom Ridge Field,Erie,United States,ERI,KERI,42.082022,-80.176217,733,-5,A,"Erie, PA",105,105,112,112,3.8285714285714287,8.28571428571429,8.0,25.0,"Fri, Feb  4, 2000","Mon, Feb 14, 2000"
4099,Mahlon Sweet Field,Eugene,United States,EUG,KEUG,44.124583,-123.211972,374,-8,A,"Eugene, OR",159,158,174,174,2.6981132075471703,10.050632911392409,7.0,48.0,"Wed, Feb  9, 2000","Thu, Feb 24, 2000"
3494,Newark Liberty International,Newark,United States,EWR,KEWR,40.6925,-74.168667,18,-5,A,"Newark, NJ",9307,9377,9711,9755,8.612442247770566,26.138103871174167,71.0,301.0,"Fri, Feb 18, 2000","Thu, Feb  3, 2000"
3832,Fairbanks International,Fairbanks,United States,FAI,PAFA,64.815114,-147.856267,434,-9,A,"Fairbanks, AK",353,353,380,380,3.0793201133144463,9.753541076487256,10.0,32.0,"Mon, Feb 21, 2000","Sun, Feb 27, 2000"
4292,Hector International Airport,Fargo,United States,FAR,KFAR,46.92065,-96.8157639,902,-6,A,"Fargo, ND",214,214,220,220,4.668224299065421,10.588785046728976,11.0,34.0,"Tue, Feb 15, 2000","Wed, Feb 23, 2000"
3687,Fresno Yosemite International,Fresno,United States,FAT,KFAT,36.776194,-119.71814,336,-8,A,"Fresno, CA",29,29,29,29,4.620689655172414,9.241379310344827,7.0,29.0,"Sun, Feb 20, 2000","Wed, Feb 16, 2000"
5738,Fayetteville Regional-Grannis Field,Fayetteville,United States,FAY,KFAY,34.9912,-78.8803,189,-5,A,"Fayetteville, NC",111,111,116,116,3.900900900900901,8.81081081081081,7.0,24.0,"Thu, Feb 24, 2000","Tue, Feb  1, 2000"
4127,Glacier Park International,Kalispell,United States,FCA,KFCA,48.310472,-114.256,2977,-7,A,"Kalispell, MT",113,112,116,116,4.407079646017697,11.455357142857139,13.0,31.0,"Tue, Feb 22, 2000","Tue, Feb 15, 2000"
3533,Fort Lauderdale Hollywood International,Fort Lauderdale,United States,FLL,KFLL,26.072583,-80.15275,9,-5,A,"Fort Lauderdale, FL",3684,3683,3706,3705,4.3542345276872965,14.639695900081456,44.0,114.0,"Fri, Feb 18, 2000","Fri, Feb 25, 2000"
4089,Bishop International,Flint,United States,FNT,KFNT,42.965424,-83.743629,782,-5,A,"Flint, MI",109,109,112,112,5.256880733944956,13.899082568807339,30.0,72.0,"Fri, Feb 11, 2000","Sun, Feb 13, 2000"
4009,Sioux Falls,Sioux Falls,United States,FSD,KFSD,43.582014,-96.741914,1429,-6,A,"Sioux Falls, SD",297,295,300,300,4.737373737373737,12.355932203389829,9.0,58.0,"Sun, Feb  6, 2000","Thu, Feb  3, 2000"
4041,Fort Wayne,Fort Wayne,United States,FWA,KFWA,40.978472,-85.195139,815,-5,A,"Fort Wayne, IN",18,18,21,21,3.9444444444444446,9.722222222222221,7.0,14.0,"Fri, Feb 25, 2000","Thu, Feb 17, 2000"
3467,Spokane International,Spokane,United States,GEG,KGEG,47.619861,-117.533833,2376,-8,A,"Spokane, WA",935,939,968,969,3.4941176470588236,10.058572949946752,12.0,40.0,"Sat, Feb 12, 2000","Mon, Feb 14, 2000"
3442,Grand Forks International,Grand Forks,United States,GFK,KGFK,47.949256,-97.176111,845,-6,A,"Grand Forks, ND",102,104,108,108,3.8823529411764697,8.19230769230769,6.0,35.0,"Wed, Feb  2, 2000","Fri, Feb 11, 2000"
4038,Gulfport-Biloxi,Gulfport,United States,GPT,KGPT,30.407278,-89.070111,28,-6,A,"Gulfport/Biloxi, MS",86,86,87,87,4.825581395348837,7.348837209302325,11.0,19.0,"Sun, Feb 27, 2000","Mon, Feb  7, 2000"
3653,Austin Straubel International,Green Bay,United States,GRB,KGRB,44.485072,-88.129589,695,-6,A,"Green Bay, WI",210,207,223,223,4.071428571428573,13.183574879227054,14.0,40.0,"Sun, Feb 27, 2000","Thu, Feb  3, 2000"
3685,Gerald R. Ford International,Grand Rapids,United States,GRR,KGRR,42.880833,-85.522806,794,-5,A,"Grand Rapids, MI",684,683,706,706,4.1359649122806985,11.40117130307468,19.0,51.0,"Mon, Feb 21, 2000","Tue, Feb  1, 2000"
4008,Piedmont Triad,Greensboro,United States,GSO,KGSO,36.09775,-79.937306,925,-5,A,"Greensboro/High Point, NC",1142,1145,1187,1185,4.061295971978982,12.641048034934494,12.0,60.0,"Sun, Feb 20, 2000","Sun, Feb 13, 2000"
4034,Greenville-Spartanburg International,Greenville,United States,GSP,KGSP,34.895556,-82.218889,964,-5,A,"Greer, SC",537,534,556,556,3.4487895716945998,12.361423220973782,7.0,123.0,"Sun, Feb  6, 2000","Sun, Feb 13, 2000"
3880,Great Falls International,Great Falls,United States,GTF,KGTF,47.482,-111.370689,3677,-7,A,"Great Falls, MT",197,198,203,203,4.025380710659898,9.898989898989907,9.0,85.0,"Tue, Feb 15, 2000","Fri, Feb 11, 2000"
7051,Gunnison - Crested Butte,Gunnison,United States,GUC,KGUC,38.533889,-106.933056,7678,-7,A,"Gunnison, CO",62,62,62,62,3.8870967741935494,15.967741935483879,8.0,46.0,"Thu, Feb 10, 2000","Sun, Feb 20, 2000"
4339,Yampa Valley,Hayden,United States,HDN,KHDN,40.481181,-107.21766,6602,-7,A,"Hayden, CO",187,188,189,190,3.6363636363636362,14.329787234042549,10.0,40.0,"Sat, Feb 12, 2000","Sun, Feb 13, 2000"
3504,Helena Regional,Helena,United States,HLN,KHLN,46.606806,-111.98275,3877,-7,A,"Helena, MT",57,56,58,58,2.736842105263158,9.982142857142858,4.0,38.0,"Tue, Feb  1, 2000","Fri, Feb 25, 2000"
3728,Honolulu International,Honolulu,United States,HNL,PHNL,21.318681,-157.922428,13,-10,N,"Honolulu, HI",967,972,981,980,5.334022750775593,19.047325102880695,33.0,51.0,"Mon, Feb  7, 2000","Tue, Feb 15, 2000"
3566,William P. Hobby,Houston,United States,HOU,KHOU,29.645419,-95.278889,46,-6,A,"Houston, TX",4399,4419,4509,4508,3.9679472607410684,7.825526137135087,28.0,84.0,"Fri, Feb 25, 2000","Wed, Feb  9, 2000"
3589,Westchester County,White Plains,United States,HPN,KHPN,41.066959,-73.707575,439,-5,A,"White Plains, NY",318,320,371,372,5.544025157232706,13.94375,33.0,97.0,"Sat, Feb 19, 2000","Thu, Feb 24, 2000"
3560,Valley International,Harlingen,United States,HRL,KHRL,26.2285,-97.654389,36,-6,A,"Harlingen/San Benito, TX",328,329,332,332,2.1585365853658525,5.513677811550152,7.0,16.0,"Thu, Feb  3, 2000","Mon, Feb 14, 2000"
4113,Huntsville International Airport-Carl T. Jones Field,Huntsville,United States,HSV,KHSV,34.6371944,-86.7750556,629,-6,A,"Huntsville, AL",469,471,486,487,4.850746268656715,10.938428874734607,21.0,37.0,"Sun, Feb 13, 2000","Wed, Feb 23, 2000"
3714,Washington Dulles International,Washington,United States,IAD,KIAD,38.944533,-77.455811,313,-5,A,"Washington, DC",5906,5920,6145,6144,6.179309177108033,17.703209459459508,36.0,162.0,"Fri, Feb 18, 2000","Thu, Feb  3, 2000"
3550,George Bush Intercontinental Houston,Houston,United States,IAH,KIAH,29.984433,-95.341442,97,-6,A,"Houston, TX",10187,10197,10346,10348,6.704819868459776,17.69598901637738,50.0,125.0,"Sat, Feb 26, 2000","Fri, Feb 18, 2000"
3457,Wichita Mid Continent,Wichita,United States,ICT,KICT,37.649944,-97.433056,1333,-6,A,"Wichita, KS",463,463,481,481,4.1144708423326195,11.753779697624193,14.0,95.0,"Tue, Feb 15, 2000","Thu, Feb 24, 2000"
3845,Wilmington International,Wilmington,United States,ILM,KILM,34.270615,-77.902569,32,-5,A,"Wilmington, NC",166,168,174,174,3.7710843373493974,9.380952380952383,7.0,29.0,"Tue, Feb 22, 2000","Wed, Feb 16, 2000"
3585,Indianapolis International,Indianapolis,United States,IND,KIND,39.717331,-86.294383,797,-5,A,"Indianapolis, IN",2690,2682,2747,2748,7.538289962825279,13.314317673378076,47.0,128.0,"Mon, Feb 28, 2000","Thu, Feb  3, 2000"
3857,Long Island MacArthur,Islip,United States,ISP,KISP,40.79525,-73.100222,99,-5,A,"Islip, NY",432,435,442,442,3.726851851851851,7.901149425287355,34.0,63.0,"Sun, Feb 27, 2000","Sun, Feb 27, 2000"
3947,Ithaca Tompkins Regional,Ithaca,United States,ITH,KITH,42.491028,-76.458444,1099,-5,A,"Ithaca/Cortland, NY",105,104,108,108,4.1428571428571415,13.009615384615385,8.0,81.0,"Tue, Feb  8, 2000","Thu, Feb 17, 2000"
4027,Jackson Hole Airport,Jacksn Hole,United States,JAC,KJAC,43.60733333,-110.73775,6451,-7,A,"Jackson, WY",120,120,124,124,3.4166666666666665,15.324999999999998,7.0,50.0,"Mon, Feb 14, 2000","Wed, Feb 16, 2000"
3580,Jackson Evers International,Jackson,United States,JAN,KJAN,32.311167,-90.075889,346,-6,A,"Jackson/Vicksburg, MS",699,707,703,711,4.266094420600858,8.77793493635077,27.0,32.0,"Fri, Feb 11, 2000","Fri, Feb 11, 2000"
3712,Jacksonville International,Jacksonville,United States,JAX,KJAX,30.494056,-81.687861,30,-5,A,"Jacksonville, FL",1892,1894,1911,1911,4.783826638477799,10.807286166842653,29.0,51.0,"Tue, Feb 22, 2000","Sun, Feb  6, 2000"
3797,John F. Kennedy International,New York,United States,JFK,KJFK,40.639751,-73.778925,13,-5,A,"New York, NY",3279,3312,3406,3422,8.610856968588028,27.149758454106298,71.0,243.0,"Sat, Feb 19, 2000","Thu, Feb  3, 2000"
3492,Juneau International,Juneau,United States,JNU,PAJN,58.354972,-134.576278,21,-9,A,"Juneau, AK",274,276,290,290,3.343065693430657,10.528985507246377,8.0,32.0,"Tue, Feb 29, 2000","Tue, Feb 15, 2000"
3514,Kona International At Keahole,Kona,United States,KOA,PHKO,19.738767,-156.045631,47,-10,N,"Kona, HI",58,58,58,58,4.431034482758623,11.948275862068966,7.0,52.0,"Fri, Feb  4, 2000","Wed, Feb 16, 2000"
3808,Ketchikan International,Ketchikan,United States,KTN,PAKT,55.355556,-131.71375,88,-9,A,"Ketchikan, AK",167,167,174,174,3.7904191616766467,8.898203592814383,19.0,28.0,"Tue, Feb 29, 2000","Sat, Feb 19, 2000"
3544,Capital City,Lansing,United States,LAN,KLAN,42.7787,-84.587357,861,-5,A,"Lansing, MI",167,167,174,174,4.221556886227541,9.329341317365277,8.0,29.0,"Mon, Feb 28, 2000","Tue, Feb  1, 2000"
3877,McCarran International,Las Vegas,United States,LAS,KLAS,36.080056,-115.15225,2141,-8,A,"Las Vegas, NV",10687,10684,10922,10920,5.6533171142509575,14.972107824784763,65.0,90.0,"Wed, Feb 16, 2000","Wed, Feb 23, 2000"
3484,Los Angeles International,Los Angeles,United States,LAX,KLAX,33.942536,-118.408075,126,-8,A,"Los Angeles, CA",15480,15505,16299,16298,8.524547803617537,16.87745888423073,75.0,226.0,"Sat, Feb  5, 2000","Sun, Feb 27, 2000"
3829,Lubbock Preston Smith International,Lubbock,United States,LBB,KLBB,33.663639,-101.822778,3282,-6,A,"Lubbock, TX",460,462,469,469,2.4,6.809523809523809,5.0,15.0,"Sun, Feb  6, 2000","Wed, Feb 23, 2000"
4017,Blue Grass,Lexington KY,United States,LEX,KLEX,38.0365,-84.605889,979,-5,A,"Lexington, KY",273,267,285,279,4.805860805860806,9.531835205992513,15.0,37.0,"Sun, Feb  6, 2000","Sat, Feb 19, 2000"
3697,LaGuardia Airport,New York,United States,LGA,KLGA,40.777245,-73.872608,22,-5,A,"New York, NY",7612,7635,8041,8046,7.46899632159748,25.330189914865727,96.0,192.0,"Sat, Feb 19, 2000","Fri, Feb 18, 2000"
3582,Long Beach,Long Beach,United States,LGB,KLGB,33.817722,-118.151611,60,-8,A,"Long Beach, CA",282,285,304,304,4.6950354609929095,12.210526315789473,10.0,67.0,"Thu, Feb  3, 2000","Sun, Feb 20, 2000"
3602,Lihue,Lihue,United States,LIH,PHLI,21.975983,-159.338958,153,-10,N,"Lihue, HI",37,37,37,37,4.891891891891892,8.135135135135132,8.0,25.0,"Sun, Feb 13, 2000","Thu, Feb 10, 2000"
3660,Adams Field,Little Rock,United States,LIT,KLIT,34.729444,-92.224306,262,-6,A,"Little Rock, AR",1040,1042,1070,1070,4.046153846153839,9.36468330134356,19.0,70.0,"Thu, Feb  3, 2000","Thu, Feb 17, 2000"
3543,Lincoln,Lincoln,United States,LNK,KLNK,40.850971,-96.75925,1219,-6,A,"Lincoln, NE",224,223,228,228,3.6607142857142856,9.834080717488787,14.0,69.0,"Fri, Feb  4, 2000","Fri, Feb 18, 2000"
4044,LaCrosse Municipal,LaCrosse,United States,LSE,KLSE,43.878986,-91.256711,654,-6,A,"La Crosse, WI",51,52,54,54,3.784313725490196,10.73076923076923,8.0,62.0,"Fri, Feb 18, 2000","Sun, Feb 13, 2000"
3652,Midland International,Midland,United States,MAF,KMAF,31.942528,-102.201914,2871,-6,A,"Midland/Odessa, TX",432,433,436,436,2.4884259259259234,6.431870669745961,8.0,14.0,"Sun, Feb  6, 2000","Wed, Feb  9, 2000"
4128,MBS International,Saginaw,United States,MBS,KMBS,43.532913,-84.079647,668,-5,A,"Saginaw/Bay City/Midland, MI",287,287,303,303,4.087108013937281,11.728222996515672,13.0,69.0,"Thu, Feb 24, 2000","Sun, Feb 13, 2000"
3458,Kansas City International,Kansas City,United States,MCI,KMCI,39.297606,-94.713905,1026,-6,A,"Kansas City, MO",4664,4678,4750,4750,4.085120068610621,11.166524155622072,39.0,150.0,"Fri, Feb 18, 2000","Tue, Feb 22, 2000"
3878,Orlando International,Orlando,United States,MCO,KMCO,28.429394,-81.308994,96,-5,A,"Orlando, FL",7025,7013,7090,7074,4.8835587188612,13.71039498075004,33.0,133.0,"Thu, Feb 24, 2000","Fri, Feb 25, 2000"
3542,Harrisburg International,Harrisburg,United States,MDT,KMDT,40.193494,-76.763403,310,-5,A,"Harrisburg, PA",589,585,609,609,4.4363327674023845,12.112820512820516,18.0,98.0,"Tue, Feb  1, 2000","Fri, Feb 18, 2000"
3747,Chicago Midway International,Chicago,United States,MDW,KMDW,41.785972,-87.752417,620,-6,A,"Chicago, IL",4182,4200,4375,4376,4.699665231946439,10.853095238095243,46.0,74.0,"Sun, Feb  6, 2000","Fri, Feb 11, 2000"
3473,Memphis International,Memphis,United States,MEM,KMEM,35.042417,-89.976667,341,-6,A,"Memphis, TN",3943,3940,4009,4006,5.403246259193507,14.092385786802026,57.0,157.0,"Fri, Feb 18, 2000","Fri, Feb 11, 2000"
3826,McAllen Miller International,Mcallen,United States,MFE,KMFE,26.175833,-98.238611,107,-6,A,"Mission/McAllen/Edinburg, TX",278,277,278,278,4.046762589928054,10.346570397111913,8.0,154.0,"Fri, Feb 25, 2000","Mon, Feb 14, 2000"
4101,Rogue Valley International Medford,Medford,United States,MFR,KMFR,42.374228,-122.8735,1335,-8,A,"Medford, OR",113,114,116,116,2.9823008849557526,9.701754385964916,8.0,18.0,"Thu, Feb 24, 2000","Thu, Feb 17, 2000"
4115,Montgomery Regional Airport ,MONTGOMERY,United States,MGM,KMGM,32.3006389,-86.3939722,221,-6,A,"Montgomery, AL",85,85,87,87,4.070588235294119,10.87058823529412,8.0,50.0,"Tue, Feb  8, 2000","Sat, Feb 12, 2000"
4011,Manchester Regional Airport,Manchester NH,United States,MHT,KMHT,42.932556,-71.435667,266,-5,A,"Manchester, NH",1056,1063,1087,1087,4.024621212121213,12.052681091251179,26.0,97.0,"Fri, Feb 18, 2000","Sat, Feb 19, 2000"
3576,Miami International,Miami,United States,MIA,KMIA,25.79325,-80.290556,8,-5,A,"Miami, FL",5294,5290,5369,5366,6.844352096713266,19.27258979206047,57.0,225.0,"Tue, Feb  8, 2000","Sun, Feb 13, 2000"
3717,General Mitchell International,Milwaukee,United States,MKE,KMKE,42.947222,-87.896583,723,-6,A,"Milwaukee, WI",1219,1221,1305,1305,4.853978671041843,13.506142506142519,22.0,91.0,"Fri, Feb 18, 2000","Sun, Feb 13, 2000"
3671,Melbourne International,Melbourne,United States,MLB,KMLB,28.102753,-80.645258,33,-5,A,"Melbourne, FL",116,116,116,116,4.03448275862069,11.129310344827589,7.0,18.0,"Fri, Feb  4, 2000","Sat, Feb 12, 2000"
4072,Quad City International,Moline,United States,MLI,KMLI,41.448528,-90.507539,590,-6,A,"Moline, IL",134,134,141,141,3.2313432835820897,8.73134328358209,12.0,29.0,"Fri, Feb 18, 2000","Sat, Feb 26, 2000"
3732,Monroe Regional,Monroe,United States,MLU,KMLU,32.510864,-92.037689,79,-6,A,"Monroe, LA",169,169,173,174,4.414201183431952,10.733727810650883,12.0,27.0,"Thu, Feb 17, 2000","Sun, Feb 13, 2000"
3782,Mobile Regional,Mobile,United States,MOB,KMOB,30.691231,-88.242814,219,-6,A,"Mobile, AL",333,332,348,346,5.006006006006009,10.027108433734949,20.0,38.0,"Tue, Feb  1, 2000","Sun, Feb 13, 2000"
3498,Minot International,Minot,United States,MOT,KMOT,48.259378,-101.280333,1716,-6,A,"Minot, ND",84,84,87,87,4.630952380952381,9.928571428571425,9.0,28.0,"Wed, Feb 16, 2000","Wed, Feb 16, 2000"
3948,Monterey Peninsula,Monterey,United States,MRY,KMRY,36.587,-121.842944,257,-8,A,"Monterey, CA",41,41,58,58,3.341463414634146,7.609756097560977,5.0,20.0,"Mon, Feb  7, 2000","Fri, Feb 25, 2000"
3459,Dane County Regional-Truax Field,Madison,United States,MSN,KMSN,43.139858,-89.337514,887,-6,A,"Madison, WI",347,346,365,365,4.253602305475505,12.45664739884393,15.0,69.0,"Fri, Feb 25, 2000","Tue, Feb  1, 2000"
4216,Missoula International,Missoula,United States,MSO,KMSO,46.916306,-114.090556,3205,-7,A,"Missoula, MT",141,142,145,145,4.5673758865248235,10.901408450704222,10.0,45.0,"Mon, Feb 21, 2000","Mon, Feb 14, 2000"
3858,Minneapolis St. Paul International,Minneapolis,United States,MSP,KMSP,44.881956,-93.221767,841,-6,A,"Minneapolis, MN",11077,11134,11544,11543,6.776925160241942,20.59556313993176,154.0,141.0,"Fri, Feb 18, 2000","Fri, Feb 18, 2000"
3861,Louis Armstrong New Orleans International,New Orleans,United States,MSY,KMSY,29.993389,-90.258028,4,-6,A,"New Orleans, LA",3925,3928,3965,3966,3.8779617834394897,9.987270875763766,40.0,84.0,"Tue, Feb 22, 2000","Tue, Feb 22, 2000"
6880,Montrose Regional Airport,Montrose CO,United States,MTJ,KMTJ,38.509794,-107.894242,5759,-7,A,"Montrose/Delta, CO",45,45,45,45,3.8666666666666667,12.666666666666666,9.0,36.0,"Sun, Feb 27, 2000","Sun, Feb 13, 2000"
3515,Myrtle Beach International,Myrtle Beach,United States,MYR,KMYR,33.67975,-78.928333,25,-5,A,"Myrtle Beach, SC",169,171,176,176,4.059171597633136,10.637426900584797,16.0,43.0,"Sat, Feb 26, 2000","Mon, Feb  7, 2000"
3453,Metropolitan Oakland International,Oakland,United States,OAK,KOAK,37.721278,-122.220722,9,-8,A,"Oakland, CA",4268,4273,4389,4389,3.9358013120899735,10.245728996021509,40.0,64.0,"Sun, Feb 13, 2000","Wed, Feb 16, 2000"
3456,Kahului,Kahului,United States,OGG,PHOG,20.89865,-156.430458,54,-10,N,"Kahului, HI",236,236,236,236,5.237288135593221,13.576271186440676,58.0,47.0,"Fri, Feb 11, 2000","Sat, Feb 19, 2000"
3863,Will Rogers World,Oklahoma City,United States,OKC,KOKC,35.393089,-97.600733,1295,-6,A,"Oklahoma City, OK",1616,1616,1642,1640,3.7116336633663365,9.39603960396036,25.0,88.0,"Sun, Feb 13, 2000","Sat, Feb 26, 2000"
3454,Eppley Airfield,Omaha,United States,OMA,KOMA,41.303167,-95.894069,984,-6,A,"Omaha, NE",1321,1321,1343,1342,3.287660862982592,10.686601059803177,18.0,96.0,"Fri, Feb 18, 2000","Tue, Feb  1, 2000"
3615,Nome,Nome,United States,OME,PAOM,64.512203,-165.445247,37,-9,A,"Nome, AK",63,62,75,75,2.873015873015873,8.193548387096774,5.0,30.0,"Tue, Feb 15, 2000","Fri, Feb 11, 2000"
3734,Ontario International,Ontario,United States,ONT,KONT,34.056,-117.601194,944,-8,A,"Ontario, CA",2677,2676,2764,2764,3.882330967500934,9.25710014947684,20.0,75.0,"Fri, Feb 25, 2000","Fri, Feb 25, 2000"
3830,Chicago O'Hare International,Chicago,United States,ORD,KORD,41.978603,-87.904842,668,-6,A,"Chicago, IL",21561,21682,23425,23422,7.473540188302956,17.867862743289354,85.0,273.0,"Fri, Feb 18, 2000","Fri, Feb 18, 2000"
3611,Norfolk International,Norfolk,United States,ORF,KORF,36.894611,-76.201222,26,-5,A,"Norfolk, VA",1190,1191,1239,1238,3.790756302521008,11.300587741393791,13.0,88.0,"Tue, Feb 29, 2000","Sat, Feb 19, 2000"
3693,Ralph Wien Memorial,Kotzebue,United States,OTZ,PAOT,66.884678,-162.59855,11,-9,A,"Kotzebue, AK",65,67,70,70,3.276923076923077,7.1940298507462686,8.0,24.0,"Wed, Feb 16, 2000","Mon, Feb 21, 2000"
3722,Palm Beach International,West Palm Beach,United States,PBI,KPBI,26.683161,-80.095589,19,-5,A,"West Palm Beach/Palm Beach, FL",1968,1970,1987,1988,4.503048780487803,12.671573604060907,18.0,71.0,"Tue, Feb 29, 2000","Sun, Feb 27, 2000"
3720,Portland International,Portland,United States,PDX,KPDX,45.588722,-122.5975,30,-8,A,"Portland, OR",4343,4359,4555,4561,4.0948653004835505,10.674466620784576,21.0,81.0,"Thu, Feb  3, 2000","Sat, Feb 19, 2000"
3752,Philadelphia International,Philadelphia,United States,PHL,KPHL,39.871944,-75.241139,36,-5,A,"Philadelphia, PA",8824,8826,9210,9209,6.369220308250231,19.221164740539255,46.0,151.0,"Fri, Feb 18, 2000","Fri, Feb 18, 2000"
3462,Phoenix Sky Harbor International,Phoenix,United States,PHX,KPHX,33.434278,-112.011583,1135,-7,N,"Phoenix, AZ",14214,14275,14737,14735,5.567187280146331,14.119999999999992,74.0,90.0,"Sun, Feb 13, 2000","Wed, Feb 23, 2000"
3570,Pittsburgh International,Pittsburgh (pennsylva),United States,PIT,KPIT,40.491467,-80.232872,1204,-5,A,"Pittsburgh, PA",7787,7836,8090,8085,6.580326184666743,16.1274885145484,32.0,149.0,"Thu, Feb  3, 2000","Tue, Feb 22, 2000"
3564,Pensacola Regional,Pensacola,United States,PNS,KPNS,30.473425,-87.186611,121,-6,A,"Pensacola, FL",447,447,463,464,4.633109619686799,11.460850111856827,11.0,66.0,"Sun, Feb 20, 2000","Sun, Feb 13, 2000"
6133,Tri Cities Airport,Pasco,United States,PSC,PSC,46.2647,-119.119,410,-8,A,"Pasco/Kennewick/Richland, WA",109,108,116,116,4.357798165137612,9.388888888888884,9.0,30.0,"Fri, Feb 18, 2000","Fri, Feb 11, 2000"
4147,Petersburg James A. Johnson,Petersburg,United States,PSG,PAPG,56.801667,-132.945278,105,-9,A,"Petersburg, AK",55,55,58,58,2.6363636363636362,5.181818181818182,4.0,12.0,"Sat, Feb 12, 2000","Thu, Feb  3, 2000"
3839,Palm Springs International,Palm Springs,United States,PSP,KPSP,33.829667,-116.506694,477,-8,A,"Palm Springs, CA",598,600,608,607,4.262541806020066,12.158333333333331,12.0,88.0,"Mon, Feb 21, 2000","Sun, Feb 20, 2000"
3641,Theodore Francis Green State,Providence,United States,PVD,KPVD,41.732581,-71.420383,55,-5,A,"Providence, RI",1842,1843,1903,1903,4.406623235613465,12.289202387411837,87.0,88.0,"Fri, Feb 18, 2000","Fri, Feb 25, 2000"
3862,Portland International Jetport,Portland,United States,PWM,KPWM,43.646161,-70.309281,77,-5,A,"Portland, ME",426,430,457,457,3.6549295774647876,12.190697674418605,22.0,59.0,"Mon, Feb 28, 2000","Fri, Feb 18, 2000"
4087,Rapid City Regional Airport,Rapid City,United States,RAP,KRAP,44.045278,-103.057222,3204,-7,A,"Rapid City, SD",80,80,83,83,3.8375,8.974999999999996,6.0,29.0,"Sun, Feb  6, 2000","Sun, Feb 13, 2000"
3626,Raleigh Durham International,Raleigh-durham,United States,RDU,KRDU,35.877639,-78.787472,435,-5,A,"Raleigh/Durham, NC",2817,2817,2893,2896,3.9794107206247764,11.37522186723465,26.0,104.0,"Wed, Feb  2, 2000","Fri, Feb 18, 2000"
3608,Richmond International,Richmond,United States,RIC,KRIC,37.505167,-77.319667,167,-5,A,"Richmond, VA",1307,1304,1374,1375,4.801071155317526,11.882668711656438,22.0,59.0,"Sun, Feb 27, 2000","Thu, Feb  3, 2000"
3807,Reno Tahoe International,Reno,United States,RNO,KRNO,39.499108,-119.768108,4415,-8,A,"Reno, NV",2705,2710,2761,2759,4.554898336414028,10.696309963099619,50.0,81.0,"Thu, Feb 24, 2000","Thu, Feb 10, 2000"
4016,Roanoke Regional,Roanoke VA,United States,ROA,KROA,37.325472,-79.975417,1175,-5,A,"Roanoke, VA",176,176,195,195,4.164772727272723,8.50568181818182,9.0,24.0,"Thu, Feb  3, 2000","Sat, Feb 12, 2000"
3622,Greater Rochester International,Rochester,United States,ROC,KROC,43.118866,-77.672389,559,-5,A,"Rochester, NY",1092,1087,1142,1142,6.123626373626372,15.758969641214371,23.0,115.0,"Thu, Feb 10, 2000","Thu, Feb 24, 2000"
4048,Rochester,Rochester,United States,RST,KRST,43.908283,-92.500014,1317,-6,A,"Rochester, MN",132,133,148,148,3.6893939393939394,11.38345864661654,6.0,86.0,"Fri, Feb 18, 2000","Sat, Feb 26, 2000"
3793,Southwest Florida International,Fort Myers,United States,RSW,KRSW,26.536167,-81.755167,30,-5,A,"Fort Myers, FL",1362,1350,1365,1361,3.7760646108663716,13.571851851851847,22.0,70.0,"Thu, Feb 24, 2000","Fri, Feb 25, 2000"
3731,San Diego International,San Diego,United States,SAN,KSAN,32.733556,-117.189667,17,-8,A,"San Diego, CA",5559,5565,5726,5728,3.207591293398092,12.853369272237186,36.0,87.0,"Sun, Feb 27, 2000","Sat, Feb 12, 2000"
3621,San Antonio International,San Antonio,United States,SAT,KSAT,29.533694,-98.469778,809,-6,A,"San Antonio, TX",2998,2995,3032,3030,3.2671781187458286,9.664440734557624,17.0,64.0,"Sun, Feb 13, 2000","Sun, Feb 13, 2000"
3613,Savannah Hilton Head International,Savannah,United States,SAV,KSAV,32.127583,-81.202139,51,-5,A,"Savannah, GA",398,401,406,406,5.31658291457287,11.453865336658367,19.0,30.0,"Sun, Feb 13, 2000","Sun, Feb 13, 2000"
3949,Santa Barbara Municipal,Santa Barbara,United States,SBA,KSBA,34.426211,-119.840372,10,-8,A,"Santa Barbara, CA",199,200,218,218,2.7386934673366836,7.760000000000002,6.0,35.0,"Sat, Feb 26, 2000","Sat, Feb 12, 2000"
4359,South Bend Regional,South Bend,United States,SBN,KSBN,41.708661,-86.31725,799,-5,A,"South Bend, IN",205,202,220,220,4.058536585365851,10.31683168316832,9.0,35.0,"Thu, Feb  3, 2000","Fri, Feb  4, 2000"
3620,Deadhorse,Deadhorse,United States,SCC,PASC,70.19475,-148.465167,64,-9,A,"Deadhorse, AK",27,27,34,34,2.8518518518518516,6.592592592592593,5.0,12.0,"Tue, Feb  1, 2000","Sat, Feb 26, 2000"
4014,Louisville International Airport,Louisville,United States,SDF,KSDF,38.1740858,-85.7364989,501,-5,A,"Louisville, KY",1761,1759,1802,1799,4.850085178875626,9.894258101193843,15.0,57.0,"Tue, Feb 22, 2000","Thu, Feb  3, 2000"
3577,Seattle Tacoma International,Seattle,United States,SEA,KSEA,47.449,-122.309306,433,-8,A,"Seattle, WA",7449,7472,7889,7890,4.893274265002019,13.610412205567457,32.0,73.0,"Wed, Feb 16, 2000","Fri, Feb 25, 2000"
3469,San Francisco International,San Francisco,United States,SFO,KSFO,37.618972,-122.374889,13,-8,A,"San Francisco, CA",9576,9607,10598,10595,5.744465329991655,18.691995420006144,40.0,140.0,"Sat, Feb 19, 2000","Fri, Feb  4, 2000"
4348,Springfield Branson National,Springfield,United States,SGF,KSGF,37.245667,-93.388639,1268,-6,A,"Springfield, MO",160,160,166,166,2.906250000000001,8.831249999999999,6.0,33.0,"Wed, Feb  2, 2000","Tue, Feb 22, 2000"
3609,Shreveport Regional,Shreveport,United States,SHV,KSHV,32.446629,-93.8256,258,-6,A,"Shreveport, LA",303,302,311,310,4.848184818481846,9.228476821192046,10.0,20.0,"Mon, Feb  7, 2000","Fri, Feb 18, 2000"
3856,Sitka Rocky Gutierrez,Sitka,United States,SIT,PASI,57.047138,-135.361611,21,-9,A,"Sitka, AK",84,86,87,87,3.5476190476190474,9.395348837209305,9.0,24.0,"Fri, Feb 25, 2000","Thu, Feb  3, 2000"
3748,Norman Y. Mineta San Jose International,San Jose,United States,SJC,KSJC,37.3626,-121.929022,62,-8,A,"San Jose, CA",4861,4863,5005,5005,4.16786669409588,14.126259510590158,35.0,70.0,"Fri, Feb 11, 2000","Mon, Feb  7, 2000"
3536,Salt Lake City International,Salt Lake City,United States,SLC,KSLC,40.788389,-111.977772,4227,-7,A,"Salt Lake City, UT",6212,6225,6337,6337,5.380875724404374,17.03710843373501,49.0,168.0,"Fri, Feb 25, 2000","Thu, Feb  3, 2000"
3817,Sacramento International,Sacramento,United States,SMF,KSMF,38.695417,-121.590778,27,-8,A,"Sacramento, CA",2865,2865,2905,2905,3.7151832460732983,8.942408376963337,22.0,87.0,"Thu, Feb 17, 2000","Thu, Feb  3, 2000"
3867,John Wayne Airport Orange County,Santa Ana,United States,SNA,KSNA,33.675667,-117.868222,56,-8,A,"Santa Ana, CA",3371,3370,3547,3547,6.63957282705429,14.21157270029674,52.0,158.0,"Wed, Feb  9, 2000","Mon, Feb  7, 2000"
4067,Sarasota Bradenton International,Sarasota,United States,SRQ,KSRQ,27.395444,-82.554389,30,-5,A,"Sarasota/Bradenton, FL",474,473,475,474,4.2848101265822764,11.904862579281186,22.0,77.0,"Tue, Feb 29, 2000","Sun, Feb 13, 2000"
3678,Lambert St. Louis International,St. Louis,United States,STL,KSTL,38.748697,-90.370028,618,-6,A,"St. Louis, MO",13176,13218,13512,13518,5.755236794171244,16.64321379936439,43.0,219.0,"Tue, Feb  1, 2000","Fri, Feb 18, 2000"
3753,Sioux Gateway-Colonel Bud Day Field,Sioux City,United States,SUX,KSUX,42.402603,-96.384367,1098,-6,A,"Sioux City, IA",54,54,54,54,3.611111111111111,8.370370370370372,6.0,24.0,"Tue, Feb 15, 2000","Thu, Feb 10, 2000"
3661,Stewart International,Newburgh,United States,SWF,KSWF,41.504094,-74.104839,491,-5,A,"Newburgh/Poughkeepsie, NY",78,78,87,87,4.769230769230771,12.512820512820513,7.0,52.0,"Thu, Feb 24, 2000","Fri, Feb 25, 2000"
3745,Syracuse Hancock International,Syracuse,United States,SYR,KSYR,43.111187,-76.106311,421,-5,A,"Syracuse, NY",875,874,908,906,4.817142857142855,15.95766590389017,39.0,105.0,"Sat, Feb 26, 2000","Mon, Feb 14, 2000"
3698,Tallahassee Regional,Tallahassee,United States,TLH,KTLH,30.396528,-84.350333,81,-5,A,"Tallahassee, FL",168,167,174,174,3.910714285714287,10.329341317365268,13.0,36.0,"Sun, Feb 13, 2000","Fri, Feb 11, 2000"
4040,Toledo,Toledo,United States,TOL,KTOL,41.586806,-83.807833,684,-5,A,"Toledo, OH",82,83,83,83,3.9146341463414633,13.19277108433735,7.0,47.0,"Thu, Feb 24, 2000","Thu, Feb  3, 2000"
3646,Tampa International,Tampa,United States,TPA,KTPA,27.975472,-82.53325,26,-5,A,"Tampa, FL",5013,4999,5042,5038,4.405545581488128,11.998799759951973,37.0,137.0,"Sat, Feb 19, 2000","Thu, Feb  3, 2000"
4116,Tri-Cities Regional Airport,BRISTOL,United States,TRI,KTRI,36.4752222,-82.4074167,1519,-5,A,"Bristol/Johnson City/Kingsport, TN",103,103,112,112,5.077669902912624,6.689320388349515,12.0,48.0,"Sat, Feb 12, 2000","Sun, Feb 27, 2000"
3855,Tulsa International,Tulsa,United States,TUL,KTUL,36.198389,-95.888111,677,-6,A,"Tulsa, OK",1520,1523,1556,1554,3.513815789473685,10.523965856861453,32.0,100.0,"Wed, Feb  2, 2000","Fri, Feb 25, 2000"
3636,Tucson International,Tucson,United States,TUS,KTUS,32.116083,-110.941028,2643,-7,N,"Tucson, AZ",1681,1675,1710,1710,3.877453896490187,11.017910447761192,24.0,86.0,"Thu, Feb 10, 2000","Sun, Feb 20, 2000"
4023,Cherry Capital Airport,Traverse City,United States,TVC,KTVC,44.741445,-85.582235,624,-5,A,"Traverse City, MI",55,54,58,58,2.909090909090909,16.96296296296296,8.0,53.0,"Thu, Feb 17, 2000","Thu, Feb 10, 2000"
3676,McGhee Tyson,Knoxville,United States,TYS,KTYS,35.810972,-83.994028,981,-5,A,"Knoxville, TN",491,490,507,506,4.234215885947047,11.528571428571425,13.0,42.0,"Fri, Feb 18, 2000","Wed, Feb  2, 2000"
3873,Eglin AFB,Valparaiso,United States,VPS,KVPS,30.48325,-86.5254,87,-6,A,"Valparaiso, FL",87,87,87,87,6.850574712643678,8.137931034482762,21.0,21.0,"Fri, Feb 18, 2000","Fri, Feb 25, 2000"
5969,Wrangell Airport,Wrangell,United States,WRG,PAWG,56.4843,-132.37,44,-9,A,"Wrangell, AK",55,55,58,58,2.7636363636363637,5.2,5.0,15.0,"Sat, Feb 19, 2000","Wed, Feb  2, 2000"
6803,Yakutat,Yakutat,United States,YAK,PAYA,59.3012,-139.3937,33,-9,A,"Yakutat, AK",55,57,58,58,3.3636363636363638,5.964912280701754,8.0,32.0,"Mon, Feb 14, 2000","Thu, Feb 17, 2000"
2883,Cyril E. King,St. Thomas,Virgin Islands,STT,TIST,18.337306,-64.973361,23,-4,U,"Charlotte Amalie, VI",253,254,256,256,4.292490118577075,13.543307086614174,22.0,65.0,"Sun, Feb  6, 2000","Sat, Feb 26, 2000"
2884,Henry E. Rohlsen,St. Croix Island,Virgin Islands,STX,TISX,17.701889,-64.798556,74,-4,U,"Christiansted, VI",58,58,58,58,3.793103448275862,11.327586206896552,7.0,31.0,"Sat, Feb 26, 2000","Sat, Feb 26, 2000"
2890,Luis Muñoz Marín International,San Juan,Puerto Rico,SJU,TJSJ,18.439417,-66.001833,9,-4,U,"San Juan, PR",2006,1995,2033,2031,5.912761714855439,17.01453634085211,51.0,91.0,"Sun, Feb 20, 2000","Wed, Feb 23, 2000"
