airport_id,name,city,country,iata_faa,iaco,latitude,longitude,altitude,zone,dst,city_state,avg_able_landings,avg_able_takeoffs,total_landings,total_takeoffs,avg_taxi_in,avg_taxi_out,longest_taxi_in,longest_taxi_out,lng_tx_in_date,lng_tx_out_date
4355,Lehigh Valley International,Allentown,United States,ABE,KABE,40.652083,-75.440806,393,-5,A,"Allentown/Bethlehem/Easton, PA",494,495,518,517,4.0728744939271255,11.905050505050507,19.0,71.0,"Tue, Mar  6, 2001","Sun, Mar 18, 2001"
3718,Abilene Regional,Abilene,United States,ABI,KABI,32.411319,-99.681897,1791,-6,A,"Abilene, TX",229,230,237,238,4.082969432314407,9.039130434782612,11.0,49.0,"Tue, Mar 27, 2001","Wed, Mar 28, 2001"
4019,Albuquerque International Sunport,Albuquerque,United States,ABQ,KABQ,35.0402222,-106.6091944,5355,-7,A,"Albuquerque, NM",2979,2979,3006,3004,4.142329640819065,9.854313528029536,24.0,48.0,"Mon, Mar 12, 2001","Thu, Mar  8, 2001"
3700,Waco Regional,Waco,United States,ACT,KACT,31.611289,-97.230519,516,-6,A,"Waco, TX",235,235,238,239,4.0085106382978735,9.655319148936169,10.0,65.0,"Sun, Mar 11, 2001","Thu, Mar 15, 2001"
3531,Kodiak,Kodiak,United States,ADQ,PADQ,57.749967,-152.493856,78,-9,A,"Kodiak, AK",54,54,62,62,3.0555555555555554,8.018518518518519,8.0,29.0,"Wed, Mar 14, 2001","Sun, Mar 18, 2001"
3864,Albany International,Albany,United States,ALB,KALB,42.748267,-73.801692,285,-5,A,"Albany, NY",1338,1343,1430,1426,3.7600896860986546,12.462397617274775,17.0,87.0,"Thu, Mar 22, 2001","Tue, Mar  6, 2001"
3840,Rick Husband Amarillo International,Amarillo,United States,AMA,KAMA,35.219369,-101.705931,3607,-6,A,"Amarillo, TX",552,552,559,560,4.0018115942028984,8.391304347826088,16.0,54.0,"Thu, Mar 29, 2001","Mon, Mar 26, 2001"
3774,Ted Stevens Anchorage International,Anchorage,United States,ANC,PANC,61.174361,-149.996361,152,-9,A,"Anchorage, AK",1429,1438,1468,1470,4.270818754373686,12.490264255910985,15.0,57.0,"Fri, Mar  2, 2001","Fri, Mar 30, 2001"
4012,Naples Municipal,Naples,United States,APF,KAPF,26.152619,-81.775294,8,-5,A,"Naples, FL",82,82,94,94,5.060975609756097,10.914634146341463,11.0,40.0,"Mon, Mar  5, 2001","Sat, Mar 17, 2001"
3682,Hartsfield Jackson Atlanta International,Atlanta,United States,ATL,KATL,33.636719,-84.428067,1026,-5,A,"Atlanta, GA",21234,21342,22088,22114,8.689130639540341,18.622340923999456,86.0,125.0,"Mon, Mar 12, 2001","Wed, Mar 21, 2001"
3673,Austin Bergstrom International,Austin,United States,AUS,KAUS,30.194528,-97.669889,542,-6,A,"Austin, TX",3684,3684,3740,3742,4.32627578718783,11.146851248642786,22.0,123.0,"Fri, Mar  2, 2001","Thu, Mar 15, 2001"
4007,Asheville Regional Airport,Asheville,United States,AVL,KAVL,35.436194,-82.541806,2165,-5,A,"Asheville, NC",112,112,124,124,3.4285714285714284,12.973214285714283,7.0,105.0,"Sun, Mar 18, 2001","Tue, Mar 20, 2001"
4286,Wilkes Barre Scranton International,Scranton,United States,AVP,KAVP,41.338478,-75.723403,962,-5,A,"Scranton/Wilkes-Barre, PA",118,117,124,124,3.4322033898305087,9.529914529914528,5.0,25.0,"Sun, Mar  4, 2001","Sat, Mar 24, 2001"
4039,Kalamazoo,Kalamazoo,United States,AZO,KAZO,42.234875,-85.552058,874,-5,A,"Kalamazoo, MI",263,262,269,270,3.3574144486692017,11.27862595419847,13.0,62.0,"Sun, Mar 25, 2001","Tue, Mar  6, 2001"
3825,Bradley International,Windsor Locks,United States,BDL,KBDL,41.938889,-72.683222,173,-5,A,"Hartford, CT",2991,2994,3213,3216,5.1574724172517525,14.808283233132938,45.0,166.0,"Fri, Mar  9, 2001","Fri, Mar  9, 2001"
3599,Bethel,Bethel,United States,BET,PABE,60.779778,-161.838,121,-9,A,"Bethel, AK",90,90,93,93,2.655555555555556,7.7,5.0,30.0,"Sun, Mar  4, 2001","Sat, Mar  3, 2001"
3558,Meadows Field,Bakersfield,United States,BFL,KBFL,35.433598,-119.05677,507,-8,A,"Bakersfield, CA",182,180,186,185,5.104395604395606,11.12777777777778,10.0,43.0,"Tue, Mar  6, 2001","Sat, Mar 24, 2001"
4129,Greater Binghamton-Edwin A. Link Field,Binghamton,United States,BGM,KBGM,42.208689,-75.979839,1636,-5,A,"Binghamton, NY",60,58,62,62,4.816666666666666,17.051724137931032,9.0,62.0,"Thu, Mar  8, 2001","Fri, Mar  9, 2001"
3463,Bangor International,Bangor,United States,BGR,KBGR,44.807444,-68.828139,192,-5,A,"Bangor, ME",224,222,269,269,4.450892857142856,11.57207207207207,13.0,149.0,"Wed, Mar 14, 2001","Fri, Mar 30, 2001"
3811,Birmingham International,Birmingham,United States,BHM,KBHM,33.562942,-86.75355,644,-6,A,"Birmingham, AL",1648,1645,1661,1658,3.3519417475728157,9.999999999999993,24.0,78.0,"Fri, Mar  2, 2001","Wed, Mar 21, 2001"
4021,Billings Logan International Airport,Billings,United States,BIL,KBIL,45.80921,-108.537654,3652,-7,A,"Billings, MT",306,307,310,310,3.5915032679738577,10.996742671009764,8.0,67.0,"Sun, Mar 25, 2001","Fri, Mar 30, 2001"
4083,Bismarck Municipal Airport,Bismarck,United States,BIS,KBIS,46.775842,-100.757931,1661,-6,A,"Bismarck/Mandan, ND",117,119,119,120,3.6923076923076925,7.865546218487393,7.0,16.0,"Fri, Mar 16, 2001","Mon, Mar  5, 2001"
4037,Central Illinois Regional,Bloomington,United States,BMI,KBMI,40.477111,-88.915917,871,-6,A,"Bloomington/Normal, IL",141,139,150,150,3.9290780141843973,11.669064748201441,15.0,48.0,"Thu, Mar 15, 2001","Thu, Mar 15, 2001"
3690,Nashville International,Nashville,United States,BNA,KBNA,36.124472,-86.678194,599,-6,A,"Nashville, TN",4912,4902,4972,4969,4.791530944625399,10.47246022031823,37.0,77.0,"Tue, Mar  6, 2001","Wed, Mar 21, 2001"
3495,Boise Air Terminal,Boise,United States,BOI,KBOI,43.564361,-116.222861,2871,-7,A,"Boise, ID",1055,1053,1060,1060,3.3876777251184826,9.339031339031346,20.0,63.0,"Fri, Mar 16, 2001","Fri, Mar  2, 2001"
3448,General Edward Lawrence Logan International,Boston,United States,BOS,KBOS,42.364347,-71.005181,19,-5,A,"Boston, MA",10481,10471,11943,11956,9.031962598988663,19.3910801260625,153.0,132.0,"Fri, Mar  2, 2001","Fri, Mar 23, 2001"
3612,Southeast Texas Regional,Beaumont,United States,BPT,KBPT,29.950833,-94.020694,15,-6,A,"Beaumont/Port Arthur, TX",144,119,150,125,4.784722222222222,9.705882352941172,34.0,30.0,"Sun, Mar 25, 2001","Thu, Mar  1, 2001"
3738,Brownsville South Padre Island International,Brownsville,United States,BRO,KBRO,25.906833,-97.425861,22,-6,A,"Brownsville, TX",35,36,35,36,4.914285714285715,14.861111111111105,7.0,187.0,"Sat, Mar  3, 2001","Thu, Mar 15, 2001"
3571,Wiley Post Will RogersMemorial,Barrow,United States,BRW,PABR,71.285446,-156.766003,44,-9,A,"Barrow, AK",73,73,75,75,3.1232876712328768,5.972602739726027,5.0,23.0,"Mon, Mar  5, 2001","Fri, Mar  2, 2001"
3846,Baton Rouge Metro-Ryan Field,Baton Rouge,United States,BTR,KBTR,30.533167,-91.149639,70,-6,A,"Baton Rouge, LA",532,533,553,553,5.095864661654136,10.778611632270161,37.0,55.0,"Mon, Mar 12, 2001","Fri, Mar  2, 2001"
3711,Burlington International,Burlington,United States,BTV,KBTV,44.471861,-73.153278,335,-5,A,"Burlington, VT",350,353,392,392,4.080000000000006,11.960339943342781,11.0,60.0,"Sat, Mar  3, 2001","Tue, Mar 13, 2001"
3820,Buffalo Niagara International,Buffalo,United States,BUF,KBUF,42.940525,-78.732167,724,-5,A,"Buffalo, NY",1738,1772,1819,1844,3.8515535097813567,12.06941309255079,48.0,65.0,"Sat, Mar 17, 2001","Tue, Mar 13, 2001"
3644,Bob Hope,Burbank,United States,BUR,KBUR,34.200667,-118.358667,778,-8,A,"Burbank, CA",2248,2245,2314,2313,2.190836298932377,9.973273942093545,14.0,46.0,"Sun, Mar 11, 2001","Tue, Mar 13, 2001"
3849,Baltimore Washington International,Baltimore,United States,BWI,KBWI,39.175361,-76.668333,146,-5,A,"Baltimore, MD",8432,8435,8627,8629,4.398244781783677,11.467457024303467,65.0,98.0,"Wed, Mar 21, 2001","Wed, Mar 21, 2001"
4020,Gallatin Field,Bozeman,United States,BZN,KBZN,45.777643,-111.160151,4500,-7,A,"Bozeman, MT",158,157,159,158,4.651898734177215,10.732484076433119,10.0,45.0,"Fri, Mar 16, 2001","Sun, Mar  4, 2001"
3561,Columbia Metropolitan,Colombia,United States,CAE,KCAE,33.938833,-81.119528,236,-5,A,"Columbia, SC",321,318,331,331,4.535825545171339,13.981132075471692,14.0,47.0,"Tue, Mar  6, 2001","Thu, Mar 15, 2001"
4112,Akron Canton Regional Airport,Akron,United States,CAK,KCAK,40.9160833,-81.4421944,1228,-5,A,"Akron, OH",87,85,88,88,4.333333333333333,10.541176470588235,16.0,35.0,"Sat, Mar 17, 2001","Tue, Mar  6, 2001"
3610,Merle K. Mudhole Smith,Cordova,United States,CDV,PACV,60.491778,-145.477556,48,-9,A,"Cordova, AK",61,61,62,62,3.540983606557377,7.016393442622951,5.0,20.0,"Sun, Mar 25, 2001","Wed, Mar  7, 2001"
3578,Lovell Field,Chattanooga,United States,CHA,KCHA,35.035278,-85.203808,683,-5,A,"Chattanooga, TN",176,174,180,181,3.465909090909091,11.275862068965518,11.0,53.0,"Fri, Mar 23, 2001","Mon, Mar 12, 2001"
3806,Charleston AFB International,Charleston,United States,CHS,KCHS,32.898647,-80.040528,45,-5,A,"Charleston, SC",572,571,589,588,5.576923076923081,11.653239929947462,15.0,49.0,"Thu, Mar 29, 2001","Fri, Mar 30, 2001"
4043,Cedar Rapids,Cedar Rapids,United States,CID,KCID,41.884694,-91.710806,869,-6,A,"Cedar Rapids/Iowa City, IA",586,586,609,611,4.351535836177471,9.97952218430033,42.0,108.0,"Sun, Mar 11, 2001","Sun, Mar 18, 2001"
3486,Cleveland Hopkins International,Cleveland,United States,CLE,KCLE,41.411689,-81.849794,791,-5,A,"Cleveland, OH",4775,4787,4931,4934,4.50010471204189,17.32066012116154,30.0,167.0,"Sun, Mar 25, 2001","Tue, Mar  6, 2001"
3715,Easterwood Field,College Station,United States,CLL,KCLL,30.588583,-96.363833,321,-6,A,"College Station/Bryan, TX",215,213,216,217,4.7674418604651185,10.281690140845072,14.0,35.0,"Fri, Mar 30, 2001","Fri, Mar  2, 2001"
3876,Charlotte Douglas International,Charlotte,United States,CLT,KCLT,35.214,-80.943139,748,-5,A,"Charlotte, NC",10821,10840,11184,11185,6.086036410682918,16.428966789667882,47.0,126.0,"Tue, Mar 20, 2001","Thu, Mar  8, 2001"
3759,Port Columbus International,Columbus,United States,CMH,KCMH,39.997972,-82.891889,815,-5,A,"Columbus, OH",3264,3256,3367,3365,4.341911764705869,12.164004914004915,28.0,88.0,"Tue, Mar  6, 2001","Wed, Mar 21, 2001"
4049,Champaign,Champaign,United States,CMI,KCMI,40.03925,-88.278056,754,-6,A,"Champaign/Urbana, IL",130,127,136,137,4.438461538461539,10.897637795275589,18.0,70.0,"Thu, Mar  1, 2001","Tue, Mar  6, 2001"
3819,City Of Colorado Springs Municipal,Colorado Springs,United States,COS,KCOS,38.805805,-104.700778,6187,-7,A,"Colorado Springs, CO",945,943,977,975,6.5502645502645525,16.784729586426334,44.0,139.0,"Fri, Mar 30, 2001","Sat, Mar 24, 2001"
3744,Corpus Christi International,Corpus Christi,United States,CRP,KCRP,27.770361,-97.501222,44,-6,A,"Corpus Christi, TX",463,465,472,473,3.5205183585313176,8.133333333333335,18.0,98.0,"Wed, Mar 14, 2001","Thu, Mar 15, 2001"
4285,Yeager,Charleston,United States,CRW,KCRW,38.373147,-81.593189,981,-5,A,"Charleston/Dunbar, WV",89,89,93,93,3.4494382022471903,7.157303370786517,7.0,20.0,"Tue, Mar 20, 2001","Tue, Mar  6, 2001"
3488,Cincinnati Northern Kentucky International,Cincinnati,United States,CVG,KCVG,39.048836,-84.667822,896,-5,A,"Cincinnati, OH",5623,5636,5806,5811,6.250577983282967,16.885911994322196,37.0,135.0,"Fri, Mar 16, 2001","Thu, Mar 15, 2001"
3950,Daytona Beach International,Daytona Beach,United States,DAB,KDAB,29.179917,-81.058056,34,-5,A,"Daytona Beach, FL",183,186,185,186,4.103825136612021,12.483870967741936,7.0,65.0,"Mon, Mar  5, 2001","Thu, Mar 22, 2001"
3502,Dallas Love Field,Dallas,United States,DAL,KDAL,32.847111,-96.851778,487,-6,A,"Dallas, TX",4135,4146,4225,4223,2.993228536880293,7.792088760250839,37.0,110.0,"Thu, Mar  8, 2001","Wed, Mar 14, 2001"
3627,James M. Cox Dayton International,Dayton,United States,DAY,KDAY,39.902375,-84.219375,1009,-5,A,"Dayton, OH",984,979,1002,1003,4.804878048780479,13.593462717058229,21.0,70.0,"Mon, Mar 12, 2001","Thu, Mar 22, 2001"
4388,Dubuque Regional,Dubuque IA,United States,DBQ,KDBQ,42.402,-90.709472,1076,-6,A,"Dubuque, IA",109,109,114,115,3.779816513761468,10.018348623853209,9.0,74.0,"Tue, Mar 27, 2001","Sun, Mar 25, 2001"
3520,Ronald Reagan Washington National,Washington,United States,DCA,KDCA,38.852083,-77.037722,15,-5,A,"Washington, DC",7808,7797,8218,8226,4.674692622950797,16.383352571501845,47.0,142.0,"Thu, Mar 29, 2001","Fri, Mar  9, 2001"
3751,Denver International,Denver,United States,DEN,KDEN,39.861656,-104.673178,5431,-7,A,"Denver, CO",11646,11653,11911,11904,7.301734501116259,16.05157470179345,46.0,195.0,"Tue, Mar 27, 2001","Sun, Mar 25, 2001"
3670,Dallas Fort Worth International,Dallas-fort Worth,United States,DFW,KDFW,32.896828,-97.037997,607,-6,A,"Dallas/Fort Worth, TX",27118,27262,28033,28035,11.608673205988646,19.623321839923726,144.0,203.0,"Sun, Mar 11, 2001","Wed, Mar 21, 2001"
3598,Duluth International,Duluth,United States,DLH,KDLH,46.842091,-92.193649,1428,-6,A,"Duluth, MN",163,164,167,168,4.055214723926381,10.463414634146345,9.0,42.0,"Fri, Mar 23, 2001","Tue, Mar  6, 2001"
3713,Durango La Plata County,Durango,United States,DRO,KDRO,37.151516,-107.75377,6685,-7,A,"Durango, CO",34,35,36,35,3.5294117647058822,13.314285714285715,8.0,27.0,"Wed, Mar 28, 2001","Sun, Mar 11, 2001"
3729,Des Moines International,Des Moines,United States,DSM,KDSM,41.533972,-93.663083,958,-6,A,"Des Moines, IA",746,747,755,756,4.536193029490623,10.65060240963856,12.0,73.0,"Thu, Mar 15, 2001","Thu, Mar 15, 2001"
3645,Detroit Metro Wayne County,Detroit,United States,DTW,KDTW,42.212444,-83.353389,645,-5,A,"Detroit, MI",12539,12566,12876,12877,9.377940824627187,18.938086901161885,63.0,116.0,"Thu, Mar 29, 2001","Thu, Mar 15, 2001"
3860,Unalaska,Unalaska,United States,DUT,PADU,53.900139,-166.5435,22,-9,A,"Unalaska, AK",23,23,31,31,2.6086956521739135,6.304347826086956,7.0,17.0,"Sun, Mar  4, 2001","Thu, Mar  8, 2001"
4250,Eagle County Regional,Vail,United States,EGE,KEGE,39.642556,-106.917694,6540,-7,A,"Eagle, CO",327,333,335,335,5.192660550458715,20.054054054054063,23.0,102.0,"Sat, Mar 17, 2001","Sun, Mar 11, 2001"
3946,Elmira Corning Regional,Elmira,United States,ELM,KELM,42.159889,-76.891611,954,-5,A,"Elmira/Corning, NY",113,113,120,120,3.8672566371681416,11.2212389380531,6.0,40.0,"Mon, Mar  5, 2001","Fri, Mar  9, 2001"
3559,El Paso International,El Paso,United States,ELP,KELP,31.80725,-106.377583,3958,-7,A,"El Paso, TX",1867,1868,1886,1887,3.032672737011247,9.332976445396154,25.0,176.0,"Sat, Mar 24, 2001","Thu, Mar 15, 2001"
4276,Erie International-Tom Ridge Field,Erie,United States,ERI,KERI,42.082022,-80.176217,733,-5,A,"Erie, PA",117,117,124,124,3.700854700854701,10.51282051282051,10.0,30.0,"Sat, Mar 31, 2001","Sat, Mar 17, 2001"
4099,Mahlon Sweet Field,Eugene,United States,EUG,KEUG,44.124583,-123.211972,374,-8,A,"Eugene, OR",180,180,186,186,2.6277777777777764,9.483333333333329,5.0,26.0,"Mon, Mar  5, 2001","Sat, Mar 10, 2001"
4018,Evansville Regional,Evansville,United States,EVV,KEVV,38.036997,-87.532364,418,-6,A,"Evansville, IN",136,136,141,141,3.4044117647058827,10.536764705882353,7.0,34.0,"Mon, Mar  5, 2001","Sun, Mar 25, 2001"
3494,Newark Liberty International,Newark,United States,EWR,KEWR,40.6925,-74.168667,18,-5,A,"Newark, NJ",10134,10154,10957,10974,8.539175054272766,26.90023636005513,58.0,163.0,"Sun, Mar  4, 2001","Tue, Mar 13, 2001"
3875,Key West International,Key West,United States,EYW,KEYW,24.556111,-81.759556,3,-5,A,"Key West, FL",295,292,306,306,5.576271186440678,10.948630136986298,30.0,33.0,"Mon, Mar  5, 2001","Thu, Mar 15, 2001"
3832,Fairbanks International,Fairbanks,United States,FAI,PAFA,64.815114,-147.856267,434,-9,A,"Fairbanks, AK",376,374,381,381,3.1196808510638285,10.18449197860963,20.0,48.0,"Mon, Mar 19, 2001","Wed, Mar 28, 2001"
4292,Hector International Airport,Fargo,United States,FAR,KFAR,46.92065,-96.8157639,902,-6,A,"Fargo, ND",143,143,145,146,4.3776223776223775,10.335664335664333,7.0,50.0,"Mon, Mar  5, 2001","Mon, Mar 19, 2001"
3687,Fresno Yosemite International,Fresno,United States,FAT,KFAT,36.776194,-119.71814,336,-8,A,"Fresno, CA",271,269,274,273,4.612546125461255,10.784386617100374,12.0,38.0,"Wed, Mar  7, 2001","Sat, Mar 24, 2001"
5738,Fayetteville Regional-Grannis Field,Fayetteville,United States,FAY,KFAY,34.9912,-78.8803,189,-5,A,"Fayetteville, NC",56,54,62,62,4.000000000000001,7.722222222222222,8.0,22.0,"Sat, Mar 10, 2001","Wed, Mar 28, 2001"
4127,Glacier Park International,Kalispell,United States,FCA,KFCA,48.310472,-114.256,2977,-7,A,"Kalispell, MT",122,122,124,124,4.622950819672133,10.13114754098361,9.0,30.0,"Wed, Mar  7, 2001","Sat, Mar 24, 2001"
3533,Fort Lauderdale Hollywood International,Fort Lauderdale,United States,FLL,KFLL,26.072583,-80.15275,9,-5,A,"Fort Lauderdale, FL",4784,4810,4920,4918,5.326505016722412,16.871725571725566,78.0,149.0,"Mon, Mar 19, 2001","Mon, Mar 19, 2001"
4089,Bishop International,Flint,United States,FNT,KFNT,42.965424,-83.743629,782,-5,A,"Flint, MI",93,93,93,93,3.6989247311827955,13.698924731182796,7.0,32.0,"Sat, Mar 10, 2001","Sun, Mar 25, 2001"
4009,Sioux Falls,Sioux Falls,United States,FSD,KFSD,43.582014,-96.741914,1429,-6,A,"Sioux Falls, SD",271,274,274,275,5.0184501845018445,12.868613138686129,13.0,68.0,"Sun, Mar 11, 2001","Fri, Mar 30, 2001"
3437,Fort Smith Regional,Fort Smith,United States,FSM,KFSM,35.336583,-94.367444,469,-6,A,"Fort Smith, AR",232,232,238,240,3.8017241379310334,8.857758620689655,14.0,27.0,"Mon, Mar  5, 2001","Wed, Mar  7, 2001"
4041,Fort Wayne,Fort Wayne,United States,FWA,KFWA,40.978472,-85.195139,815,-5,A,"Fort Wayne, IN",260,260,265,266,3.746153846153846,10.838461538461539,12.0,67.0,"Mon, Mar 26, 2001","Fri, Mar 16, 2001"
3467,Spokane International,Spokane,United States,GEG,KGEG,47.619861,-117.533833,2376,-8,A,"Spokane, WA",1086,1085,1099,1101,3.811233885819522,9.922580645161284,14.0,60.0,"Sat, Mar 10, 2001","Tue, Mar 13, 2001"
3442,Grand Forks International,Grand Forks,United States,GFK,KGFK,47.949256,-97.176111,845,-6,A,"Grand Forks, ND",87,89,88,89,3.6666666666666665,8.651685393258425,7.0,18.0,"Sun, Mar 18, 2001","Wed, Mar  7, 2001"
3465,East Texas Regional,Longview,United States,GGG,KGGG,32.384014,-94.711486,365,-6,A,"Longview, TX",152,152,154,155,4.717105263157895,9.756578947368427,15.0,24.0,"Wed, Mar 28, 2001","Fri, Mar  2, 2001"
4038,Gulfport-Biloxi,Gulfport,United States,GPT,KGPT,30.407278,-89.070111,28,-6,A,"Gulfport/Biloxi, MS",88,88,88,88,4.534090909090909,8.090909090909092,7.0,16.0,"Sat, Mar  3, 2001","Wed, Mar  7, 2001"
3653,Austin Straubel International,Green Bay,United States,GRB,KGRB,44.485072,-88.129589,695,-6,A,"Green Bay, WI",354,354,358,358,3.5282485875706215,10.175141242937853,8.0,40.0,"Sat, Mar 24, 2001","Thu, Mar 15, 2001"
3685,Gerald R. Ford International,Grand Rapids,United States,GRR,KGRR,42.880833,-85.522806,794,-5,A,"Grand Rapids, MI",929,931,946,949,4.143164693218517,12.494092373791617,21.0,74.0,"Sat, Mar 31, 2001","Mon, Mar 12, 2001"
4008,Piedmont Triad,Greensboro,United States,GSO,KGSO,36.09775,-79.937306,925,-5,A,"Greensboro/High Point, NC",1369,1361,1441,1437,4.359386413440477,14.47318148420279,46.0,128.0,"Sun, Mar 18, 2001","Sun, Mar  4, 2001"
4034,Greenville-Spartanburg International,Greenville,United States,GSP,KGSP,34.895556,-82.218889,964,-5,A,"Greer, SC",619,615,642,642,4.565428109854605,14.08130081300813,17.0,76.0,"Tue, Mar 20, 2001","Fri, Mar  2, 2001"
3880,Great Falls International,Great Falls,United States,GTF,KGTF,47.482,-111.370689,3677,-7,A,"Great Falls, MT",183,184,186,186,3.7650273224043715,9.63586956521739,7.0,74.0,"Tue, Mar  6, 2001","Thu, Mar 15, 2001"
7051,Gunnison - Crested Butte,Gunnison,United States,GUC,KGUC,38.533889,-106.933056,7678,-7,A,"Gunnison, CO",67,66,67,66,2.8358208955223883,12.893939393939394,5.0,37.0,"Sat, Mar  3, 2001","Sun, Mar 11, 2001"
4339,Yampa Valley,Hayden,United States,HDN,KHDN,40.481181,-107.21766,6602,-7,A,"Hayden, CO",162,165,174,173,3.654320987654321,15.224242424242425,8.0,52.0,"Sat, Mar 10, 2001","Thu, Mar 29, 2001"
3504,Helena Regional,Helena,United States,HLN,KHLN,46.606806,-111.98275,3877,-7,A,"Helena, MT",62,62,62,62,2.5806451612903225,9.56451612903226,5.0,20.0,"Sat, Mar  3, 2001","Fri, Mar 30, 2001"
3728,Honolulu International,Honolulu,United States,HNL,PHNL,21.318681,-157.922428,13,-10,N,"Honolulu, HI",3396,3388,3458,3441,4.0780329799764425,11.810802833530117,41.0,60.0,"Sat, Mar  3, 2001","Mon, Mar  5, 2001"
3566,William P. Hobby,Houston,United States,HOU,KHOU,29.645419,-95.278889,46,-6,A,"Houston, TX",5048,5067,5171,5168,4.04774167987322,8.676731793960919,66.0,107.0,"Thu, Mar  1, 2001","Fri, Mar 23, 2001"
3589,Westchester County,White Plains,United States,HPN,KHPN,41.066959,-73.707575,439,-5,A,"White Plains, NY",521,521,629,630,6.188099808061419,13.15163147792706,92.0,107.0,"Fri, Mar  2, 2001","Fri, Mar  2, 2001"
3560,Valley International,Harlingen,United States,HRL,KHRL,26.2285,-97.654389,36,-6,A,"Harlingen/San Benito, TX",468,464,473,472,2.3696581196581206,6.456896551724135,21.0,88.0,"Sun, Mar 25, 2001","Thu, Mar 15, 2001"
4113,Huntsville International Airport-Carl T. Jones Field,Huntsville,United States,HSV,KHSV,34.6371944,-86.7750556,629,-6,A,"Huntsville, AL",528,526,543,544,4.310606060606064,12.20532319391635,18.0,74.0,"Thu, Mar  1, 2001","Mon, Mar 12, 2001"
3714,Washington Dulles International,Washington,United States,IAD,KIAD,38.944533,-77.455811,313,-5,A,"Washington, DC",4450,4434,4654,4658,6.24157303370788,16.862426702751538,38.0,177.0,"Thu, Mar  1, 2001","Tue, Mar 13, 2001"
3550,George Bush Intercontinental Houston,Houston,United States,IAH,KIAH,29.984433,-95.341442,97,-6,A,"Houston, TX",11128,11190,11316,11318,6.967289719626163,18.780875781948104,105.0,173.0,"Wed, Mar 14, 2001","Thu, Mar  8, 2001"
3457,Wichita Mid Continent,Wichita,United States,ICT,KICT,37.649944,-97.433056,1333,-6,A,"Wichita, KS",705,700,711,711,4.317730496453896,11.455714285714281,13.0,51.0,"Fri, Mar 16, 2001","Sat, Mar 31, 2001"
3845,Wilmington International,Wilmington,United States,ILM,KILM,34.270615,-77.902569,32,-5,A,"Wilmington, NC",176,177,186,186,4.238636363636367,9.395480225988708,8.0,23.0,"Sun, Mar 18, 2001","Fri, Mar  2, 2001"
3585,Indianapolis International,Indianapolis,United States,IND,KIND,39.717331,-86.294383,797,-5,A,"Indianapolis, IN",3230,3232,3278,3278,6.942414860681117,12.461324257425758,30.0,106.0,"Fri, Mar  9, 2001","Thu, Mar 22, 2001"
3857,Long Island MacArthur,Islip,United States,ISP,KISP,40.79525,-73.100222,99,-5,A,"Islip, NY",924,927,993,995,3.7813852813852824,8.946062567421762,20.0,50.0,"Sat, Mar 24, 2001","Mon, Mar 19, 2001"
3947,Ithaca Tompkins Regional,Ithaca,United States,ITH,KITH,42.491028,-76.458444,1099,-5,A,"Ithaca/Cortland, NY",109,110,120,120,3.467889908256881,12.736363636363636,7.0,57.0,"Sat, Mar 17, 2001","Fri, Mar  2, 2001"
3415,Hilo International,Hilo,United States,ITO,PHTO,19.721375,-155.048469,38,-10,N,"Hilo, HI",433,432,434,434,3.4180138568129323,5.333333333333336,11.0,13.0,"Mon, Mar  5, 2001","Sat, Mar  3, 2001"
4027,Jackson Hole Airport,Jacksn Hole,United States,JAC,KJAC,43.60733333,-110.73775,6451,-7,A,"Jackson, WY",132,132,134,133,3.8484848484848513,14.022727272727273,19.0,37.0,"Fri, Mar 30, 2001","Sun, Mar 18, 2001"
3580,Jackson Evers International,Jackson,United States,JAN,KJAN,32.311167,-90.075889,346,-6,A,"Jackson/Vicksburg, MS",881,881,892,895,4.129398410896704,9.61520998864925,15.0,48.0,"Wed, Mar 14, 2001","Wed, Mar 21, 2001"
3712,Jacksonville International,Jacksonville,United States,JAX,KJAX,30.494056,-81.687861,30,-5,A,"Jacksonville, FL",2348,2351,2396,2398,4.666524701873935,11.22628668651638,29.0,93.0,"Fri, Mar 30, 2001","Mon, Mar 19, 2001"
3797,John F. Kennedy International,New York,United States,JFK,KJFK,40.639751,-73.778925,13,-5,A,"New York, NY",5050,5077,5567,5572,9.42594059405943,24.706519598187903,74.0,127.0,"Fri, Mar  2, 2001","Tue, Mar 13, 2001"
3492,Juneau International,Juneau,United States,JNU,PAJN,58.354972,-134.576278,21,-9,A,"Juneau, AK",303,310,310,310,3.627062706270627,10.835483870967744,15.0,31.0,"Fri, Mar 23, 2001","Thu, Mar 15, 2001"
3514,Kona International At Keahole,Kona,United States,KOA,PHKO,19.738767,-156.045631,47,-10,N,"Kona, HI",715,713,718,716,2.765034965034965,6.123422159887798,9.0,20.0,"Mon, Mar 19, 2001","Thu, Mar 22, 2001"
3808,Ketchikan International,Ketchikan,United States,KTN,PAKT,55.355556,-131.71375,88,-9,A,"Ketchikan, AK",184,186,186,186,3.902173913043478,9.7741935483871,7.0,37.0,"Tue, Mar 20, 2001","Fri, Mar 30, 2001"
3544,Capital City,Lansing,United States,LAN,KLAN,42.7787,-84.587357,861,-5,A,"Lansing, MI",198,197,199,199,3.8686868686868685,9.269035532994929,7.0,92.0,"Thu, Mar 22, 2001","Sat, Mar 17, 2001"
3877,McCarran International,Las Vegas,United States,LAS,KLAS,36.080056,-115.15225,2141,-8,A,"Las Vegas, NV",11717,11683,11848,11815,5.349150806520423,14.476846700333814,54.0,71.0,"Sun, Mar 18, 2001","Fri, Mar  9, 2001"
4256,Lawton-Fort Sill Regional Airport,Lawton,United States,LAW,KLAW,34.5677144,-98.4166367,1110,-6,A,"Lawton/Fort Sill, OK",182,179,187,187,4.010989010989011,10.424581005586594,19.0,32.0,"Thu, Mar 15, 2001","Mon, Mar 12, 2001"
3484,Los Angeles International,Los Angeles,United States,LAX,KLAX,33.942536,-118.408075,126,-8,A,"Los Angeles, CA",19634,19656,20470,20452,8.447590913721195,16.161986161986004,74.0,159.0,"Sat, Mar  3, 2001","Sun, Mar 18, 2001"
3829,Lubbock Preston Smith International,Lubbock,United States,LBB,KLBB,33.663639,-101.822778,3282,-6,A,"Lubbock, TX",731,735,745,747,2.9261285909712735,8.223129251700682,14.0,41.0,"Sun, Mar 11, 2001","Mon, Mar 26, 2001"
4017,Blue Grass,Lexington KY,United States,LEX,KLEX,38.0365,-84.605889,979,-5,A,"Lexington, KY",270,268,274,272,4.829629629629628,10.235074626865675,12.0,37.0,"Fri, Mar 30, 2001","Thu, Mar 29, 2001"
3493,Lafayette Regional,Lafayette,United States,LFT,KLFT,30.205278,-91.987611,43,-6,A,"Lafayette, LA",181,183,185,186,5.1767955801105,9.677595628415306,19.0,23.0,"Mon, Mar  5, 2001","Wed, Mar 28, 2001"
3697,LaGuardia Airport,New York,United States,LGA,KLGA,40.777245,-73.872608,22,-5,A,"New York, NY",9562,9607,10893,10896,8.852227567454504,25.950348704069878,136.0,177.0,"Fri, Mar  2, 2001","Mon, Mar  5, 2001"
3582,Long Beach,Long Beach,United States,LGB,KLGB,33.817722,-118.151611,60,-8,A,"Long Beach, CA",254,254,260,261,4.590551181102363,12.523622047244094,10.0,37.0,"Fri, Mar  2, 2001","Sat, Mar  3, 2001"
3602,Lihue,Lihue,United States,LIH,PHLI,21.975983,-159.338958,153,-10,N,"Lihue, HI",793,793,817,815,4.030264817150063,4.291298865069354,12.0,20.0,"Thu, Mar 22, 2001","Sun, Mar  4, 2001"
3660,Adams Field,Little Rock,United States,LIT,KLIT,34.729444,-92.224306,262,-6,A,"Little Rock, AR",1391,1387,1409,1409,3.962616822429908,9.577505407354005,35.0,60.0,"Sat, Mar 17, 2001","Thu, Mar 15, 2001"
3543,Lincoln,Lincoln,United States,LNK,KLNK,40.850971,-96.75925,1219,-6,A,"Lincoln, NE",181,181,181,181,3.723756906077348,10.81767955801105,9.0,144.0,"Sat, Mar 31, 2001","Thu, Mar 22, 2001"
3691,Laredo International,Laredo,United States,LRD,KLRD,27.54375,-99.461556,508,-6,A,"Laredo, TX",121,121,123,124,4.471074380165289,10.17355371900827,11.0,37.0,"Mon, Mar 19, 2001","Sun, Mar 11, 2001"
4044,LaCrosse Municipal,LaCrosse,United States,LSE,KLSE,43.878986,-91.256711,654,-6,A,"La Crosse, WI",143,143,145,146,3.5174825174825175,9.71328671328671,8.0,47.0,"Wed, Mar  7, 2001","Mon, Mar 12, 2001"
3652,Midland International,Midland,United States,MAF,KMAF,31.942528,-102.201914,2871,-6,A,"Midland/Odessa, TX",627,629,640,642,3.271132376395536,8.316375198728148,11.0,35.0,"Sun, Mar 25, 2001","Sun, Mar 11, 2001"
4128,MBS International,Saginaw,United States,MBS,KMBS,43.532913,-84.079647,668,-5,A,"Saginaw/Bay City/Midland, MI",346,344,350,349,4.705202312138728,9.34011627906977,31.0,69.0,"Fri, Mar 23, 2001","Mon, Mar  5, 2001"
3458,Kansas City International,Kansas City,United States,MCI,KMCI,39.297606,-94.713905,1026,-6,A,"Kansas City, MO",5255,5262,5328,5330,4.572216936251185,10.789623717217808,50.0,124.0,"Sat, Mar 10, 2001","Tue, Mar 20, 2001"
3878,Orlando International,Orlando,United States,MCO,KMCO,28.429394,-81.308994,96,-5,A,"Orlando, FL",8950,8963,9158,9158,5.509720670391056,15.2612964409238,59.0,166.0,"Fri, Mar  9, 2001","Tue, Mar 13, 2001"
3542,Harrisburg International,Harrisburg,United States,MDT,KMDT,40.193494,-76.763403,310,-5,A,"Harrisburg, PA",554,556,585,584,4.294223826714804,12.003597122302164,35.0,41.0,"Sun, Mar  4, 2001","Thu, Mar 29, 2001"
3747,Chicago Midway International,Chicago,United States,MDW,KMDW,41.785972,-87.752417,620,-6,A,"Chicago, IL",4179,4188,4226,4225,4.56520698731755,9.981614135625577,53.0,79.0,"Tue, Mar 20, 2001","Sat, Mar 17, 2001"
3473,Memphis International,Memphis,United States,MEM,KMEM,35.042417,-89.976667,341,-6,A,"Memphis, TN",4955,4949,5050,5040,5.352976791120062,14.680541523540118,37.0,122.0,"Tue, Mar 13, 2001","Sat, Mar  3, 2001"
3826,McAllen Miller International,Mcallen,United States,MFE,KMFE,26.175833,-98.238611,107,-6,A,"Mission/McAllen/Edinburg, TX",331,331,331,332,3.9395770392749223,9.419939577039273,17.0,31.0,"Mon, Mar 26, 2001","Thu, Mar  1, 2001"
4101,Rogue Valley International Medford,Medford,United States,MFR,KMFR,42.374228,-122.8735,1335,-8,A,"Medford, OR",122,123,124,124,3.237704918032787,9.943089430894302,6.0,68.0,"Mon, Mar 12, 2001","Tue, Mar  6, 2001"
4011,Manchester Regional Airport,Manchester NH,United States,MHT,KMHT,42.932556,-71.435667,266,-5,A,"Manchester, NH",1283,1283,1374,1374,4.339828526890095,12.322681215900213,17.0,120.0,"Tue, Mar 13, 2001","Tue, Mar 13, 2001"
3576,Miami International,Miami,United States,MIA,KMIA,25.79325,-80.290556,8,-5,A,"Miami, FL",7005,7025,7272,7263,7.286652391149183,20.208825622775834,85.0,222.0,"Thu, Mar 29, 2001","Thu, Mar 29, 2001"
3717,General Mitchell International,Milwaukee,United States,MKE,KMKE,42.947222,-87.896583,723,-6,A,"Milwaukee, WI",1576,1572,1613,1613,4.401015228426385,12.578244274809165,19.0,113.0,"Wed, Mar 28, 2001","Thu, Mar  8, 2001"
3671,Melbourne International,Melbourne,United States,MLB,KMLB,28.102753,-80.645258,33,-5,A,"Melbourne, FL",154,154,155,155,4.98701298701299,12.2012987012987,9.0,80.0,"Sat, Mar  3, 2001","Thu, Mar 29, 2001"
4072,Quad City International,Moline,United States,MLI,KMLI,41.448528,-90.507539,590,-6,A,"Moline, IL",179,180,181,182,3.251396648044693,8.122222222222224,10.0,28.0,"Thu, Mar 29, 2001","Fri, Mar 16, 2001"
3732,Monroe Regional,Monroe,United States,MLU,KMLU,32.510864,-92.037689,79,-6,A,"Monroe, LA",183,183,185,185,4.825136612021858,10.830601092896183,12.0,29.0,"Fri, Mar 16, 2001","Thu, Mar 29, 2001"
3782,Mobile Regional,Mobile,United States,MOB,KMOB,30.691231,-88.242814,219,-6,A,"Mobile, AL",347,349,370,371,5.628242074927956,10.55300859598854,29.0,47.0,"Sun, Mar  4, 2001","Sun, Mar  4, 2001"
3498,Minot International,Minot,United States,MOT,KMOT,48.259378,-101.280333,1716,-6,A,"Minot, ND",91,92,93,93,4.417582417582419,8.869565217391305,8.0,45.0,"Thu, Mar 22, 2001","Sat, Mar 10, 2001"
6838,Sawyer International Airport,Marquette,United States,MQT,KMQT,46.353611,-87.395278,1221,-5,A,"Marquette, MI",25,25,25,25,4.8,12.64,8.0,31.0,"Thu, Mar  8, 2001","Mon, Mar  5, 2001"
3948,Monterey Peninsula,Monterey,United States,MRY,KMRY,36.587,-121.842944,257,-8,A,"Monterey, CA",185,182,186,185,3.291891891891892,11.417582417582413,8.0,45.0,"Thu, Mar  8, 2001","Sat, Mar 31, 2001"
3459,Dane County Regional-Truax Field,Madison,United States,MSN,KMSN,43.139858,-89.337514,887,-6,A,"Madison, WI",585,586,601,601,3.6205128205128205,11.704778156996584,25.0,52.0,"Thu, Mar 15, 2001","Mon, Mar  5, 2001"
4216,Missoula International,Missoula,United States,MSO,KMSO,46.916306,-114.090556,3205,-7,A,"Missoula, MT",155,154,155,154,4.41290322580645,10.24675324675325,10.0,27.0,"Tue, Mar 27, 2001","Thu, Mar 15, 2001"
3858,Minneapolis St. Paul International,Minneapolis,United States,MSP,KMSP,44.881956,-93.221767,841,-6,A,"Minneapolis, MN",11900,11932,12228,12227,6.170672268907551,18.281176667784163,48.0,175.0,"Mon, Mar 12, 2001","Mon, Mar 12, 2001"
3861,Louis Armstrong New Orleans International,New Orleans,United States,MSY,KMSY,29.993389,-90.258028,4,-6,A,"New Orleans, LA",4478,4504,4535,4533,4.090218847699867,9.8197158081705,30.0,194.0,"Sun, Mar 11, 2001","Tue, Mar 27, 2001"
6880,Montrose Regional Airport,Montrose CO,United States,MTJ,KMTJ,38.509794,-107.894242,5759,-7,A,"Montrose/Delta, CO",72,72,72,72,4.583333333333333,17.388888888888896,22.0,122.0,"Sat, Mar  3, 2001","Sat, Mar 17, 2001"
3515,Myrtle Beach International,Myrtle Beach,United States,MYR,KMYR,33.67975,-78.928333,25,-5,A,"Myrtle Beach, SC",229,229,231,231,4.379912663755455,11.253275109170314,37.0,29.0,"Tue, Mar 20, 2001","Sun, Mar  4, 2001"
3453,Metropolitan Oakland International,Oakland,United States,OAK,KOAK,37.721278,-122.220722,9,-8,A,"Oakland, CA",5302,5299,5371,5371,4.522821576763487,9.715795433100602,35.0,89.0,"Sun, Mar  4, 2001","Tue, Mar 20, 2001"
3456,Kahului,Kahului,United States,OGG,PHOG,20.89865,-156.430458,54,-10,N,"Kahului, HI",1465,1452,1484,1477,4.180204778156996,6.577134986225896,36.0,39.0,"Sun, Mar 18, 2001","Sat, Mar 24, 2001"
3863,Will Rogers World,Oklahoma City,United States,OKC,KOKC,35.393089,-97.600733,1295,-6,A,"Oklahoma City, OK",1914,1911,1934,1934,3.9101358411703253,9.4589220303506,28.0,133.0,"Thu, Mar  1, 2001","Thu, Mar 15, 2001"
3454,Eppley Airfield,Omaha,United States,OMA,KOMA,41.303167,-95.894069,984,-6,A,"Omaha, NE",1566,1560,1575,1574,3.371008939974457,10.299358974358988,20.0,91.0,"Wed, Mar 28, 2001","Mon, Mar 12, 2001"
3615,Nome,Nome,United States,OME,PAOM,64.512203,-165.445247,37,-9,A,"Nome, AK",85,85,86,86,3.235294117647059,6.6,8.0,20.0,"Mon, Mar 12, 2001","Sat, Mar 17, 2001"
3734,Ontario International,Ontario,United States,ONT,KONT,34.056,-117.601194,944,-8,A,"Ontario, CA",3046,3063,3089,3106,3.8959290873276426,9.11459353574927,17.0,48.0,"Thu, Mar 22, 2001","Mon, Mar 26, 2001"
3830,Chicago O'Hare International,Chicago,United States,ORD,KORD,41.978603,-87.904842,668,-6,A,"Chicago, IL",28327,28496,29780,29782,7.882055988985807,17.20922234699606,101.0,162.0,"Fri, Mar 16, 2001","Fri, Mar 30, 2001"
3611,Norfolk International,Norfolk,United States,ORF,KORF,36.894611,-76.201222,26,-5,A,"Norfolk, VA",1501,1501,1564,1564,3.8760826115922717,11.548967355096597,26.0,91.0,"Fri, Mar 16, 2001","Sun, Mar 11, 2001"
6426,Worcester Regional Airport,Worcester,United States,ORH,KORH,42.2673,-71.8757,1009,-5,U,"Worcester, MA",73,73,93,93,3.4520547945205484,11.589041095890414,12.0,31.0,"Sun, Mar 25, 2001","Sun, Mar  4, 2001"
3693,Ralph WienMemorial,Kotzebue,United States,OTZ,PAOT,66.884678,-162.59855,11,-9,A,"Kotzebue, AK",73,73,75,75,3.1095890410958904,6.109589041095891,7.0,13.0,"Sat, Mar  3, 2001","Sat, Mar  3, 2001"
3722,Palm Beach International,West Palm Beach,United States,PBI,KPBI,26.683161,-80.095589,19,-5,A,"West Palm Beach/Palm Beach, FL",2525,2529,2597,2599,4.643564356435645,14.630684064847772,22.0,124.0,"Fri, Mar  2, 2001","Wed, Mar 21, 2001"
3720,Portland International,Portland,United States,PDX,KPDX,45.588722,-122.5975,30,-8,A,"Portland, OR",4698,4699,4778,4772,4.088548318433366,10.923600766120469,19.0,60.0,"Sat, Mar 10, 2001","Thu, Mar 15, 2001"
3752,Philadelphia International,Philadelphia,United States,PHL,KPHL,39.871944,-75.241139,36,-5,A,"Philadelphia, PA",10114,10121,10710,10719,7.3133280601146895,21.139215492540256,67.0,154.0,"Fri, Mar 16, 2001","Sun, Mar  4, 2001"
3462,Phoenix Sky Harbor International,Phoenix,United States,PHX,KPHX,33.434278,-112.011583,1135,-7,N,"Phoenix, AZ",16178,16236,16502,16493,6.6017431079243485,14.984971667898494,65.0,120.0,"Tue, Mar 13, 2001","Thu, Mar  1, 2001"
4046,Peoria Regional,Peoria,United States,PIA,KPIA,40.664203,-89.693258,660,-6,A,"Peoria, IL",169,169,175,176,3.0591715976331346,10.201183431952666,9.0,61.0,"Sun, Mar  4, 2001","Fri, Mar 16, 2001"
3570,Pittsburgh International,Pittsburgh (pennsylva),United States,PIT,KPIT,40.491467,-80.232872,1204,-5,A,"Pittsburgh, PA",8992,9047,9339,9339,6.832072953736665,16.720791422571008,51.0,96.0,"Wed, Mar 21, 2001","Sun, Mar 25, 2001"
3564,Pensacola Regional,Pensacola,United States,PNS,KPNS,30.473425,-87.186611,121,-6,A,"Pensacola, FL",479,473,491,486,4.463465553235909,11.532769556025375,27.0,53.0,"Sat, Mar 17, 2001","Thu, Mar 15, 2001"
6133,Tri Cities Airport,Pasco,United States,PSC,PSC,46.2647,-119.119,410,-8,A,"Pasco/Kennewick/Richland, WA",119,117,124,124,4.462184873949578,10.17948717948718,8.0,20.0,"Fri, Mar  2, 2001","Tue, Mar  6, 2001"
4147,Petersburg James A. Johnson,Petersburg,United States,PSG,PAPG,56.801667,-132.945278,105,-9,A,"Petersburg, AK",55,56,62,62,2.8545454545454545,6.339285714285714,5.0,12.0,"Sun, Mar  4, 2001","Wed, Mar 21, 2001"
3839,Palm Springs International,Palm Springs,United States,PSP,KPSP,33.829667,-116.506694,477,-8,A,"Palm Springs, CA",1036,1038,1050,1052,4.374517374517371,11.711946050096335,21.0,60.0,"Sat, Mar 24, 2001","Fri, Mar  9, 2001"
3641,Theodore Francis Green State,Providence,United States,PVD,KPVD,41.732581,-71.420383,55,-5,A,"Providence, RI",2397,2392,2544,2546,4.364205256570718,12.99707357859532,52.0,113.0,"Fri, Mar 16, 2001","Mon, Mar  5, 2001"
3862,Portland International Jetport,Portland,United States,PWM,KPWM,43.646161,-70.309281,77,-5,A,"Portland, ME",685,684,805,806,3.678832116788321,12.346491228070162,13.0,120.0,"Fri, Mar  2, 2001","Fri, Mar 30, 2001"
4087,Rapid City Regional Airport,Rapid City,United States,RAP,KRAP,44.045278,-103.057222,3204,-7,A,"Rapid City, SD",84,83,88,88,4.059523809523811,9.602409638554215,7.0,46.0,"Wed, Mar 14, 2001","Thu, Mar 29, 2001"
3626,Raleigh Durham International,Raleigh-durham,United States,RDU,KRDU,35.877639,-78.787472,435,-5,A,"Raleigh/Durham, NC",2910,2921,2983,2987,4.438831615120286,11.96302636083532,39.0,78.0,"Mon, Mar  5, 2001","Mon, Mar 12, 2001"
3608,Richmond International,Richmond,United States,RIC,KRIC,37.505167,-77.319667,167,-5,A,"Richmond, VA",1565,1565,1635,1635,4.782747603833874,11.837060702875402,34.0,88.0,"Fri, Mar  9, 2001","Thu, Mar 29, 2001"
3807,Reno Tahoe International,Reno,United States,RNO,KRNO,39.499108,-119.768108,4415,-8,A,"Reno, NV",2339,2338,2345,2346,3.973920478837105,10.606928999144563,15.0,65.0,"Wed, Mar 21, 2001","Fri, Mar  9, 2001"
4016,Roanoke Regional,Roanoke VA,United States,ROA,KROA,37.325472,-79.975417,1175,-5,A,"Roanoke, VA",175,174,186,186,4.4,10.44827586206897,7.0,76.0,"Sat, Mar  3, 2001","Tue, Mar 13, 2001"
3622,Greater Rochester International,Rochester,United States,ROC,KROC,43.118866,-77.672389,559,-5,A,"Rochester, NY",1374,1372,1466,1466,5.662299854439593,16.403061224489804,21.0,205.0,"Wed, Mar 14, 2001","Wed, Mar 21, 2001"
4048,Rochester,Rochester,United States,RST,KRST,43.908283,-92.500014,1317,-6,A,"Rochester, MN",191,192,198,200,3.738219895287958,10.921874999999991,7.0,82.0,"Tue, Mar 20, 2001","Thu, Mar 15, 2001"
3793,Southwest Florida International,Fort Myers,United States,RSW,KRSW,26.536167,-81.755167,30,-5,A,"Fort Myers, FL",1945,1955,1997,1999,4.4740359897172235,15.086956521739133,33.0,83.0,"Wed, Mar 14, 2001","Wed, Mar 21, 2001"
3731,San Diego International,San Diego,United States,SAN,KSAN,32.733556,-117.189667,17,-8,A,"San Diego, CA",6912,6904,7049,7045,3.544704861111109,12.698146002317488,38.0,89.0,"Thu, Mar 15, 2001","Fri, Mar  2, 2001"
3621,San Antonio International,San Antonio,United States,SAT,KSAT,29.533694,-98.469778,809,-6,A,"San Antonio, TX",3189,3185,3206,3205,3.452179366572591,9.68383045525902,30.0,246.0,"Thu, Mar 22, 2001","Wed, Mar 14, 2001"
3613,Savannah Hilton Head International,Savannah,United States,SAV,KSAV,32.127583,-81.202139,51,-5,A,"Savannah, GA",518,518,527,527,5.82046332046332,12.588803088803092,42.0,86.0,"Sat, Mar 24, 2001","Sat, Mar 31, 2001"
3949,Santa Barbara Municipal,Santa Barbara,United States,SBA,KSBA,34.426211,-119.840372,10,-8,A,"Santa Barbara, CA",521,523,552,553,3.560460652591171,9.701720841300192,10.0,101.0,"Sun, Mar 18, 2001","Fri, Mar  2, 2001"
4359,South Bend Regional,South Bend,United States,SBN,KSBN,41.708661,-86.31725,799,-5,A,"South Bend, IN",113,112,120,120,3.7610619469026547,11.508928571428575,7.0,45.0,"Fri, Mar  2, 2001","Sat, Mar 17, 2001"
5768,San Luis County Regional Airport,San Luis Obispo,United States,SBP,KSBP,35.2368,-120.642,212,-8,A,"San Luis Obispo, CA",206,204,212,212,3.6941747572815533,12.696078431372548,9.0,54.0,"Fri, Mar 23, 2001","Wed, Mar 28, 2001"
3620,Deadhorse,Deadhorse,United States,SCC,PASC,70.19475,-148.465167,64,-9,A,"Deadhorse, AK",30,31,31,31,2.966666666666667,7.806451612903226,5.0,16.0,"Tue, Mar 27, 2001","Tue, Mar 20, 2001"
4014,Louisville International Airport,Louisville,United States,SDF,KSDF,38.1740858,-85.7364989,501,-5,A,"Louisville, KY",1824,1817,1839,1836,4.614035087719294,9.877820583379181,23.0,51.0,"Tue, Mar 20, 2001","Thu, Mar 15, 2001"
3577,Seattle Tacoma International,Seattle,United States,SEA,KSEA,47.449,-122.309306,433,-8,A,"Seattle, WA",8289,8294,8499,8495,5.565568826155143,15.287195563057633,36.0,94.0,"Fri, Mar  2, 2001","Thu, Mar 15, 2001"
3469,San Francisco International,San Francisco,United States,SFO,KSFO,37.618972,-122.374889,13,-8,A,"San Francisco, CA",10114,10147,10852,10837,5.6940874035989815,16.76091455602645,46.0,125.0,"Fri, Mar 23, 2001","Mon, Mar 12, 2001"
4348,Springfield Branson National,Springfield,United States,SGF,KSGF,37.245667,-93.388639,1268,-6,A,"Springfield, MO",442,440,454,456,4.083710407239817,8.954545454545459,19.0,35.0,"Sun, Mar  4, 2001","Sat, Mar  3, 2001"
3609,Shreveport Regional,Shreveport,United States,SHV,KSHV,32.446629,-93.8256,258,-6,A,"Shreveport, LA",545,543,558,557,5.031192660550459,10.128913443830573,38.0,56.0,"Thu, Mar 22, 2001","Thu, Mar 15, 2001"
3856,Sitka Rocky Gutierrez,Sitka,United States,SIT,PASI,57.047138,-135.361611,21,-9,A,"Sitka, AK",93,93,93,93,3.6774193548387095,9.526881720430106,6.0,32.0,"Sun, Mar 25, 2001","Wed, Mar 28, 2001"
3748,Norman Y. Mineta San Jose International,San Jose,United States,SJC,KSJC,37.3626,-121.929022,62,-8,A,"San Jose, CA",6214,6212,6426,6418,4.8672352751850445,15.846426271732106,63.0,130.0,"Sun, Mar 18, 2001","Wed, Mar 14, 2001"
3708,San Angelo Regional-Mathis Field,San Angelo,United States,SJT,KSJT,31.35775,-100.496306,1919,-6,A,"San Angelo, TX",206,206,212,212,4.140776699029128,9.917475728155337,36.0,108.0,"Tue, Mar  6, 2001","Thu, Mar 15, 2001"
3536,Salt Lake City International,Salt Lake City,United States,SLC,KSLC,40.788389,-111.977772,4227,-7,A,"Salt Lake City, UT",6667,6671,6795,6796,5.824358782060906,16.095787737970323,56.0,118.0,"Fri, Mar 16, 2001","Thu, Mar 15, 2001"
3817,Sacramento International,Sacramento,United States,SMF,KSMF,38.695417,-121.590778,27,-8,A,"Sacramento, CA",3318,3319,3342,3344,3.71971066907776,9.100030129557084,21.0,48.0,"Sun, Mar 11, 2001","Thu, Mar 22, 2001"
3867,John Wayne Airport Orange County,Santa Ana,United States,SNA,KSNA,33.675667,-117.868222,56,-8,A,"Santa Ana, CA",3553,3558,3676,3681,6.781030115395444,13.982574480044967,49.0,96.0,"Sun, Mar 25, 2001","Sun, Mar  4, 2001"
3680,Sheppard AFB Wichita Falls Municipal,Wichita Falls,United States,SPS,KSPS,33.988797,-98.491894,1019,-6,A,"Wichita Falls, TX",185,183,185,186,6.508108108108108,11.382513661202184,13.0,28.0,"Fri, Mar 23, 2001","Sat, Mar 10, 2001"
4067,Sarasota Bradenton International,Sarasota,United States,SRQ,KSRQ,27.395444,-82.554389,30,-5,A,"Sarasota/Bradenton, FL",536,545,557,557,4.613805970149259,11.526605504587158,16.0,56.0,"Sun, Mar 25, 2001","Sat, Mar 24, 2001"
3678,Lambert St. Louis International,St. Louis,United States,STL,KSTL,38.748697,-90.370028,618,-6,A,"St. Louis, MO",13855,13890,14114,14113,5.617899675207511,16.391432685385126,59.0,147.0,"Sun, Mar 11, 2001","Thu, Mar 22, 2001"
3753,Sioux Gateway-Colonel Bud Day Field,Sioux City,United States,SUX,KSUX,42.402603,-96.384367,1098,-6,A,"Sioux City, IA",55,56,57,57,4.036363636363637,7.428571428571429,11.0,25.0,"Sun, Mar 11, 2001","Thu, Mar 22, 2001"
3661,Stewart International,Newburgh,United States,SWF,KSWF,41.504094,-74.104839,491,-5,A,"Newburgh/Poughkeepsie, NY",86,87,93,93,5.0813953488372094,15.333333333333334,14.0,68.0,"Wed, Mar  7, 2001","Thu, Mar  8, 2001"
3745,Syracuse Hancock International,Syracuse,United States,SYR,KSYR,43.111187,-76.106311,421,-5,A,"Syracuse, NY",1004,1002,1053,1052,4.598605577689241,17.252495009980034,19.0,85.0,"Fri, Mar  9, 2001","Tue, Mar 13, 2001"
3698,Tallahassee Regional,Tallahassee,United States,TLH,KTLH,30.396528,-84.350333,81,-5,A,"Tallahassee, FL",152,151,155,155,6.361842105263156,12.218543046357613,10.0,33.0,"Sun, Mar 25, 2001","Mon, Mar 19, 2001"
4040,Toledo,Toledo,United States,TOL,KTOL,41.586806,-83.807833,684,-5,A,"Toledo, OH",208,207,212,212,2.716346153846155,10.999999999999996,9.0,38.0,"Tue, Mar  6, 2001","Tue, Mar 20, 2001"
3646,Tampa International,Tampa,United States,TPA,KTPA,27.975472,-82.53325,26,-5,A,"Tampa, FL",6206,6220,6322,6321,4.910892684498875,13.48633440514469,37.0,165.0,"Sat, Mar 31, 2001","Tue, Mar 27, 2001"
4116,Tri-Cities Regional Airport,BRISTOL,United States,TRI,KTRI,36.4752222,-82.4074167,1519,-5,A,"Bristol/Johnson City/Kingsport, TN",60,60,62,62,4.166666666666665,7.8000000000000025,7.0,41.0,"Sun, Mar 25, 2001","Tue, Mar 20, 2001"
3855,Tulsa International,Tulsa,United States,TUL,KTUL,36.198389,-95.888111,677,-6,A,"Tulsa, OK",1942,1934,1966,1964,3.987126673532436,9.925025853154104,37.0,53.0,"Thu, Mar 15, 2001","Sun, Mar 25, 2001"
3636,Tucson International,Tucson,United States,TUS,KTUS,32.116083,-110.941028,2643,-7,N,"Tucson, AZ",1749,1746,1767,1766,3.8061749571183507,11.136884306987406,17.0,92.0,"Mon, Mar  5, 2001","Wed, Mar 14, 2001"
4023,Cherry Capital Airport,Traverse City,United States,TVC,KTVC,44.741445,-85.582235,624,-5,A,"Traverse City, MI",154,153,155,155,2.5909090909090926,12.633986928104575,7.0,47.0,"Sat, Mar 31, 2001","Mon, Mar  5, 2001"
3770,Texarkana Regional-Webb Field,Texarkana,United States,TXK,KTXK,33.453722,-93.991028,390,-6,A,"Texarkana, AR",146,146,150,151,3.712328767123288,9.157534246575342,13.0,21.0,"Fri, Mar  2, 2001","Tue, Mar 13, 2001"
3848,Tyler Pounds Regional,Tyler,United States,TYR,KTYR,32.354139,-95.402386,544,-6,A,"Tyler, TX",267,266,274,279,4.191011235955056,9.16917293233082,23.0,25.0,"Sat, Mar 31, 2001","Sun, Mar 18, 2001"
3676,McGhee Tyson,Knoxville,United States,TYS,KTYS,35.810972,-83.994028,981,-5,A,"Knoxville, TN",474,472,487,485,4.2573839662447295,11.887711864406775,16.0,79.0,"Tue, Mar 27, 2001","Sun, Mar  4, 2001"
3873,Eglin AFB,Valparaiso,United States,VPS,KVPS,30.48325,-86.5254,87,-6,A,"Valparaiso, FL",124,123,124,124,6.129032258064515,11.691056910569108,14.0,42.0,"Thu, Mar 22, 2001","Sun, Mar 18, 2001"
5969,Wrangell Airport,Wrangell,United States,WRG,PAWG,56.4843,-132.37,44,-9,A,"Wrangell, AK",56,56,62,62,2.999999999999999,5.375,6.0,12.0,"Wed, Mar  7, 2001","Tue, Mar  6, 2001"
4356,NW Arkansas Regional,Bentonville,United States,XNA,KXNA,36.2818694,-94.3068111,1287,-6,A,"Fayetteville, AR",515,510,541,541,4.634951456310675,9.888235294117647,17.0,57.0,"Thu, Mar 15, 2001","Mon, Mar  5, 2001"
6803,Yakutat,Yakutat,United States,YAK,PAYA,59.3012,-139.3937,33,-9,A,"Yakutat, AK",61,61,62,62,3.4918032786885247,7.016393442622951,8.0,14.0,"Sat, Mar 31, 2001","Sun, Mar 11, 2001"
