airport_id,name,city,country,iata_faa,iaco,latitude,longitude,altitude,zone,dst,city_state,avg_able_landings,avg_able_takeoffs,total_landings,total_takeoffs,avg_taxi_in,avg_taxi_out,longest_taxi_in,longest_taxi_out,lng_tx_in_date,lng_tx_out_date
4355,Lehigh Valley International,Allentown,United States,ABE,KABE,40.652083,-75.440806,393,-5,A,"Allentown/Bethlehem/Easton, PA",144,144,146,146,4.159722222222219,12.388888888888886,7.0,74.0,"Tue, Sep 10, 2002","Sun, Sep 29, 2002"
3718,Abilene Regional,Abilene,United States,ABI,KABI,32.411319,-99.681897,1791,-6,A,"Abilene, TX",200,199,201,201,4.9999999999999964,8.87437185929648,13.0,19.0,"Mon, Sep  9, 2002","Thu, Sep  5, 2002"
4019,Albuquerque International Sunport,Albuquerque,United States,ABQ,KABQ,35.0402222,-106.6091944,5355,-7,A,"Albuquerque, NM",2931,2934,2949,2951,4.251791197543516,9.636332651670083,25.0,52.0,"Tue, Sep 24, 2002","Tue, Sep  3, 2002"
3700,Waco Regional,Waco,United States,ACT,KACT,31.611289,-97.230519,516,-6,A,"Waco, TX",200,201,202,202,4.3950000000000005,9.338308457711443,11.0,25.0,"Sat, Sep  7, 2002","Fri, Sep  6, 2002"
3531,Kodiak,Kodiak,United States,ADQ,PADQ,57.749967,-152.493856,78,-9,A,"Kodiak, AK",60,60,60,60,3.4,6.216666666666667,8.0,19.0,"Mon, Sep  2, 2002","Thu, Sep 19, 2002"
3794,King Salmon,King Salmon,United States,AKN,PAKN,58.676778,-156.649278,68,-9,A,"King Salmon, AK",33,33,33,33,3.4545454545454546,4.636363636363637,6.0,11.0,"Sat, Sep 21, 2002","Fri, Sep  6, 2002"
3864,Albany International,Albany,United States,ALB,KALB,42.748267,-73.801692,285,-5,A,"Albany, NY",1134,1136,1139,1140,3.756613756613755,10.878521126760559,11.0,78.0,"Mon, Sep  2, 2002","Tue, Sep 17, 2002"
3840,Rick Husband Amarillo International,Amarillo,United States,AMA,KAMA,35.219369,-101.705931,3607,-6,A,"Amarillo, TX",529,528,539,538,3.7807183364839307,7.657196969696981,13.0,23.0,"Wed, Sep 25, 2002","Thu, Sep 26, 2002"
3774,Ted Stevens Anchorage International,Anchorage,United States,ANC,PANC,61.174361,-149.996361,152,-9,A,"Anchorage, AK",1731,1750,1773,1781,4.987868284228772,11.199428571428546,28.0,49.0,"Fri, Sep 13, 2002","Sun, Sep 15, 2002"
3682,Hartsfield Jackson Atlanta International,Atlanta,United States,ATL,KATL,33.636719,-84.428067,1026,-5,A,"Atlanta, GA",18139,18217,18308,18325,9.158939302056323,17.182247351375153,91.0,123.0,"Fri, Sep 20, 2002","Sat, Sep 21, 2002"
3673,Austin Bergstrom International,Austin,United States,AUS,KAUS,30.194528,-97.669889,542,-6,A,"Austin, TX",3187,3180,3225,3225,4.872607467838095,10.896855345911936,35.0,80.0,"Mon, Sep 23, 2002","Mon, Sep  9, 2002"
4007,Asheville Regional Airport,Asheville,United States,AVL,KAVL,35.436194,-82.541806,2165,-5,A,"Asheville, NC",27,28,27,28,3.259259259259259,13.821428571428571,5.0,35.0,"Thu, Sep  5, 2002","Mon, Sep  2, 2002"
4286,Wilkes Barre Scranton International,Scranton,United States,AVP,KAVP,41.338478,-75.723403,962,-5,A,"Scranton/Wilkes-Barre, PA",109,110,110,111,3.6055045871559632,10.009090909090913,7.0,35.0,"Sat, Sep  7, 2002","Fri, Sep 13, 2002"
4039,Kalamazoo,Kalamazoo,United States,AZO,KAZO,42.234875,-85.552058,874,-5,A,"Kalamazoo, MI",170,170,175,174,3.282352941176469,8.952941176470583,10.0,54.0,"Wed, Sep 25, 2002","Sat, Sep  7, 2002"
3825,Bradley International,Windsor Locks,United States,BDL,KBDL,41.938889,-72.683222,173,-5,A,"Hartford, CT",2621,2622,2640,2642,4.541777947348335,12.35049580472923,31.0,118.0,"Sun, Sep 22, 2002","Fri, Sep 27, 2002"
3599,Bethel,Bethel,United States,BET,PABE,60.779778,-161.838,121,-9,A,"Bethel, AK",109,109,115,115,3.009174311926606,5.4036697247706424,5.0,14.0,"Tue, Sep  3, 2002","Sat, Sep 14, 2002"
3463,Bangor International,Bangor,United States,BGR,KBGR,44.807444,-68.828139,192,-5,A,"Bangor, ME",257,257,259,265,4.202334630350197,9.284046692607005,10.0,102.0,"Thu, Sep 26, 2002","Mon, Sep  2, 2002"
3811,Birmingham International,Birmingham,United States,BHM,KBHM,33.562942,-86.75355,644,-6,A,"Birmingham, AL",1407,1407,1418,1419,3.161336176261549,10.076048329779672,36.0,133.0,"Thu, Sep  5, 2002","Sat, Sep  7, 2002"
4021,Billings Logan International Airport,Billings,United States,BIL,KBIL,45.80921,-108.537654,3652,-7,A,"Billings, MT",209,208,210,209,3.6363636363636362,10.75961538461538,15.0,102.0,"Fri, Sep 20, 2002","Sat, Sep  7, 2002"
4083,Bismarck Municipal Airport,Bismarck,United States,BIS,KBIS,46.775842,-100.757931,1661,-6,A,"Bismarck/Mandan, ND",113,113,115,115,3.3716814159292037,10.42477876106195,6.0,145.0,"Wed, Sep 25, 2002","Mon, Sep 30, 2002"
4037,Central Illinois Regional,Bloomington,United States,BMI,KBMI,40.477111,-88.915917,871,-6,A,"Bloomington/Normal, IL",85,85,87,87,2.9058823529411764,10.552941176470588,6.0,65.0,"Mon, Sep  2, 2002","Mon, Sep  2, 2002"
3690,Nashville International,Nashville,United States,BNA,KBNA,36.124472,-86.678194,599,-6,A,"Nashville, TN",4015,4019,4029,4030,4.721793275217924,10.084349340631968,27.0,69.0,"Sun, Sep 15, 2002","Thu, Sep 26, 2002"
3495,Boise Air Terminal,Boise,United States,BOI,KBOI,43.564361,-116.222861,2871,-7,A,"Boise, ID",937,934,939,937,3.5848452508004263,9.294432548179895,25.0,42.0,"Mon, Sep 30, 2002","Tue, Sep 10, 2002"
3448,General Edward Lawrence Logan International,Boston,United States,BOS,KBOS,42.364347,-71.005181,19,-5,A,"Boston, MA",8935,8930,9044,9032,7.38511471740347,17.02183650615907,54.0,129.0,"Mon, Sep 23, 2002","Mon, Sep  2, 2002"
3738,Brownsville South Padre Island International,Brownsville,United States,BRO,KBRO,25.906833,-97.425861,22,-6,A,"Brownsville, TX",24,24,24,24,5.375,11.458333333333334,15.0,48.0,"Wed, Sep  4, 2002","Sat, Sep  7, 2002"
3571,Wiley Post Will Rogers Memorial,Barrow,United States,BRW,PABR,71.285446,-156.766003,44,-9,A,"Barrow, AK",60,61,62,62,3.2,5.688524590163935,5.0,36.0,"Fri, Sep 13, 2002","Fri, Sep 13, 2002"
3846,Baton Rouge Metro-Ryan Field,Baton Rouge,United States,BTR,KBTR,30.533167,-91.149639,70,-6,A,"Baton Rouge, LA",271,269,274,273,5.121771217712179,10.795539033457247,17.0,61.0,"Sun, Sep  8, 2002","Sat, Sep  7, 2002"
3711,Burlington International,Burlington,United States,BTV,KBTV,44.471861,-73.153278,335,-5,A,"Burlington, VT",270,268,270,270,3.203703703703703,11.585820895522389,6.0,36.0,"Mon, Sep 23, 2002","Tue, Sep 10, 2002"
3820,Buffalo Niagara International,Buffalo,United States,BUF,KBUF,42.940525,-78.732167,724,-5,A,"Buffalo, NY",1307,1309,1313,1314,3.6931905126243296,11.712757830404884,22.0,91.0,"Sat, Sep  7, 2002","Thu, Sep 19, 2002"
3644,Bob Hope,Burbank,United States,BUR,KBUR,34.200667,-118.358667,778,-8,A,"Burbank, CA",2131,2133,2148,2152,2.4866259971844182,10.755743084856995,20.0,113.0,"Wed, Sep 18, 2002","Sat, Sep  7, 2002"
3849,Baltimore Washington International,Baltimore,United States,BWI,KBWI,39.175361,-76.668333,146,-5,A,"Baltimore, MD",7073,7060,7108,7115,4.529478297752047,11.815155807365443,53.0,102.0,"Thu, Sep 12, 2002","Thu, Sep 19, 2002"
4020,Gallatin Field,Bozeman,United States,BZN,KBZN,45.777643,-111.160151,4500,-7,A,"Bozeman, MT",121,123,121,123,4.413223140495866,11.666666666666666,7.0,44.0,"Fri, Sep 13, 2002","Wed, Sep 11, 2002"
3561,Columbia Metropolitan,Colombia,United States,CAE,KCAE,33.938833,-81.119528,236,-5,A,"Columbia, SC",106,107,107,107,5.367924528301888,16.79439252336449,9.0,68.0,"Wed, Sep 25, 2002","Sun, Sep 29, 2002"
4112,Akron Canton Regional Airport,Akron,United States,CAK,KCAK,40.9160833,-81.4421944,1228,-5,A,"Akron, OH",29,29,29,29,5.689655172413793,11.827586206896552,12.0,28.0,"Fri, Sep 27, 2002","Thu, Sep 19, 2002"
3610,Merle K. Mudhole Smith,Cordova,United States,CDV,PACV,60.491778,-145.477556,48,-9,A,"Cordova, AK",60,60,60,60,2.6500000000000004,5.633333333333334,5.0,17.0,"Mon, Sep 30, 2002","Fri, Sep 20, 2002"
3578,Lovell Field,Chattanooga,United States,CHA,KCHA,35.035278,-85.203808,683,-5,A,"Chattanooga, TN",56,54,56,55,3.75,9.88888888888889,9.0,29.0,"Tue, Sep 17, 2002","Fri, Sep 27, 2002"
3806,Charleston AFB International,Charleston,United States,CHS,KCHS,32.898647,-80.040528,45,-5,A,"Charleston, SC",348,348,352,353,5.695402298850572,13.356321839080454,21.0,60.0,"Thu, Sep 19, 2002","Sat, Sep 14, 2002"
4043,Cedar Rapids,Cedar Rapids,United States,CID,KCID,41.884694,-91.710806,869,-6,A,"Cedar Rapids/Iowa City, IA",414,411,421,419,3.7198067632850242,10.160583941605838,16.0,73.0,"Mon, Sep 16, 2002","Thu, Sep 19, 2002"
3486,Cleveland Hopkins International,Cleveland,United States,CLE,KCLE,41.411689,-81.849794,791,-5,A,"Cleveland, OH",3433,3431,3453,3451,4.273812991552581,14.451180413873509,24.0,109.0,"Fri, Sep 27, 2002","Fri, Sep 20, 2002"
3715,Easterwood Field,College Station,United States,CLL,KCLL,30.588583,-96.363833,321,-6,A,"College Station/Bryan, TX",194,194,196,197,4.783505154639176,9.000000000000002,11.0,25.0,"Fri, Sep  6, 2002","Mon, Sep  9, 2002"
3876,Charlotte Douglas International,Charlotte,United States,CLT,KCLT,35.214,-80.943139,748,-5,A,"Charlotte, NC",8964,8968,9037,9023,5.470214190093696,17.761039250669093,40.0,152.0,"Sat, Sep 14, 2002","Tue, Sep  3, 2002"
3759,Port Columbus International,Columbus,United States,CMH,KCMH,39.997972,-82.891889,815,-5,A,"Columbus, OH",2798,2793,2812,2813,4.452823445318089,12.112065878983156,45.0,143.0,"Wed, Sep 18, 2002","Mon, Sep  2, 2002"
4049,Champaign,Champaign,United States,CMI,KCMI,40.03925,-88.278056,754,-6,A,"Champaign/Urbana, IL",142,142,143,143,4.302816901408449,11.669014084507038,9.0,77.0,"Mon, Sep 30, 2002","Tue, Sep 10, 2002"
3819,City Of Colorado Springs Municipal,Colorado Springs,United States,COS,KCOS,38.805805,-104.700778,6187,-7,A,"Colorado Springs, CO",677,676,677,677,6.418020679468245,13.605029585798816,32.0,96.0,"Fri, Sep 27, 2002","Thu, Sep 12, 2002"
3744,Corpus Christi International,Corpus Christi,United States,CRP,KCRP,27.770361,-97.501222,44,-6,A,"Corpus Christi, TX",389,388,392,392,3.444730077120824,7.368556701030927,11.0,30.0,"Thu, Sep 26, 2002","Sun, Sep  8, 2002"
3488,Cincinnati Northern Kentucky International,Cincinnati,United States,CVG,KCVG,39.048836,-84.667822,896,-5,A,"Cincinnati, OH",4741,4769,4794,4806,6.472263235604305,17.80834556510797,60.0,174.0,"Thu, Sep 12, 2002","Fri, Sep 20, 2002"
3950,Daytona Beach International,Daytona Beach,United States,DAB,KDAB,29.179917,-81.058056,34,-5,A,"Daytona Beach, FL",83,82,83,82,4.024096385542168,13.048780487804878,6.0,62.0,"Tue, Sep  3, 2002","Sat, Sep 14, 2002"
3502,Dallas Love Field,Dallas,United States,DAL,KDAL,32.847111,-96.851778,487,-6,A,"Dallas, TX",3383,3395,3553,3552,2.9104345255690207,7.727835051546393,20.0,150.0,"Tue, Sep 17, 2002","Thu, Sep 19, 2002"
3627,James M. Cox Dayton International,Dayton,United States,DAY,KDAY,39.902375,-84.219375,1009,-5,A,"Dayton, OH",716,717,718,719,4.912011173184357,13.65829846582984,20.0,237.0,"Sun, Sep 29, 2002","Thu, Sep 19, 2002"
4388,Dubuque Regional,Dubuque IA,United States,DBQ,KDBQ,42.402,-90.709472,1076,-6,A,"Dubuque, IA",84,84,85,85,3.630952380952381,10.11904761904762,12.0,44.0,"Sun, Sep  8, 2002","Tue, Sep 10, 2002"
3520,Ronald Reagan Washington National,Washington,United States,DCA,KDCA,38.852083,-77.037722,15,-5,A,"Washington, DC",5755,5749,5791,5793,4.420503909643787,13.11410680118282,49.0,118.0,"Tue, Sep 17, 2002","Sun, Sep 15, 2002"
3751,Denver International,Denver,United States,DEN,KDEN,39.861656,-104.673178,5431,-7,A,"Denver, CO",9831,9815,9878,9851,7.074865222256129,14.11991849210393,46.0,104.0,"Sun, Sep  8, 2002","Thu, Sep 26, 2002"
3670,Dallas Fort Worth International,Dallas-fort Worth,United States,DFW,KDFW,32.896828,-97.037997,607,-6,A,"Dallas/Fort Worth, TX",22981,23021,23165,23149,11.12858448283361,18.900438729855335,74.0,196.0,"Tue, Sep 10, 2002","Thu, Sep 19, 2002"
3460,Dillingham,Dillingham,United States,DLG,PADL,59.044667,-158.5055,74,-9,A,"Dillingham, AK",33,33,33,33,2.3333333333333335,6.0606060606060606,4.0,21.0,"Thu, Sep 19, 2002","Thu, Sep 26, 2002"
3598,Duluth International,Duluth,United States,DLH,KDLH,46.842091,-92.193649,1428,-6,A,"Duluth, MN",192,189,194,193,4.260416666666669,9.417989417989416,9.0,82.0,"Wed, Sep 25, 2002","Mon, Sep  2, 2002"
3713,Durango La Plata County,Durango,United States,DRO,KDRO,37.151516,-107.75377,6685,-7,A,"Durango, CO",4,4,4,4,4.5,14.25,7.0,20.0,"Sun, Sep  1, 2002","Mon, Sep  2, 2002"
3729,Des Moines International,Des Moines,United States,DSM,KDSM,41.533972,-93.663083,958,-6,A,"Des Moines, IA",688,686,691,691,3.8677325581395348,11.077259475218659,12.0,110.0,"Mon, Sep 30, 2002","Mon, Sep  2, 2002"
3645,Detroit Metro Wayne County,Detroit,United States,DTW,KDTW,42.212444,-83.353389,645,-5,A,"Detroit, MI",11215,11242,11349,11345,9.132144449398226,18.454634406689166,106.0,145.0,"Thu, Sep 19, 2002","Thu, Sep  5, 2002"
3860,Unalaska,Unalaska,United States,DUT,PADU,53.900139,-166.5435,22,-9,A,"Unalaska, AK",47,47,60,60,2.1702127659574466,3.9574468085106385,4.0,11.0,"Sat, Sep 14, 2002","Fri, Sep 27, 2002"
3559,El Paso International,El Paso,United States,ELP,KELP,31.80725,-106.377583,3958,-7,A,"El Paso, TX",1734,1736,1755,1755,3.3633217993079576,8.873271889400932,29.0,70.0,"Tue, Sep 10, 2002","Mon, Sep  2, 2002"
4099,Mahlon Sweet Field,Eugene,United States,EUG,KEUG,44.124583,-123.211972,374,-8,A,"Eugene, OR",119,119,119,119,3.1596638655462184,8.899159663865547,5.0,33.0,"Tue, Sep  3, 2002","Sat, Sep  7, 2002"
4018,Evansville Regional,Evansville,United States,EVV,KEVV,38.036997,-87.532364,418,-6,A,"Evansville, IN",139,139,142,142,3.5539568345323747,12.39568345323741,8.0,70.0,"Sat, Sep 21, 2002","Mon, Sep  2, 2002"
3494,Newark Liberty International,Newark,United States,EWR,KEWR,40.6925,-74.168667,18,-5,A,"Newark, NJ",8133,8130,8188,8186,7.931021763187027,21.948585485854867,74.0,145.0,"Thu, Sep 12, 2002","Sun, Sep 22, 2002"
3875,Key West International,Key West,United States,EYW,KEYW,24.556111,-81.759556,3,-5,A,"Key West, FL",178,177,178,178,5.308988764044947,9.6497175141243,19.0,28.0,"Sun, Sep 15, 2002","Sat, Sep 21, 2002"
3832,Fairbanks International,Fairbanks,United States,FAI,PAFA,64.815114,-147.856267,434,-9,A,"Fairbanks, AK",440,444,446,449,3.5113636363636362,8.416666666666668,11.0,34.0,"Thu, Sep 26, 2002","Tue, Sep  3, 2002"
4292,Hector International Airport,Fargo,United States,FAR,KFAR,46.92065,-96.8157639,902,-6,A,"Fargo, ND",197,196,200,200,4.472081218274112,10.658163265306118,9.0,134.0,"Thu, Sep 26, 2002","Sun, Sep  1, 2002"
3687,Fresno Yosemite International,Fresno,United States,FAT,KFAT,36.776194,-119.71814,336,-8,A,"Fresno, CA",286,285,287,287,4.744755244755243,10.115789473684208,21.0,30.0,"Wed, Sep  4, 2002","Thu, Sep  5, 2002"
4127,Glacier Park International,Kalispell,United States,FCA,KFCA,48.310472,-114.256,2977,-7,A,"Kalispell, MT",147,148,148,148,4.455782312925171,11.358108108108107,9.0,37.0,"Mon, Sep  2, 2002","Mon, Sep  9, 2002"
3533,Fort Lauderdale Hollywood International,Fort Lauderdale,United States,FLL,KFLL,26.072583,-80.15275,9,-5,A,"Fort Lauderdale, FL",3753,3764,3772,3778,4.299227284838781,14.384165781083952,103.0,101.0,"Mon, Sep 30, 2002","Mon, Sep  2, 2002"
4089,Bishop International,Flint,United States,FNT,KFNT,42.965424,-83.743629,782,-5,A,"Flint, MI",114,112,114,114,4.2543859649122835,10.499999999999998,8.0,35.0,"Wed, Sep 25, 2002","Mon, Sep 23, 2002"
4009,Sioux Falls,Sioux Falls,United States,FSD,KFSD,43.582014,-96.741914,1429,-6,A,"Sioux Falls, SD",198,198,201,201,5.803030303030305,12.919191919191924,10.0,59.0,"Sun, Sep 22, 2002","Tue, Sep 10, 2002"
3437,Fort Smith Regional,Fort Smith,United States,FSM,KFSM,35.336583,-94.367444,469,-6,A,"Fort Smith, AR",226,227,226,227,4.371681415929204,8.770925110132163,23.0,21.0,"Sat, Sep 28, 2002","Fri, Sep 27, 2002"
4041,Fort Wayne,Fort Wayne,United States,FWA,KFWA,40.978472,-85.195139,815,-5,A,"Fort Wayne, IN",167,168,173,174,3.55688622754491,9.488095238095237,8.0,69.0,"Fri, Sep 20, 2002","Mon, Sep  2, 2002"
3467,Spokane International,Spokane,United States,GEG,KGEG,47.619861,-117.533833,2376,-8,A,"Spokane, WA",1021,1021,1027,1026,3.7982370225269344,9.141038197845242,17.0,35.0,"Thu, Sep 26, 2002","Wed, Sep 11, 2002"
3442,Grand Forks International,Grand Forks,United States,GFK,KGFK,47.949256,-97.176111,845,-6,A,"Grand Forks, ND",60,60,60,60,4.566666666666667,9.2,8.0,20.0,"Wed, Sep 18, 2002","Sun, Sep  1, 2002"
3465,East Texas Regional,Longview,United States,GGG,KGGG,32.384014,-94.711486,365,-6,A,"Longview, TX",114,114,114,114,4.236842105263161,8.640350877192983,13.0,24.0,"Thu, Sep 19, 2002","Fri, Sep 13, 2002"
4038,Gulfport-Biloxi,Gulfport,United States,GPT,KGPT,30.407278,-89.070111,28,-6,A,"Gulfport/Biloxi, MS",84,84,88,88,5.642857142857143,9.535714285714288,14.0,39.0,"Tue, Sep 24, 2002","Tue, Sep 17, 2002"
3653,Austin Straubel International,Green Bay,United States,GRB,KGRB,44.485072,-88.129589,695,-6,A,"Green Bay, WI",362,360,366,365,3.3259668508287303,11.45833333333334,7.0,122.0,"Wed, Sep 11, 2002","Mon, Sep  2, 2002"
3685,Gerald R. Ford International,Grand Rapids,United States,GRR,KGRR,42.880833,-85.522806,794,-5,A,"Grand Rapids, MI",807,806,813,814,3.584882280049565,12.019851116625306,14.0,113.0,"Sun, Sep 22, 2002","Mon, Sep  2, 2002"
4008,Piedmont Triad,Greensboro,United States,GSO,KGSO,36.09775,-79.937306,925,-5,A,"Greensboro/High Point, NC",832,822,833,829,4.580528846153839,15.726277372262778,36.0,76.0,"Fri, Sep 13, 2002","Wed, Sep 25, 2002"
4034,Greenville-Spartanburg International,Greenville,United States,GSP,KGSP,34.895556,-82.218889,964,-5,A,"Greer, SC",347,345,349,347,4.394812680115272,12.463768115942024,23.0,56.0,"Sat, Sep  7, 2002","Wed, Sep 25, 2002"
5960,Gustavus Airport,Gustavus,United States,GST,PAGS,58.4253,-135.707,34,-9,A,"Gustavus, AK",6,6,7,7,4.666666666666667,5.833333333333333,5.0,8.0,"Mon, Sep  2, 2002","Fri, Sep  6, 2002"
3880,Great Falls International,Great Falls,United States,GTF,KGTF,47.482,-111.370689,3677,-7,A,"Great Falls, MT",145,145,147,147,3.9448275862068964,9.593103448275858,7.0,29.0,"Wed, Sep 18, 2002","Wed, Sep 11, 2002"
3504,Helena Regional,Helena,United States,HLN,KHLN,46.606806,-111.98275,3877,-7,A,"Helena, MT",54,54,56,55,2.5,9.222222222222225,5.0,16.0,"Sat, Sep 28, 2002","Fri, Sep 20, 2002"
3728,Honolulu International,Honolulu,United States,HNL,PHNL,21.318681,-157.922428,13,-10,N,"Honolulu, HI",873,876,878,880,4.8373424971363095,16.415525114155287,19.0,45.0,"Mon, Sep 23, 2002","Sun, Sep 22, 2002"
3566,William P. Hobby,Houston,United States,HOU,KHOU,29.645419,-95.278889,46,-6,A,"Houston, TX",4330,4353,4515,4518,3.9545034642032406,9.345049391224455,40.0,115.0,"Thu, Sep 19, 2002","Thu, Sep 19, 2002"
3589,Westchester County,White Plains,United States,HPN,KHPN,41.066959,-73.707575,439,-5,A,"White Plains, NY",403,404,418,417,5.734491315136476,15.232673267326737,27.0,204.0,"Mon, Sep  2, 2002","Thu, Sep 19, 2002"
3560,Valley International,Harlingen,United States,HRL,KHRL,26.2285,-97.654389,36,-6,A,"Harlingen/San Benito, TX",323,323,339,338,2.306501547987617,6.204334365325073,6.0,15.0,"Tue, Sep 10, 2002","Thu, Sep 19, 2002"
4113,Huntsville International Airport-Carl T. Jones Field,Huntsville,United States,HSV,KHSV,34.6371944,-86.7750556,629,-6,A,"Huntsville, AL",275,275,278,278,4.850909090909092,12.847272727272728,10.0,68.0,"Thu, Sep 26, 2002","Sun, Sep  8, 2002"
3714,Washington Dulles International,Washington,United States,IAD,KIAD,38.944533,-77.455811,313,-5,A,"Washington, DC",3449,3446,3475,3471,6.114236010437808,16.251596053395275,36.0,101.0,"Wed, Sep 25, 2002","Wed, Sep 25, 2002"
3550,George Bush Intercontinental Houston,Houston,United States,IAH,KIAH,29.984433,-95.341442,97,-6,A,"Houston, TX",9520,9558,9631,9626,7.2940126050420195,23.625130780498004,75.0,254.0,"Thu, Sep 19, 2002","Thu, Sep 19, 2002"
3457,Wichita Mid Continent,Wichita,United States,ICT,KICT,37.649944,-97.433056,1333,-6,A,"Wichita, KS",403,401,404,403,4.171215880893305,10.688279301745636,9.0,53.0,"Sun, Sep  1, 2002","Thu, Sep 12, 2002"
3845,Wilmington International,Wilmington,United States,ILM,KILM,34.270615,-77.902569,32,-5,A,"Wilmington, NC",164,164,164,164,4.414634146341462,10.304878048780486,8.0,17.0,"Thu, Sep  5, 2002","Mon, Sep 16, 2002"
3585,Indianapolis International,Indianapolis,United States,IND,KIND,39.717331,-86.294383,797,-5,A,"Indianapolis, IN",2671,2666,2689,2689,7.980531636091346,13.129032258064507,53.0,142.0,"Wed, Sep 18, 2002","Thu, Sep 19, 2002"
3857,Long Island MacArthur,Islip,United States,ISP,KISP,40.79525,-73.100222,99,-5,A,"Islip, NY",869,870,872,872,3.5500575373993084,9.297701149425295,20.0,125.0,"Wed, Sep 11, 2002","Wed, Sep 11, 2002"
4027,Jackson Hole Airport,Jacksn Hole,United States,JAC,KJAC,43.60733333,-110.73775,6451,-7,A,"Jackson, WY",129,130,129,130,3.147286821705426,14.330769230769231,18.0,67.0,"Sat, Sep 14, 2002","Fri, Sep  6, 2002"
3580,Jackson Evers International,Jackson,United States,JAN,KJAN,32.311167,-90.075889,346,-6,A,"Jackson/Vicksburg, MS",572,570,579,577,3.879370629370634,9.059649122807016,20.0,64.0,"Sun, Sep 22, 2002","Tue, Sep 24, 2002"
3712,Jacksonville International,Jacksonville,United States,JAX,KJAX,30.494056,-81.687861,30,-5,A,"Jacksonville, FL",1908,1908,1910,1910,5.111635220125788,10.987945492662478,30.0,77.0,"Wed, Sep 18, 2002","Sat, Sep  7, 2002"
3797,John F. Kennedy International,New York,United States,JFK,KJFK,40.639751,-73.778925,13,-5,A,"New York, NY",4324,4333,4362,4363,9.282377428307115,22.964458804523435,73.0,103.0,"Sun, Sep  1, 2002","Sun, Sep 22, 2002"
3492,Juneau International,Juneau,United States,JNU,PAJN,58.354972,-134.576278,21,-9,A,"Juneau, AK",367,371,387,388,4.043596730245233,10.741239892183293,9.0,32.0,"Mon, Sep 16, 2002","Sun, Sep 15, 2002"
3514,Kona International At Keahole,Kona,United States,KOA,PHKO,19.738767,-156.045631,47,-10,N,"Kona, HI",150,150,150,150,3.4600000000000013,10.64666666666667,11.0,22.0,"Thu, Sep 26, 2002","Sun, Sep  8, 2002"
3808,Ketchikan International,Ketchikan,United States,KTN,PAKT,55.355556,-131.71375,88,-9,A,"Ketchikan, AK",192,198,200,201,4.635416666666668,10.141414141414135,10.0,31.0,"Sun, Sep  1, 2002","Tue, Sep 17, 2002"
3544,Capital City,Lansing,United States,LAN,KLAN,42.7787,-84.587357,861,-5,A,"Lansing, MI",222,221,223,222,4.036036036036036,9.239819004524886,8.0,87.0,"Tue, Sep 17, 2002","Thu, Sep 19, 2002"
3877,McCarran International,Las Vegas,United States,LAS,KLAS,36.080056,-115.15225,2141,-8,A,"Las Vegas, NV",10809,10809,10861,10865,4.916273475807207,14.545286335461196,59.0,133.0,"Fri, Sep 27, 2002","Tue, Sep 10, 2002"
4256,Lawton-Fort Sill Regional Airport,Lawton,United States,LAW,KLAW,34.5677144,-98.4166367,1110,-6,A,"Lawton/Fort Sill, OK",173,173,173,173,4.0578034682080935,8.84393063583815,9.0,24.0,"Tue, Sep 24, 2002","Sat, Sep 21, 2002"
3484,Los Angeles International,Los Angeles,United States,LAX,KLAX,33.942536,-118.408075,126,-8,A,"Los Angeles, CA",14982,14994,15130,15124,7.771592577759985,14.629318394024287,126.0,134.0,"Sun, Sep 29, 2002","Sat, Sep  7, 2002"
3829,Lubbock Preston Smith International,Lubbock,United States,LBB,KLBB,33.663639,-101.822778,3282,-6,A,"Lubbock, TX",623,623,629,629,2.956661316211877,7.60513643659711,17.0,26.0,"Sun, Sep  8, 2002","Wed, Sep 18, 2002"
4017,Blue Grass,Lexington KY,United States,LEX,KLEX,38.0365,-84.605889,979,-5,A,"Lexington, KY",107,106,108,106,5.579439252336451,13.820754716981131,41.0,50.0,"Sun, Sep 15, 2002","Sun, Sep 29, 2002"
3493,Lafayette Regional,Lafayette,United States,LFT,KLFT,30.205278,-91.987611,43,-6,A,"Lafayette, LA",25,26,25,26,4.759999999999999,11.807692307692308,6.0,25.0,"Wed, Sep 18, 2002","Wed, Sep  4, 2002"
3697,LaGuardia Airport,New York,United States,LGA,KLGA,40.777245,-73.872608,22,-5,A,"New York, NY",7414,7415,7470,7465,7.379012678715935,21.347673634524675,54.0,154.0,"Tue, Sep 17, 2002","Thu, Sep 19, 2002"
3582,Long Beach,Long Beach,United States,LGB,KLGB,33.817722,-118.151611,60,-8,A,"Long Beach, CA",359,357,365,365,5.777158774373256,14.266106442577033,48.0,62.0,"Sun, Sep 15, 2002","Sat, Sep 21, 2002"
3602,Lihue,Lihue,United States,LIH,PHLI,21.975983,-159.338958,153,-10,N,"Lihue, HI",98,98,98,98,5.26530612244898,8.765306122448978,14.0,23.0,"Sun, Sep  1, 2002","Fri, Sep 27, 2002"
3660,Adams Field,Little Rock,United States,LIT,KLIT,34.729444,-92.224306,262,-6,A,"Little Rock, AR",1107,1108,1112,1112,4.345980126467938,9.658844765342973,19.0,68.0,"Fri, Sep 20, 2002","Fri, Sep 20, 2002"
3691,Laredo International,Laredo,United States,LRD,KLRD,27.54375,-99.461556,508,-6,A,"Laredo, TX",114,114,114,114,5.0701754385964914,9.75438596491228,9.0,23.0,"Fri, Sep  6, 2002","Sun, Sep 22, 2002"
4044,LaCrosse Municipal,LaCrosse,United States,LSE,KLSE,43.878986,-91.256711,654,-6,A,"La Crosse, WI",168,166,172,171,3.2023809523809526,9.427710843373495,8.0,57.0,"Tue, Sep  3, 2002","Wed, Sep 11, 2002"
3652,Midland International,Midland,United States,MAF,KMAF,31.942528,-102.201914,2871,-6,A,"Midland/Odessa, TX",580,580,593,593,2.7672413793103443,7.8172413793103415,14.0,38.0,"Wed, Sep 25, 2002","Wed, Sep 11, 2002"
4128,MBS International,Saginaw,United States,MBS,KMBS,43.532913,-84.079647,668,-5,A,"Saginaw/Bay City/Midland, MI",136,137,136,137,3.911764705882353,9.963503649635038,23.0,29.0,"Tue, Sep 24, 2002","Wed, Sep 11, 2002"
3458,Kansas City International,Kansas City,United States,MCI,KMCI,39.297606,-94.713905,1026,-6,A,"Kansas City, MO",4590,4585,4617,4613,4.180827886710235,10.282878953107973,50.0,130.0,"Mon, Sep  2, 2002","Fri, Sep 20, 2002"
3878,Orlando International,Orlando,United States,MCO,KMCO,28.429394,-81.308994,96,-5,A,"Orlando, FL",6366,6373,6393,6402,4.92287150486959,12.1558135885768,112.0,91.0,"Wed, Sep  4, 2002","Sat, Sep  7, 2002"
3542,Harrisburg International,Harrisburg,United States,MDT,KMDT,40.193494,-76.763403,310,-5,A,"Harrisburg, PA",495,494,497,496,4.248484848484844,11.45748987854251,13.0,75.0,"Mon, Sep  2, 2002","Fri, Sep 20, 2002"
3747,Chicago Midway International,Chicago,United States,MDW,KMDW,41.785972,-87.752417,620,-6,A,"Chicago, IL",4465,4465,4494,4490,5.331019036954086,12.926091825307918,48.0,110.0,"Tue, Sep  3, 2002","Wed, Sep 25, 2002"
3473,Memphis International,Memphis,United States,MEM,KMEM,35.042417,-89.976667,341,-6,A,"Memphis, TN",3982,3989,4029,4026,5.443495730788551,14.662070694409627,47.0,98.0,"Sun, Sep 15, 2002","Thu, Sep 19, 2002"
3826,McAllen Miller International,Mcallen,United States,MFE,KMFE,26.175833,-98.238611,107,-6,A,"Mission/McAllen/Edinburg, TX",239,239,239,239,3.6736401673640167,10.635983263598327,6.0,109.0,"Mon, Sep 16, 2002","Sun, Sep  8, 2002"
4101,Rogue Valley International Medford,Medford,United States,MFR,KMFR,42.374228,-122.8735,1335,-8,A,"Medford, OR",89,89,89,89,3.3707865168539324,8.42696629213483,5.0,18.0,"Mon, Sep  2, 2002","Wed, Sep 11, 2002"
4011,Manchester Regional Airport,Manchester NH,United States,MHT,KMHT,42.932556,-71.435667,266,-5,A,"Manchester, NH",1230,1233,1245,1244,5.1991869918699205,11.968369829683692,35.0,67.0,"Thu, Sep 12, 2002","Tue, Sep 10, 2002"
3576,Miami International,Miami,United States,MIA,KMIA,25.79325,-80.290556,8,-5,A,"Miami, FL",4952,4962,4992,4993,7.041801292407111,18.625151148730335,86.0,127.0,"Tue, Sep  3, 2002","Mon, Sep  2, 2002"
3717,General Mitchell International,Milwaukee,United States,MKE,KMKE,42.947222,-87.896583,723,-6,A,"Milwaukee, WI",1236,1234,1254,1254,5.192556634304208,13.272285251215557,31.0,97.0,"Sat, Sep 14, 2002","Thu, Sep  5, 2002"
3671,Melbourne International,Melbourne,United States,MLB,KMLB,28.102753,-80.645258,33,-5,A,"Melbourne, FL",108,107,108,107,4.222222222222221,13.037383177570094,7.0,34.0,"Wed, Sep  4, 2002","Mon, Sep  9, 2002"
4072,Quad City International,Moline,United States,MLI,KMLI,41.448528,-90.507539,590,-6,A,"Moline, IL",168,167,170,169,2.9107142857142847,8.586826347305387,7.0,102.0,"Wed, Sep 25, 2002","Tue, Sep 17, 2002"
3782,Mobile Regional,Mobile,United States,MOB,KMOB,30.691231,-88.242814,219,-6,A,"Mobile, AL",131,130,136,136,3.8091603053435112,12.823076923076924,7.0,58.0,"Tue, Sep 10, 2002","Sat, Sep 21, 2002"
3498,Minot International,Minot,United States,MOT,KMOT,48.259378,-101.280333,1716,-6,A,"Minot, ND",86,86,90,90,4.0,9.988372093023258,7.0,96.0,"Fri, Sep 27, 2002","Thu, Sep  5, 2002"
6838,Sawyer International Airport,Marquette,United States,MQT,KMQT,46.353611,-87.395278,1221,-5,A,"Marquette, MI",21,21,21,21,4.333333333333333,12.333333333333334,7.0,40.0,"Tue, Sep 24, 2002","Wed, Sep 18, 2002"
3948,Monterey Peninsula,Monterey,United States,MRY,KMRY,36.587,-121.842944,257,-8,A,"Monterey, CA",161,160,161,161,4.4596273291925455,10.506250000000001,11.0,27.0,"Sat, Sep 28, 2002","Tue, Sep  3, 2002"
3459,Dane County Regional-Truax Field,Madison,United States,MSN,KMSN,43.139858,-89.337514,887,-6,A,"Madison, WI",516,515,521,522,3.6492248062015498,12.333980582524271,19.0,123.0,"Sun, Sep 15, 2002","Thu, Sep 19, 2002"
4216,Missoula International,Missoula,United States,MSO,KMSO,46.916306,-114.090556,3205,-7,A,"Missoula, MT",148,148,149,150,5.0945945945945965,10.344594594594593,10.0,44.0,"Sun, Sep  8, 2002","Sat, Sep 14, 2002"
3858,Minneapolis St. Paul International,Minneapolis,United States,MSP,KMSP,44.881956,-93.221767,841,-6,A,"Minneapolis, MN",11526,11541,11628,11613,6.176991150442478,18.24798544320237,87.0,195.0,"Thu, Sep  5, 2002","Mon, Sep  2, 2002"
3861,Louis Armstrong New Orleans International,New Orleans,United States,MSY,KMSY,29.993389,-90.258028,4,-6,A,"New Orleans, LA",3932,3929,4054,4054,3.8265513733469034,9.560702468821601,41.0,78.0,"Thu, Sep 19, 2002","Mon, Sep  2, 2002"
3515,Myrtle Beach International,Myrtle Beach,United States,MYR,KMYR,33.67975,-78.928333,25,-5,A,"Myrtle Beach, SC",233,234,233,234,4.025751072961371,11.064102564102564,9.0,34.0,"Sun, Sep 29, 2002","Sun, Sep 22, 2002"
3453,Metropolitan Oakland International,Oakland,United States,OAK,KOAK,37.721278,-122.220722,9,-8,A,"Oakland, CA",5096,5082,5134,5132,4.88971742543172,9.93526170798899,59.0,48.0,"Mon, Sep  2, 2002","Fri, Sep 13, 2002"
3456,Kahului,Kahului,United States,OGG,PHOG,20.89865,-156.430458,54,-10,N,"Kahului, HI",303,304,304,304,4.768976897689769,11.355263157894733,28.0,23.0,"Sat, Sep 14, 2002","Wed, Sep 25, 2002"
3863,Will Rogers World,Oklahoma City,United States,OKC,KOKC,35.393089,-97.600733,1295,-6,A,"Oklahoma City, OK",1607,1604,1614,1615,3.8350964530180427,9.059226932668317,36.0,83.0,"Tue, Sep 10, 2002","Sun, Sep  8, 2002"
3454,Eppley Airfield,Omaha,United States,OMA,KOMA,41.303167,-95.894069,984,-6,A,"Omaha, NE",1407,1407,1410,1412,3.278606965174131,10.210376687988635,11.0,68.0,"Mon, Sep  2, 2002","Thu, Sep  5, 2002"
3615,Nome,Nome,United States,OME,PAOM,64.512203,-165.445247,37,-9,A,"Nome, AK",85,85,90,90,3.4705882352941178,6.44705882352941,6.0,16.0,"Thu, Sep 12, 2002","Thu, Sep 12, 2002"
3734,Ontario International,Ontario,United States,ONT,KONT,34.056,-117.601194,944,-8,A,"Ontario, CA",2694,2695,2719,2718,4.073867854491474,9.100185528756956,18.0,80.0,"Sun, Sep 22, 2002","Wed, Sep 11, 2002"
3830,Chicago O'Hare International,Chicago,United States,ORD,KORD,41.978603,-87.904842,668,-6,A,"Chicago, IL",27443,27517,27768,27776,8.092409721969029,19.3773667187558,64.0,176.0,"Sun, Sep 29, 2002","Tue, Sep  3, 2002"
3611,Norfolk International,Norfolk,United States,ORF,KORF,36.894611,-76.201222,26,-5,A,"Norfolk, VA",1502,1507,1512,1516,3.913448735019971,11.266091572660937,28.0,75.0,"Mon, Sep 16, 2002","Mon, Sep 16, 2002"
6426,Worcester Regional Airport,Worcester,United States,ORH,KORH,42.2673,-71.8757,1009,-5,U,"Worcester, MA",3,3,3,3,1.6666666666666667,23.0,2.0,57.0,"Sun, Sep  1, 2002","Mon, Sep  2, 2002"
3693,Ralph Wien Memorial,Kotzebue,United States,OTZ,PAOT,66.884678,-162.59855,11,-9,A,"Kotzebue, AK",89,90,90,90,3.247191011235955,6.4222222222222225,6.0,22.0,"Thu, Sep  5, 2002","Wed, Sep 11, 2002"
3722,Palm Beach International,West Palm Beach,United States,PBI,KPBI,26.683161,-80.095589,19,-5,A,"West Palm Beach/Palm Beach, FL",1447,1445,1455,1456,4.416033172080171,11.941868512110727,12.0,49.0,"Sat, Sep 28, 2002","Tue, Sep 24, 2002"
3720,Portland International,Portland,United States,PDX,KPDX,45.588722,-122.5975,30,-8,A,"Portland, OR",4100,4108,4134,4137,3.7341463414634117,10.566455696202542,72.0,102.0,"Sun, Sep 29, 2002","Fri, Sep 27, 2002"
3752,Philadelphia International,Philadelphia,United States,PHL,KPHL,39.871944,-75.241139,36,-5,A,"Philadelphia, PA",8736,8723,8854,8819,6.710279304029308,20.12426917344953,108.0,170.0,"Sun, Sep 22, 2002","Thu, Sep 19, 2002"
3462,Phoenix Sky Harbor International,Phoenix,United States,PHX,KPHX,33.434278,-112.011583,1135,-7,N,"Phoenix, AZ",14134,14200,14382,14388,6.225343144191312,16.3791549295774,61.0,190.0,"Sat, Sep 14, 2002","Fri, Sep  6, 2002"
4046,Peoria Regional,Peoria,United States,PIA,KPIA,40.664203,-89.693258,660,-6,A,"Peoria, IL",116,116,118,118,3.0344827586206895,10.318965517241379,11.0,75.0,"Mon, Sep 30, 2002","Sun, Sep 29, 2002"
3570,Pittsburgh International,Pittsburgh (pennsylva),United States,PIT,KPIT,40.491467,-80.232872,1204,-5,A,"Pittsburgh, PA",6340,6397,6426,6457,7.154889589905367,14.949820228231989,171.0,139.0,"Tue, Sep  3, 2002","Thu, Sep 19, 2002"
3564,Pensacola Regional,Pensacola,United States,PNS,KPNS,30.473425,-87.186611,121,-6,A,"Pensacola, FL",300,298,308,309,4.623333333333331,12.181208053691279,14.0,70.0,"Mon, Sep  9, 2002","Wed, Sep 25, 2002"
6133,Tri Cities Airport,Pasco,United States,PSC,PSC,46.2647,-119.119,410,-8,A,"Pasco/Kennewick/Richland, WA",57,56,58,57,4.701754385964913,9.732142857142852,9.0,17.0,"Sun, Sep 22, 2002","Sun, Sep  8, 2002"
4147,Petersburg James A. Johnson,Petersburg,United States,PSG,PAPG,56.801667,-132.945278,105,-9,A,"Petersburg, AK",57,60,60,60,2.982456140350877,5.966666666666667,7.0,12.0,"Mon, Sep  9, 2002","Sat, Sep  7, 2002"
3839,Palm Springs International,Palm Springs,United States,PSP,KPSP,33.829667,-116.506694,477,-8,A,"Palm Springs, CA",368,368,368,368,4.413043478260877,9.59239130434783,8.0,49.0,"Thu, Sep 12, 2002","Thu, Sep 19, 2002"
3641,Theodore Francis Green State,Providence,United States,PVD,KPVD,41.732581,-71.420383,55,-5,A,"Providence, RI",2191,2189,2197,2196,4.397535371976265,11.772498857925987,32.0,116.0,"Sun, Sep 15, 2002","Mon, Sep  2, 2002"
3862,Portland International Jetport,Portland,United States,PWM,KPWM,43.646161,-70.309281,77,-5,A,"Portland, ME",573,574,580,583,4.162303664921464,11.052264808362366,17.0,100.0,"Fri, Sep 27, 2002","Thu, Sep 26, 2002"
4087,Rapid City Regional Airport,Rapid City,United States,RAP,KRAP,44.045278,-103.057222,3204,-7,A,"Rapid City, SD",118,118,118,118,4.389830508474576,9.957627118644066,8.0,44.0,"Tue, Sep 17, 2002","Thu, Sep 19, 2002"
3626,Raleigh Durham International,Raleigh-durham,United States,RDU,KRDU,35.877639,-78.787472,435,-5,A,"Raleigh/Durham, NC",3752,3751,3778,3773,4.676439232409385,11.355638496400967,33.0,118.0,"Mon, Sep  2, 2002","Sat, Sep 14, 2002"
3608,Richmond International,Richmond,United States,RIC,KRIC,37.505167,-77.319667,167,-5,A,"Richmond, VA",1174,1172,1181,1179,5.0272572402044355,12.700511945392483,22.0,81.0,"Fri, Sep 13, 2002","Mon, Sep  2, 2002"
3807,Reno Tahoe International,Reno,United States,RNO,KRNO,39.499108,-119.768108,4415,-8,A,"Reno, NV",2002,1995,2005,2005,4.0684315684315635,9.556892230576425,25.0,71.0,"Sun, Sep 15, 2002","Sun, Sep 15, 2002"
3622,Greater Rochester International,Rochester,United States,ROC,KROC,43.118866,-77.672389,559,-5,A,"Rochester, NY",763,762,766,766,5.1022280471821855,12.15616797900262,14.0,93.0,"Tue, Sep 24, 2002","Thu, Sep 19, 2002"
4048,Rochester,Rochester,United States,RST,KRST,43.908283,-92.500014,1317,-6,A,"Rochester, MN",191,191,193,193,3.9162303664921474,10.293193717277486,7.0,94.0,"Mon, Sep 23, 2002","Mon, Sep  2, 2002"
3793,Southwest Florida International,Fort Myers,United States,RSW,KRSW,26.536167,-81.755167,30,-5,A,"Fort Myers, FL",896,895,896,896,3.9754464285714275,12.998882681564243,30.0,96.0,"Mon, Sep  2, 2002","Thu, Sep  5, 2002"
3731,San Diego International,San Diego,United States,SAN,KSAN,32.733556,-117.189667,17,-8,A,"San Diego, CA",6288,6316,6376,6381,3.463104325699748,13.488600379987332,34.0,130.0,"Thu, Sep 12, 2002","Tue, Sep 10, 2002"
3621,San Antonio International,San Antonio,United States,SAT,KSAT,29.533694,-98.469778,809,-6,A,"San Antonio, TX",2981,2979,3029,3028,3.3991949010399205,9.818059751594511,23.0,225.0,"Tue, Sep 17, 2002","Mon, Sep  9, 2002"
3613,Savannah Hilton Head International,Savannah,United States,SAV,KSAV,32.127583,-81.202139,51,-5,A,"Savannah, GA",479,476,482,482,5.359081419624219,13.121848739495796,21.0,63.0,"Fri, Sep 13, 2002","Wed, Sep 25, 2002"
3949,Santa Barbara Municipal,Santa Barbara,United States,SBA,KSBA,34.426211,-119.840372,10,-8,A,"Santa Barbara, CA",284,283,284,285,4.443661971830985,9.929328621908134,11.0,62.0,"Fri, Sep 13, 2002","Sun, Sep 15, 2002"
4359,South Bend Regional,South Bend,United States,SBN,KSBN,41.708661,-86.31725,799,-5,A,"South Bend, IN",32,32,33,33,4.21875,10.375,6.0,31.0,"Wed, Sep  4, 2002","Sun, Sep 15, 2002"
5768,San Luis County Regional Airport,San Luis Obispo,United States,SBP,KSBP,35.2368,-120.642,212,-8,A,"San Luis Obispo, CA",201,204,203,204,3.8805970149253732,12.544117647058824,10.0,40.0,"Mon, Sep 23, 2002","Wed, Sep 25, 2002"
3620,Deadhorse,Deadhorse,United States,SCC,PASC,70.19475,-148.465167,64,-9,A,"Deadhorse, AK",34,35,38,38,2.911764705882353,5.514285714285714,5.0,10.0,"Tue, Sep  3, 2002","Sun, Sep  1, 2002"
4014,Louisville International Airport,Louisville,United States,SDF,KSDF,38.1740858,-85.7364989,501,-5,A,"Louisville, KY",1451,1453,1459,1459,4.677463818056506,9.993117687543007,20.0,69.0,"Fri, Sep 27, 2002","Fri, Sep 27, 2002"
3577,Seattle Tacoma International,Seattle,United States,SEA,KSEA,47.449,-122.309306,433,-8,A,"Seattle, WA",8468,8475,8535,8527,6.477680680207842,13.852507374631271,55.0,94.0,"Mon, Sep 16, 2002","Tue, Sep 10, 2002"
3469,San Francisco International,San Francisco,United States,SFO,KSFO,37.618972,-122.374889,13,-8,A,"San Francisco, CA",8154,8201,8218,8249,5.437331371106206,15.49274478722107,61.0,132.0,"Thu, Sep 19, 2002","Fri, Sep 20, 2002"
4348,Springfield Branson National,Springfield,United States,SGF,KSGF,37.245667,-93.388639,1268,-6,A,"Springfield, MO",370,366,371,370,3.981081081081078,11.08469945355191,13.0,133.0,"Fri, Sep 27, 2002","Tue, Sep 17, 2002"
3609,Shreveport Regional,Shreveport,United States,SHV,KSHV,32.446629,-93.8256,258,-6,A,"Shreveport, LA",393,391,399,398,5.7557251908396925,8.7621483375959,22.0,30.0,"Mon, Sep  2, 2002","Wed, Sep  4, 2002"
3856,Sitka Rocky Gutierrez,Sitka,United States,SIT,PASI,57.047138,-135.361611,21,-9,A,"Sitka, AK",106,109,111,111,4.452830188679245,8.605504587155965,17.0,25.0,"Mon, Sep  2, 2002","Wed, Sep 25, 2002"
3748,Norman Y. Mineta San Jose International,San Jose,United States,SJC,KSJC,37.3626,-121.929022,62,-8,A,"San Jose, CA",4976,4972,5032,5030,3.8388263665594944,13.178801287208385,42.0,132.0,"Fri, Sep 27, 2002","Mon, Sep 23, 2002"
3708,San Angelo Regional-Mathis Field,San Angelo,United States,SJT,KSJT,31.35775,-100.496306,1919,-6,A,"San Angelo, TX",173,172,173,173,4.624277456647402,9.04651162790697,25.0,18.0,"Sat, Sep 21, 2002","Sat, Sep 21, 2002"
3536,Salt Lake City International,Salt Lake City,United States,SLC,KSLC,40.788389,-111.977772,4227,-7,A,"Salt Lake City, UT",5626,5640,5653,5663,5.6046924991112785,15.644680851063843,37.0,101.0,"Sun, Sep 22, 2002","Thu, Sep 12, 2002"
3817,Sacramento International,Sacramento,United States,SMF,KSMF,38.695417,-121.590778,27,-8,A,"Sacramento, CA",3216,3216,3226,3228,4.002798507462695,9.514925373134329,22.0,42.0,"Mon, Sep  9, 2002","Fri, Sep 27, 2002"
3867,John Wayne Airport Orange County,Santa Ana,United States,SNA,KSNA,33.675667,-117.868222,56,-8,A,"Santa Ana, CA",3530,3522,3562,3555,6.581303116147311,13.133730834752972,47.0,110.0,"Mon, Sep  2, 2002","Fri, Sep 27, 2002"
3680,Sheppard AFB Wichita Falls Municipal,Wichita Falls,United States,SPS,KSPS,33.988797,-98.491894,1019,-6,A,"Wichita Falls, TX",194,194,194,194,5.963917525773193,10.07216494845361,15.0,28.0,"Sat, Sep 14, 2002","Sun, Sep  8, 2002"
4067,Sarasota Bradenton International,Sarasota,United States,SRQ,KSRQ,27.395444,-82.554389,30,-5,A,"Sarasota/Bradenton, FL",229,229,230,230,4.200873362445413,12.842794759825328,13.0,46.0,"Tue, Sep  3, 2002","Thu, Sep 26, 2002"
3678,Lambert St. Louis International,St. Louis,United States,STL,KSTL,38.748697,-90.370028,618,-6,A,"St. Louis, MO",10367,10369,10426,10420,5.710813157133217,18.486353553862564,57.0,130.0,"Fri, Sep  6, 2002","Thu, Sep 19, 2002"
3753,Sioux Gateway-Colonel Bud Day Field,Sioux City,United States,SUX,KSUX,42.402603,-96.384367,1098,-6,A,"Sioux City, IA",1,1,1,1,3.0,7.0,3.0,7.0,"Mon, Sep  2, 2002","Tue, Sep  3, 2002"
3661,Stewart International,Newburgh,United States,SWF,KSWF,41.504094,-74.104839,491,-5,A,"Newburgh/Poughkeepsie, NY",136,135,138,138,4.455882352941177,12.999999999999998,38.0,112.0,"Wed, Sep  4, 2002","Tue, Sep 10, 2002"
3745,Syracuse Hancock International,Syracuse,United States,SYR,KSYR,43.111187,-76.106311,421,-5,A,"Syracuse, NY",751,748,760,759,4.423435419440747,12.360962566844925,13.0,117.0,"Mon, Sep  2, 2002","Sat, Sep 14, 2002"
3698,Tallahassee Regional,Tallahassee,United States,TLH,KTLH,30.396528,-84.350333,81,-5,A,"Tallahassee, FL",143,142,143,142,4.615384615384615,11.690140845070419,17.0,37.0,"Fri, Sep 13, 2002","Fri, Sep 27, 2002"
4040,Toledo,Toledo,United States,TOL,KTOL,41.586806,-83.807833,684,-5,A,"Toledo, OH",141,141,146,146,2.5531914893617027,11.29078014184397,6.0,60.0,"Mon, Sep 30, 2002","Thu, Sep 19, 2002"
3646,Tampa International,Tampa,United States,TPA,KTPA,27.975472,-82.53325,26,-5,A,"Tampa, FL",4778,4781,4803,4807,4.786521557136871,11.905040786446355,130.0,75.0,"Thu, Sep  5, 2002","Mon, Sep 23, 2002"
3855,Tulsa International,Tulsa,United States,TUL,KTUL,36.198389,-95.888111,677,-6,A,"Tulsa, OK",1613,1610,1633,1631,3.5530068195908227,9.935403726708087,28.0,85.0,"Mon, Sep  2, 2002","Tue, Sep 17, 2002"
3636,Tucson International,Tucson,United States,TUS,KTUS,32.116083,-110.941028,2643,-7,N,"Tucson, AZ",1317,1316,1325,1325,3.975702353834475,10.09042553191488,23.0,58.0,"Tue, Sep  3, 2002","Wed, Sep 25, 2002"
4023,Cherry Capital Airport,Traverse City,United States,TVC,KTVC,44.741445,-85.582235,624,-5,A,"Traverse City, MI",215,219,216,219,2.520930232558138,9.963470319634704,26.0,70.0,"Mon, Sep  2, 2002","Thu, Sep 19, 2002"
3770,Texarkana Regional-Webb Field,Texarkana,United States,TXK,KTXK,33.453722,-93.991028,390,-6,A,"Texarkana, AR",106,106,107,107,4.198113207547168,8.688679245283014,14.0,36.0,"Sat, Sep 21, 2002","Thu, Sep  5, 2002"
3848,Tyler Pounds Regional,Tyler,United States,TYR,KTYR,32.354139,-95.402386,544,-6,A,"Tyler, TX",229,231,231,231,5.707423580786026,9.696969696969694,13.0,41.0,"Tue, Sep  3, 2002","Thu, Sep 26, 2002"
3676,McGhee Tyson,Knoxville,United States,TYS,KTYS,35.810972,-83.994028,981,-5,A,"Knoxville, TN",318,318,319,320,3.927672955974845,11.122641509433963,9.0,74.0,"Sun, Sep  1, 2002","Wed, Sep 18, 2002"
3873,Eglin AFB,Valparaiso,United States,VPS,KVPS,30.48325,-86.5254,87,-6,A,"Valparaiso, FL",203,202,209,209,8.103448275862071,10.3019801980198,29.0,27.0,"Thu, Sep 12, 2002","Sat, Sep 14, 2002"
5969,Wrangell Airport,Wrangell,United States,WRG,PAWG,56.4843,-132.37,44,-9,A,"Wrangell, AK",55,55,60,60,2.727272727272727,5.781818181818184,5.0,15.0,"Sun, Sep 15, 2002","Tue, Sep 17, 2002"
4356,NW Arkansas Regional,Bentonville,United States,XNA,KXNA,36.2818694,-94.3068111,1287,-6,A,"Fayetteville, AR",409,409,412,412,4.410757946210271,10.62102689486553,20.0,90.0,"Thu, Sep 26, 2002","Mon, Sep  2, 2002"
6803,Yakutat,Yakutat,United States,YAK,PAYA,59.3012,-139.3937,33,-9,A,"Yakutat, AK",57,60,60,60,3.087719298245614,5.916666666666667,7.0,15.0,"Tue, Sep 10, 2002","Sun, Sep  8, 2002"
