airport_id,name,city,country,iata_faa,iaco,latitude,longitude,altitude,zone,dst,city_state,avg_able_landings,avg_able_takeoffs,total_landings,total_takeoffs,avg_taxi_in,avg_taxi_out,longest_taxi_in,longest_taxi_out,lng_tx_in_date,lng_tx_out_date
4355,Lehigh Valley International,Allentown,United States,ABE,KABE,40.652083,-75.440806,393,-5,A,"Allentown/Bethlehem/Easton, PA",170,170,175,175,4.705882352941178,11.94705882352941,14.0,32.0,"Mon, Jun  3, 2002","Tue, Jun 18, 2002"
3718,Abilene Regional,Abilene,United States,ABI,KABI,32.411319,-99.681897,1791,-6,A,"Abilene, TX",199,200,200,200,4.547738693467335,8.39,10.0,38.0,"Sat, Jun  1, 2002","Thu, Jun 13, 2002"
4019,Albuquerque International Sunport,Albuquerque,United States,ABQ,KABQ,35.0402222,-106.6091944,5355,-7,A,"Albuquerque, NM",3073,3075,3113,3113,4.649853563293208,10.952845528455297,34.0,88.0,"Mon, Jun  3, 2002","Sat, Jun 15, 2002"
3700,Waco Regional,Waco,United States,ACT,KACT,31.611289,-97.230519,516,-6,A,"Waco, TX",202,201,205,204,4.544554455445545,9.169154228855716,13.0,23.0,"Thu, Jun 20, 2002","Sun, Jun  2, 2002"
3531,Kodiak,Kodiak,United States,ADQ,PADQ,57.749967,-152.493856,78,-9,A,"Kodiak, AK",58,58,60,60,2.7413793103448274,6.051724137931035,7.0,18.0,"Wed, Jun 26, 2002","Sat, Jun 22, 2002"
3794,King Salmon,King Salmon,United States,AKN,PAKN,58.676778,-156.649278,68,-9,A,"King Salmon, AK",42,42,42,42,3.9523809523809526,5.666666666666667,9.0,10.0,"Wed, Jun 12, 2002","Wed, Jun 26, 2002"
3864,Albany International,Albany,United States,ALB,KALB,42.748267,-73.801692,285,-5,A,"Albany, NY",1136,1139,1153,1153,3.859154929577465,11.07901668129938,31.0,207.0,"Wed, Jun  5, 2002","Wed, Jun 26, 2002"
3840,Rick Husband Amarillo International,Amarillo,United States,AMA,KAMA,35.219369,-101.705931,3607,-6,A,"Amarillo, TX",498,496,505,505,3.9096385542168677,7.895161290322581,14.0,38.0,"Thu, Jun 13, 2002","Thu, Jun 13, 2002"
3774,Ted Stevens Anchorage International,Anchorage,United States,ANC,PANC,61.174361,-149.996361,152,-9,A,"Anchorage, AK",2186,2187,2237,2234,5.514181152790493,12.388203017832636,40.0,54.0,"Tue, Jun 18, 2002","Fri, Jun 28, 2002"
3682,Hartsfield Jackson Atlanta International,Atlanta,United States,ATL,KATL,33.636719,-84.428067,1026,-5,A,"Atlanta, GA",19481,19565,19737,19744,9.355320568759272,20.850191668796366,94.0,255.0,"Thu, Jun  6, 2002","Thu, Jun  6, 2002"
3673,Austin Bergstrom International,Austin,United States,AUS,KAUS,30.194528,-97.669889,542,-6,A,"Austin, TX",3259,3263,3309,3310,4.784596501994468,10.683113699049928,51.0,141.0,"Wed, Jun 26, 2002","Wed, Jun 26, 2002"
4007,Asheville Regional Airport,Asheville,United States,AVL,KAVL,35.436194,-82.541806,2165,-5,A,"Asheville, NC",119,119,120,120,3.5714285714285716,14.075630252100842,11.0,42.0,"Mon, Jun 24, 2002","Mon, Jun 10, 2002"
4286,Wilkes Barre Scranton International,Scranton,United States,AVP,KAVP,41.338478,-75.723403,962,-5,A,"Scranton/Wilkes-Barre, PA",117,118,120,120,3.547008547008547,10.118644067796609,8.0,22.0,"Tue, Jun  4, 2002","Thu, Jun 13, 2002"
4039,Kalamazoo,Kalamazoo,United States,AZO,KAZO,42.234875,-85.552058,874,-5,A,"Kalamazoo, MI",147,146,167,166,3.340136054421769,9.02739726027397,11.0,43.0,"Fri, Jun 28, 2002","Sun, Jun 16, 2002"
3825,Bradley International,Windsor Locks,United States,BDL,KBDL,41.938889,-72.683222,173,-5,A,"Hartford, CT",2812,2806,2855,2854,5.065789473684206,14.011047754811115,46.0,154.0,"Tue, Jun 25, 2002","Wed, Jun 26, 2002"
3599,Bethel,Bethel,United States,BET,PABE,60.779778,-161.838,121,-9,A,"Bethel, AK",111,111,115,115,2.972972972972973,5.900900900900899,6.0,18.0,"Tue, Jun  4, 2002","Tue, Jun 18, 2002"
3463,Bangor International,Bangor,United States,BGR,KBGR,44.807444,-68.828139,192,-5,A,"Bangor, ME",283,278,289,290,3.985865724381623,8.410071942446042,12.0,26.0,"Sun, Jun  9, 2002","Tue, Jun  4, 2002"
3811,Birmingham International,Birmingham,United States,BHM,KBHM,33.562942,-86.75355,644,-6,A,"Birmingham, AL",1473,1477,1500,1500,3.2572980312287885,10.335138794854414,33.0,67.0,"Tue, Jun  4, 2002","Wed, Jun  5, 2002"
4021,Billings Logan International Airport,Billings,United States,BIL,KBIL,45.80921,-108.537654,3652,-7,A,"Billings, MT",228,228,229,229,3.6140350877192984,9.999999999999996,7.0,21.0,"Tue, Jun 18, 2002","Sat, Jun 15, 2002"
4083,Bismarck Municipal Airport,Bismarck,United States,BIS,KBIS,46.775842,-100.757931,1661,-6,A,"Bismarck/Mandan, ND",119,119,120,120,3.773109243697479,8.327731092436979,6.0,33.0,"Sat, Jun 15, 2002","Sat, Jun 22, 2002"
4037,Central Illinois Regional,Bloomington,United States,BMI,KBMI,40.477111,-88.915917,871,-6,A,"Bloomington/Normal, IL",80,78,90,90,3.8625,8.512820512820513,13.0,21.0,"Fri, Jun  7, 2002","Tue, Jun 11, 2002"
3690,Nashville International,Nashville,United States,BNA,KBNA,36.124472,-86.678194,599,-6,A,"Nashville, TN",4156,4163,4192,4193,5.013474494706452,10.33005044439106,47.0,126.0,"Wed, Jun 12, 2002","Fri, Jun 14, 2002"
3495,Boise Air Terminal,Boise,United States,BOI,KBOI,43.564361,-116.222861,2871,-7,A,"Boise, ID",952,951,955,954,3.684873949579831,10.036803364879061,28.0,63.0,"Sun, Jun 30, 2002","Tue, Jun  4, 2002"
3448,General Edward Lawrence Logan International,Boston,United States,BOS,KBOS,42.364347,-71.005181,19,-5,A,"Boston, MA",8994,9005,9235,9228,7.600177896375369,17.85841199333713,98.0,185.0,"Wed, Jun  5, 2002","Thu, Jun 27, 2002"
3738,Brownsville South Padre Island International,Brownsville,United States,BRO,KBRO,25.906833,-97.425861,22,-6,A,"Brownsville, TX",25,25,25,25,5.400000000000001,8.92,7.0,17.0,"Wed, Jun  5, 2002","Fri, Jun 21, 2002"
3571,Wiley Post Will Rogers Memorial,Barrow,United States,BRW,PABR,71.285446,-156.766003,44,-9,A,"Barrow, AK",64,64,66,66,2.953125,6.71875,6.0,23.0,"Mon, Jun  3, 2002","Wed, Jun 19, 2002"
3846,Baton Rouge Metro-Ryan Field,Baton Rouge,United States,BTR,KBTR,30.533167,-91.149639,70,-6,A,"Baton Rouge, LA",253,255,255,256,5.177865612648219,11.713725490196074,24.0,86.0,"Sat, Jun  1, 2002","Sat, Jun 29, 2002"
3711,Burlington International,Burlington,United States,BTV,KBTV,44.471861,-73.153278,335,-5,A,"Burlington, VT",266,267,269,270,3.5977443609022557,12.138576779026215,9.0,55.0,"Wed, Jun  5, 2002","Wed, Jun  5, 2002"
3820,Buffalo Niagara International,Buffalo,United States,BUF,KBUF,42.940525,-78.732167,724,-5,A,"Buffalo, NY",1374,1371,1394,1393,3.7700145560407567,11.900072939460237,24.0,190.0,"Thu, Jun 13, 2002","Wed, Jun  5, 2002"
3644,Bob Hope,Burbank,United States,BUR,KBUR,34.200667,-118.358667,778,-8,A,"Burbank, CA",2108,2107,2127,2127,2.3809297912713454,10.441860465116273,22.0,45.0,"Thu, Jun 20, 2002","Fri, Jun 28, 2002"
3849,Baltimore Washington International,Baltimore,United States,BWI,KBWI,39.175361,-76.668333,146,-5,A,"Baltimore, MD",7343,7345,7421,7421,5.065504562168055,13.713410483321988,77.0,181.0,"Sat, Jun 29, 2002","Thu, Jun 27, 2002"
4020,Gallatin Field,Bozeman,United States,BZN,KBZN,45.777643,-111.160151,4500,-7,A,"Bozeman, MT",121,120,122,122,4.776859504132229,11.941666666666666,7.0,27.0,"Fri, Jun 14, 2002","Sat, Jun 29, 2002"
3561,Columbia Metropolitan,Colombia,United States,CAE,KCAE,33.938833,-81.119528,236,-5,A,"Columbia, SC",147,147,150,150,5.149659863945579,12.149659863945578,10.0,35.0,"Tue, Jun  4, 2002","Fri, Jun 14, 2002"
4112,Akron Canton Regional Airport,Akron,United States,CAK,KCAK,40.9160833,-81.4421944,1228,-5,A,"Akron, OH",30,30,30,30,5.8,11.166666666666666,8.0,24.0,"Thu, Jun  6, 2002","Thu, Jun  6, 2002"
3610,Merle K. Mudhole Smith,Cordova,United States,CDV,PACV,60.491778,-145.477556,48,-9,A,"Cordova, AK",59,59,60,60,3.101694915254238,5.728813559322034,5.0,13.0,"Sat, Jun  8, 2002","Sat, Jun  8, 2002"
3578,Lovell Field,Chattanooga,United States,CHA,KCHA,35.035278,-85.203808,683,-5,A,"Chattanooga, TN",84,84,90,90,3.988095238095238,11.154761904761907,13.0,72.0,"Mon, Jun  3, 2002","Wed, Jun 26, 2002"
3806,Charleston AFB International,Charleston,United States,CHS,KCHS,32.898647,-80.040528,45,-5,A,"Charleston, SC",392,391,392,392,5.237244897959186,12.989769820971862,13.0,44.0,"Fri, Jun 21, 2002","Sun, Jun 30, 2002"
4043,Cedar Rapids,Cedar Rapids,United States,CID,KCID,41.884694,-91.710806,869,-6,A,"Cedar Rapids/Iowa City, IA",329,329,347,348,4.039513677811551,9.449848024316116,20.0,83.0,"Sun, Jun  9, 2002","Mon, Jun  3, 2002"
3486,Cleveland Hopkins International,Cleveland,United States,CLE,KCLE,41.411689,-81.849794,791,-5,A,"Cleveland, OH",3675,3674,3752,3754,4.470748299319742,15.454545454545459,28.0,149.0,"Sun, Jun  9, 2002","Wed, Jun  5, 2002"
3715,Easterwood Field,College Station,United States,CLL,KCLL,30.588583,-96.363833,321,-6,A,"College Station/Bryan, TX",173,171,175,175,5.38150289017341,8.485380116959066,12.0,23.0,"Sun, Jun  2, 2002","Sat, Jun 29, 2002"
3876,Charlotte Douglas International,Charlotte,United States,CLT,KCLT,35.214,-80.943139,748,-5,A,"Charlotte, NC",9326,9349,9487,9487,6.446279219386661,17.569151780939134,51.0,209.0,"Fri, Jun 28, 2002","Thu, Jun  6, 2002"
3759,Port Columbus International,Columbus,United States,CMH,KCMH,39.997972,-82.891889,815,-5,A,"Columbus, OH",2932,2925,2985,2985,5.424283765347873,12.488888888888908,1437.0,149.0,"Thu, Jun 13, 2002","Tue, Jun 25, 2002"
4049,Champaign,Champaign,United States,CMI,KCMI,40.03925,-88.278056,754,-6,A,"Champaign/Urbana, IL",132,131,145,145,3.4696969696969697,11.458015267175572,12.0,93.0,"Wed, Jun  5, 2002","Mon, Jun 10, 2002"
3819,City Of Colorado Springs Municipal,Colorado Springs,United States,COS,KCOS,38.805805,-104.700778,6187,-7,A,"Colorado Springs, CO",777,774,779,779,6.701415701415702,14.390180878552972,31.0,138.0,"Sun, Jun 30, 2002","Thu, Jun 13, 2002"
3744,Corpus Christi International,Corpus Christi,United States,CRP,KCRP,27.770361,-97.501222,44,-6,A,"Corpus Christi, TX",391,394,396,396,3.4603580562659846,7.395939086294414,32.0,31.0,"Fri, Jun 28, 2002","Thu, Jun 20, 2002"
3488,Cincinnati Northern Kentucky International,Cincinnati,United States,CVG,KCVG,39.048836,-84.667822,896,-5,A,"Cincinnati, OH",5074,5080,5189,5193,6.5084745762711975,17.28740157480323,42.0,118.0,"Wed, Jun  5, 2002","Wed, Jun  5, 2002"
3950,Daytona Beach International,Daytona Beach,United States,DAB,KDAB,29.179917,-81.058056,34,-5,A,"Daytona Beach, FL",115,115,115,115,4.199999999999999,12.71304347826087,8.0,55.0,"Sun, Jun 30, 2002","Wed, Jun 26, 2002"
3502,Dallas Love Field,Dallas,United States,DAL,KDAL,32.847111,-96.851778,487,-6,A,"Dallas, TX",3417,3442,3572,3572,3.038045068773776,7.921847762928532,35.0,78.0,"Thu, Jun 13, 2002","Tue, Jun 25, 2002"
3627,James M. Cox Dayton International,Dayton,United States,DAY,KDAY,39.902375,-84.219375,1009,-5,A,"Dayton, OH",663,658,682,681,5.475113122171945,14.51063829787234,30.0,102.0,"Wed, Jun  5, 2002","Fri, Jun 14, 2002"
4388,Dubuque Regional,Dubuque IA,United States,DBQ,KDBQ,42.402,-90.709472,1076,-6,A,"Dubuque, IA",81,82,90,90,4.074074074074074,9.353658536585368,29.0,36.0,"Mon, Jun 24, 2002","Sat, Jun 15, 2002"
3520,Ronald Reagan Washington National,Washington,United States,DCA,KDCA,38.852083,-77.037722,15,-5,A,"Washington, DC",5548,5551,5736,5732,4.606885364095167,14.8976760943974,49.0,193.0,"Thu, Jun 20, 2002","Wed, Jun 26, 2002"
3751,Denver International,Denver,United States,DEN,KDEN,39.861656,-104.673178,5431,-7,A,"Denver, CO",10624,10629,10727,10724,7.368034638554217,15.03528083545018,125.0,209.0,"Mon, Jun 17, 2002","Tue, Jun  4, 2002"
3670,Dallas Fort Worth International,Dallas-fort Worth,United States,DFW,KDFW,32.896828,-97.037997,607,-6,A,"Dallas/Fort Worth, TX",23259,23372,23649,23644,11.895997248376997,19.486180044497463,154.0,220.0,"Wed, Jun 26, 2002","Wed, Jun 26, 2002"
3460,Dillingham,Dillingham,United States,DLG,PADL,59.044667,-158.5055,74,-9,A,"Dillingham, AK",42,42,43,43,2.642857142857143,5.666666666666665,5.0,13.0,"Thu, Jun 27, 2002","Thu, Jun 20, 2002"
3598,Duluth International,Duluth,United States,DLH,KDLH,46.842091,-92.193649,1428,-6,A,"Duluth, MN",172,171,176,176,3.5,9.438596491228072,9.0,72.0,"Mon, Jun 24, 2002","Fri, Jun 14, 2002"
3713,Durango La Plata County,Durango,United States,DRO,KDRO,37.151516,-107.75377,6685,-7,A,"Durango, CO",40,40,40,40,4.625,8.55,13.0,17.0,"Sun, Jun 23, 2002","Sat, Jun  8, 2002"
3729,Des Moines International,Des Moines,United States,DSM,KDSM,41.533972,-93.663083,958,-6,A,"Des Moines, IA",718,718,738,740,3.729805013927578,11.720055710306417,24.0,105.0,"Wed, Jun 26, 2002","Mon, Jun 24, 2002"
3645,Detroit Metro Wayne County,Detroit,United States,DTW,KDTW,42.212444,-83.353389,645,-5,A,"Detroit, MI",11745,11804,12097,12100,9.472711792252044,18.536004744154475,77.0,206.0,"Fri, Jun 21, 2002","Thu, Jun 27, 2002"
3860,Unalaska,Unalaska,United States,DUT,PADU,53.900139,-166.5435,22,-9,A,"Unalaska, AK",48,48,64,64,2.125,4.958333333333334,5.0,18.0,"Fri, Jun 28, 2002","Fri, Jun 28, 2002"
3559,El Paso International,El Paso,United States,ELP,KELP,31.80725,-106.377583,3958,-7,A,"El Paso, TX",1745,1738,1769,1768,3.1787965616045835,10.001726121979297,15.0,117.0,"Mon, Jun 24, 2002","Wed, Jun 26, 2002"
4099,Mahlon Sweet Field,Eugene,United States,EUG,KEUG,44.124583,-123.211972,374,-8,A,"Eugene, OR",114,114,114,114,2.903508771929825,9.298245614035089,7.0,42.0,"Sun, Jun 23, 2002","Fri, Jun 21, 2002"
4018,Evansville Regional,Evansville,United States,EVV,KEVV,38.036997,-87.532364,418,-6,A,"Evansville, IN",111,109,115,115,3.828828828828829,13.394495412844039,8.0,60.0,"Sun, Jun 30, 2002","Tue, Jun 18, 2002"
3494,Newark Liberty International,Newark,United States,EWR,KEWR,40.6925,-74.168667,18,-5,A,"Newark, NJ",8333,8363,8569,8568,8.316452658106327,25.207939734545008,68.0,378.0,"Thu, Jun 27, 2002","Wed, Jun  5, 2002"
3875,Key West International,Key West,United States,EYW,KEYW,24.556111,-81.759556,3,-5,A,"Key West, FL",179,178,180,180,5.234636871508377,10.224719101123592,25.0,23.0,"Sat, Jun 15, 2002","Sun, Jun 23, 2002"
3832,Fairbanks International,Fairbanks,United States,FAI,PAFA,64.815114,-147.856267,434,-9,A,"Fairbanks, AK",525,520,528,524,6.588571428571427,9.026923076923081,1437.0,34.0,"Sun, Jun 30, 2002","Wed, Jun 12, 2002"
4292,Hector International Airport,Fargo,United States,FAR,KFAR,46.92065,-96.8157639,902,-6,A,"Fargo, ND",205,204,210,209,4.468292682926831,10.59803921568628,9.0,43.0,"Tue, Jun 25, 2002","Fri, Jun  7, 2002"
3687,Fresno Yosemite International,Fresno,United States,FAT,KFAT,36.776194,-119.71814,336,-8,A,"Fresno, CA",265,264,265,265,4.686792452830189,8.965909090909083,10.0,21.0,"Sun, Jun 30, 2002","Mon, Jun 10, 2002"
4127,Glacier Park International,Kalispell,United States,FCA,KFCA,48.310472,-114.256,2977,-7,A,"Kalispell, MT",120,120,120,120,4.65,11.041666666666666,8.0,43.0,"Sun, Jun  9, 2002","Wed, Jun 12, 2002"
3533,Fort Lauderdale Hollywood International,Fort Lauderdale,United States,FLL,KFLL,26.072583,-80.15275,9,-5,A,"Fort Lauderdale, FL",3930,3955,3985,3987,4.699745547073796,16.365613147913972,34.0,147.0,"Sun, Jun 30, 2002","Wed, Jun 19, 2002"
4089,Bishop International,Flint,United States,FNT,KFNT,42.965424,-83.743629,782,-5,A,"Flint, MI",60,60,60,60,4.483333333333333,12.25,15.0,42.0,"Sat, Jun 29, 2002","Mon, Jun  3, 2002"
4009,Sioux Falls,Sioux Falls,United States,FSD,KFSD,43.582014,-96.741914,1429,-6,A,"Sioux Falls, SD",199,196,204,203,5.407035175879397,12.622448979591837,15.0,58.0,"Mon, Jun 24, 2002","Mon, Jun 10, 2002"
3437,Fort Smith Regional,Fort Smith,United States,FSM,KFSM,35.336583,-94.367444,469,-6,A,"Fort Smith, AR",226,226,228,230,4.402654867256641,9.14159292035399,12.0,29.0,"Sun, Jun  2, 2002","Wed, Jun  5, 2002"
4041,Fort Wayne,Fort Wayne,United States,FWA,KFWA,40.978472,-85.195139,815,-5,A,"Fort Wayne, IN",209,210,220,220,4.2200956937799,10.41428571428572,16.0,44.0,"Mon, Jun  3, 2002","Sun, Jun 16, 2002"
3467,Spokane International,Spokane,United States,GEG,KGEG,47.619861,-117.533833,2376,-8,A,"Spokane, WA",1030,1026,1039,1037,4.0514563106796135,9.860623781676413,30.0,51.0,"Mon, Jun 17, 2002","Sun, Jun 16, 2002"
3442,Grand Forks International,Grand Forks,United States,GFK,KGFK,47.949256,-97.176111,845,-6,A,"Grand Forks, ND",84,84,85,85,4.3690476190476195,8.380952380952383,6.0,23.0,"Mon, Jun  3, 2002","Thu, Jun 20, 2002"
3465,East Texas Regional,Longview,United States,GGG,KGGG,32.384014,-94.711486,365,-6,A,"Longview, TX",114,114,115,115,5.026315789473683,8.245614035087717,10.0,18.0,"Mon, Jun 10, 2002","Sat, Jun 22, 2002"
4038,Gulfport-Biloxi,Gulfport,United States,GPT,KGPT,30.407278,-89.070111,28,-6,A,"Gulfport/Biloxi, MS",80,80,81,81,5.000000000000001,9.100000000000005,9.0,20.0,"Fri, Jun 28, 2002","Mon, Jun  3, 2002"
3653,Austin Straubel International,Green Bay,United States,GRB,KGRB,44.485072,-88.129589,695,-6,A,"Green Bay, WI",378,376,396,395,4.253968253968251,10.643617021276595,12.0,98.0,"Thu, Jun  6, 2002","Wed, Jun  5, 2002"
3685,Gerald R. Ford International,Grand Rapids,United States,GRR,KGRR,42.880833,-85.522806,794,-5,A,"Grand Rapids, MI",909,902,942,941,4.0253025302530325,11.194013303769397,27.0,116.0,"Fri, Jun 14, 2002","Mon, Jun  3, 2002"
4008,Piedmont Triad,Greensboro,United States,GSO,KGSO,36.09775,-79.937306,925,-5,A,"Greensboro/High Point, NC",844,847,867,864,4.57227488151659,14.204250295159383,20.0,101.0,"Thu, Jun 20, 2002","Wed, Jun 19, 2002"
4034,Greenville-Spartanburg International,Greenville,United States,GSP,KGSP,34.895556,-82.218889,964,-5,A,"Greer, SC",383,382,390,389,4.125326370757178,12.133507853403142,26.0,138.0,"Tue, Jun 25, 2002","Tue, Jun 25, 2002"
5960,Gustavus Airport,Gustavus,United States,GST,PAGS,58.4253,-135.707,34,-9,A,"Gustavus, AK",21,21,22,22,4.809523809523809,6.857142857142857,10.0,21.0,"Tue, Jun 11, 2002","Fri, Jun 21, 2002"
3880,Great Falls International,Great Falls,United States,GTF,KGTF,47.482,-111.370689,3677,-7,A,"Great Falls, MT",162,160,163,162,4.179012345679011,9.056249999999999,8.0,22.0,"Thu, Jun 20, 2002","Thu, Jun 27, 2002"
3504,Helena Regional,Helena,United States,HLN,KHLN,46.606806,-111.98275,3877,-7,A,"Helena, MT",81,82,85,85,2.8271604938271606,9.365853658536583,11.0,20.0,"Sat, Jun 22, 2002","Sat, Jun 29, 2002"
3728,Honolulu International,Honolulu,United States,HNL,PHNL,21.318681,-157.922428,13,-10,N,"Honolulu, HI",915,920,921,920,4.103825136612022,17.150000000000006,26.0,52.0,"Thu, Jun 13, 2002","Sun, Jun 16, 2002"
3566,William P. Hobby,Houston,United States,HOU,KHOU,29.645419,-95.278889,46,-6,A,"Houston, TX",4458,4483,4587,4587,4.5944369672499175,8.552977916573722,41.0,85.0,"Sat, Jun  1, 2002","Thu, Jun  6, 2002"
3589,Westchester County,White Plains,United States,HPN,KHPN,41.066959,-73.707575,439,-5,A,"White Plains, NY",422,423,452,453,7.464454976303316,17.60283687943265,87.0,196.0,"Wed, Jun 26, 2002","Thu, Jun 27, 2002"
3560,Valley International,Harlingen,United States,HRL,KHRL,26.2285,-97.654389,36,-6,A,"Harlingen/San Benito, TX",333,331,336,336,2.3003003003003006,6.404833836858004,28.0,28.0,"Wed, Jun 19, 2002","Tue, Jun  4, 2002"
4113,Huntsville International Airport-Carl T. Jones Field,Huntsville,United States,HSV,KHSV,34.6371944,-86.7750556,629,-6,A,"Huntsville, AL",286,285,291,291,5.048951048951051,12.354385964912282,25.0,107.0,"Mon, Jun 17, 2002","Thu, Jun 27, 2002"
3714,Washington Dulles International,Washington,United States,IAD,KIAD,38.944533,-77.455811,313,-5,A,"Washington, DC",3708,3709,3779,3780,6.354099244875943,18.235103801563763,65.0,216.0,"Wed, Jun  5, 2002","Wed, Jun 12, 2002"
3550,George Bush Intercontinental Houston,Houston,United States,IAH,KIAH,29.984433,-95.341442,97,-6,A,"Houston, TX",9961,10001,10057,10057,7.4650135528561385,21.926107389261045,53.0,137.0,"Sat, Jun 29, 2002","Wed, Jun 26, 2002"
3457,Wichita Mid Continent,Wichita,United States,ICT,KICT,37.649944,-97.433056,1333,-6,A,"Wichita, KS",400,405,410,412,4.087499999999998,11.439506172839504,38.0,43.0,"Sat, Jun  1, 2002","Wed, Jun  5, 2002"
3845,Wilmington International,Wilmington,United States,ILM,KILM,34.270615,-77.902569,32,-5,A,"Wilmington, NC",173,174,177,177,4.283236994219652,11.810344827586212,13.0,95.0,"Mon, Jun 17, 2002","Wed, Jun 12, 2002"
3585,Indianapolis International,Indianapolis,United States,IND,KIND,39.717331,-86.294383,797,-5,A,"Indianapolis, IN",2701,2705,2768,2768,8.66567937800814,13.207763401109068,128.0,129.0,"Thu, Jun 27, 2002","Tue, Jun  4, 2002"
3857,Long Island MacArthur,Islip,United States,ISP,KISP,40.79525,-73.100222,99,-5,A,"Islip, NY",896,896,899,899,3.833705357142857,8.685267857142867,52.0,52.0,"Wed, Jun 26, 2002","Thu, Jun 27, 2002"
4027,Jackson Hole Airport,Jacksn Hole,United States,JAC,KJAC,43.60733333,-110.73775,6451,-7,A,"Jackson, WY",78,77,78,77,3.5256410256410255,11.727272727272727,19.0,24.0,"Sat, Jun 22, 2002","Sat, Jun 29, 2002"
3580,Jackson Evers International,Jackson,United States,JAN,KJAN,32.311167,-90.075889,346,-6,A,"Jackson/Vicksburg, MS",532,530,533,533,4.364661654135344,9.590566037735845,25.0,120.0,"Sat, Jun 22, 2002","Fri, Jun 14, 2002"
3712,Jacksonville International,Jacksonville,United States,JAX,KJAX,30.494056,-81.687861,30,-5,A,"Jacksonville, FL",1967,1969,1979,1980,5.002033553634974,11.678009141696297,25.0,93.0,"Sat, Jun 15, 2002","Fri, Jun 14, 2002"
3797,John F. Kennedy International,New York,United States,JFK,KJFK,40.639751,-73.778925,13,-5,A,"New York, NY",4328,4342,4423,4424,10.106515711645066,26.023491478581274,94.0,290.0,"Thu, Jun  6, 2002","Thu, Jun 27, 2002"
3492,Juneau International,Juneau,United States,JNU,PAJN,58.354972,-134.576278,21,-9,A,"Juneau, AK",515,516,522,521,3.920388349514563,11.59302325581395,7.0,38.0,"Thu, Jun 13, 2002","Sun, Jun  9, 2002"
3514,Kona International At Keahole,Kona,United States,KOA,PHKO,19.738767,-156.045631,47,-10,N,"Kona, HI",144,143,144,144,3.548611111111111,11.6013986013986,9.0,24.0,"Thu, Jun 27, 2002","Fri, Jun 28, 2002"
3808,Ketchikan International,Ketchikan,United States,KTN,PAKT,55.355556,-131.71375,88,-9,A,"Ketchikan, AK",251,251,255,254,4.752988047808767,9.912350597609565,8.0,34.0,"Fri, Jun  7, 2002","Mon, Jun  3, 2002"
3544,Capital City,Lansing,United States,LAN,KLAN,42.7787,-84.587357,861,-5,A,"Lansing, MI",223,223,230,230,3.8475336322869955,8.937219730941695,7.0,52.0,"Sat, Jun 29, 2002","Mon, Jun 17, 2002"
3877,McCarran International,Las Vegas,United States,LAS,KLAS,36.080056,-115.15225,2141,-8,A,"Las Vegas, NV",10834,10833,10927,10928,5.1934650175374,14.883596418351345,47.0,80.0,"Sun, Jun 30, 2002","Tue, Jun 25, 2002"
4256,Lawton-Fort Sill Regional Airport,Lawton,United States,LAW,KLAW,34.5677144,-98.4166367,1110,-6,A,"Lawton/Fort Sill, OK",201,202,205,205,4.18905472636816,9.148514851485151,12.0,38.0,"Fri, Jun 21, 2002","Wed, Jun  5, 2002"
3484,Los Angeles International,Los Angeles,United States,LAX,KLAX,33.942536,-118.408075,126,-8,A,"Los Angeles, CA",15410,15417,15588,15587,7.683906554185592,14.423363819160656,72.0,197.0,"Fri, Jun 28, 2002","Tue, Jun 25, 2002"
3829,Lubbock Preston Smith International,Lubbock,United States,LBB,KLBB,33.663639,-101.822778,3282,-6,A,"Lubbock, TX",624,626,631,631,2.9983974358974357,8.271565495207671,21.0,30.0,"Tue, Jun  4, 2002","Thu, Jun 27, 2002"
4017,Blue Grass,Lexington KY,United States,LEX,KLEX,38.0365,-84.605889,979,-5,A,"Lexington, KY",109,110,110,110,5.394495412844038,11.381818181818181,16.0,45.0,"Sun, Jun 30, 2002","Thu, Jun  6, 2002"
3493,Lafayette Regional,Lafayette,United States,LFT,KLFT,30.205278,-91.987611,43,-6,A,"Lafayette, LA",28,27,28,28,4.607142857142856,15.407407407407407,8.0,75.0,"Mon, Jun  3, 2002","Sat, Jun 29, 2002"
3697,LaGuardia Airport,New York,United States,LGA,KLGA,40.777245,-73.872608,22,-5,A,"New York, NY",7463,7508,7824,7823,8.03671445799275,25.64957378795952,90.0,301.0,"Thu, Jun 27, 2002","Wed, Jun  5, 2002"
3582,Long Beach,Long Beach,United States,LGB,KLGB,33.817722,-118.151611,60,-8,A,"Long Beach, CA",258,259,263,261,6.062015503875969,15.976833976833955,28.0,92.0,"Mon, Jun 24, 2002","Wed, Jun 26, 2002"
3602,Lihue,Lihue,United States,LIH,PHLI,21.975983,-159.338958,153,-10,N,"Lihue, HI",80,80,80,80,5.6125,8.587500000000002,8.0,30.0,"Sun, Jun 23, 2002","Sun, Jun 16, 2002"
3660,Adams Field,Little Rock,United States,LIT,KLIT,34.729444,-92.224306,262,-6,A,"Little Rock, AR",1151,1154,1163,1163,4.336229365768895,10.012998266897746,20.0,125.0,"Wed, Jun  5, 2002","Sun, Jun 30, 2002"
3691,Laredo International,Laredo,United States,LRD,KLRD,27.54375,-99.461556,508,-6,A,"Laredo, TX",144,144,144,145,4.291666666666665,10.451388888888884,12.0,22.0,"Fri, Jun 28, 2002","Fri, Jun 21, 2002"
4044,LaCrosse Municipal,LaCrosse,United States,LSE,KLSE,43.878986,-91.256711,654,-6,A,"La Crosse, WI",138,138,145,145,2.9782608695652173,11.369565217391305,7.0,86.0,"Sun, Jun 16, 2002","Mon, Jun 24, 2002"
3652,Midland International,Midland,United States,MAF,KMAF,31.942528,-102.201914,2871,-6,A,"Midland/Odessa, TX",579,580,593,593,2.6873920552677006,8.24137931034483,17.0,23.0,"Sat, Jun 15, 2002","Tue, Jun 18, 2002"
4128,MBS International,Saginaw,United States,MBS,KMBS,43.532913,-84.079647,668,-5,A,"Saginaw/Bay City/Midland, MI",168,168,172,173,4.077380952380947,9.369047619047619,16.0,25.0,"Tue, Jun  4, 2002","Mon, Jun 17, 2002"
3458,Kansas City International,Kansas City,United States,MCI,KMCI,39.297606,-94.713905,1026,-6,A,"Kansas City, MO",4699,4713,4767,4768,4.194722281336457,11.437725440271592,49.0,197.0,"Tue, Jun 11, 2002","Tue, Jun  4, 2002"
3878,Orlando International,Orlando,United States,MCO,KMCO,28.429394,-81.308994,96,-5,A,"Orlando, FL",6810,6816,6848,6845,5.154772393538899,14.539906103286382,66.0,168.0,"Wed, Jun 19, 2002","Mon, Jun 17, 2002"
3542,Harrisburg International,Harrisburg,United States,MDT,KMDT,40.193494,-76.763403,310,-5,A,"Harrisburg, PA",471,472,488,488,4.278131634819532,12.169491525423728,12.0,155.0,"Mon, Jun  3, 2002","Tue, Jun  4, 2002"
3747,Chicago Midway International,Chicago,United States,MDW,KMDW,41.785972,-87.752417,620,-6,A,"Chicago, IL",4376,4381,4428,4429,6.1791590493601545,14.752339648482094,79.0,206.0,"Mon, Jun 10, 2002","Thu, Jun 27, 2002"
3473,Memphis International,Memphis,United States,MEM,KMEM,35.042417,-89.976667,341,-6,A,"Memphis, TN",4119,4127,4189,4191,5.5829084729303196,14.72885873515871,62.0,76.0,"Mon, Jun 24, 2002","Mon, Jun 24, 2002"
3826,McAllen Miller International,Mcallen,United States,MFE,KMFE,26.175833,-98.238611,107,-6,A,"Mission/McAllen/Edinburg, TX",239,239,240,240,4.096234309623432,9.69874476987448,8.0,42.0,"Tue, Jun 25, 2002","Fri, Jun 28, 2002"
4101,Rogue Valley International Medford,Medford,United States,MFR,KMFR,42.374228,-122.8735,1335,-8,A,"Medford, OR",90,90,90,90,3.3555555555555556,8.566666666666666,5.0,27.0,"Thu, Jun 13, 2002","Thu, Jun 20, 2002"
4011,Manchester Regional Airport,Manchester NH,United States,MHT,KMHT,42.932556,-71.435667,266,-5,A,"Manchester, NH",1264,1264,1272,1272,5.093354430379747,12.456487341772151,31.0,120.0,"Sat, Jun  1, 2002","Thu, Jun  6, 2002"
3576,Miami International,Miami,United States,MIA,KMIA,25.79325,-80.290556,8,-5,A,"Miami, FL",5306,5317,5360,5351,7.566905390124385,20.95843520782396,83.0,201.0,"Sun, Jun  9, 2002","Mon, Jun 10, 2002"
3717,General Mitchell International,Milwaukee,United States,MKE,KMKE,42.947222,-87.896583,723,-6,A,"Milwaukee, WI",1204,1201,1244,1241,5.073089700996685,14.00999167360533,24.0,137.0,"Thu, Jun 27, 2002","Tue, Jun 25, 2002"
3671,Melbourne International,Melbourne,United States,MLB,KMLB,28.102753,-80.645258,33,-5,A,"Melbourne, FL",113,113,115,115,4.47787610619469,11.973451327433628,13.0,27.0,"Wed, Jun 26, 2002","Wed, Jun 26, 2002"
4072,Quad City International,Moline,United States,MLI,KMLI,41.448528,-90.507539,590,-6,A,"Moline, IL",154,154,160,161,3.1428571428571423,9.162337662337663,9.0,90.0,"Tue, Jun  4, 2002","Tue, Jun  4, 2002"
3782,Mobile Regional,Mobile,United States,MOB,KMOB,30.691231,-88.242814,219,-6,A,"Mobile, AL",172,172,175,175,4.1395348837209305,11.139534883720936,22.0,27.0,"Fri, Jun 14, 2002","Fri, Jun  7, 2002"
3498,Minot International,Minot,United States,MOT,KMOT,48.259378,-101.280333,1716,-6,A,"Minot, ND",88,89,90,90,4.556818181818186,9.606741573033705,9.0,35.0,"Sun, Jun  9, 2002","Mon, Jun 24, 2002"
6838,Sawyer International Airport,Marquette,United States,MQT,KMQT,46.353611,-87.395278,1221,-5,A,"Marquette, MI",19,19,20,20,3.473684210526316,9.210526315789474,5.0,24.0,"Tue, Jun  4, 2002","Wed, Jun 26, 2002"
3948,Monterey Peninsula,Monterey,United States,MRY,KMRY,36.587,-121.842944,257,-8,A,"Monterey, CA",141,140,142,142,3.439716312056737,10.271428571428572,9.0,29.0,"Fri, Jun 21, 2002","Thu, Jun 27, 2002"
3459,Dane County Regional-Truax Field,Madison,United States,MSN,KMSN,43.139858,-89.337514,887,-6,A,"Madison, WI",532,532,564,563,3.817669172932333,12.687969924812034,24.0,109.0,"Thu, Jun 13, 2002","Mon, Jun  3, 2002"
4216,Missoula International,Missoula,United States,MSO,KMSO,46.916306,-114.090556,3205,-7,A,"Missoula, MT",148,148,150,150,4.905405405405406,10.24324324324324,8.0,40.0,"Fri, Jun  7, 2002","Thu, Jun 27, 2002"
3858,Minneapolis St. Paul International,Minneapolis,United States,MSP,KMSP,44.881956,-93.221767,841,-6,A,"Minneapolis, MN",11954,12042,12326,12339,7.347917015225025,20.405995681780432,92.0,213.0,"Fri, Jun 21, 2002","Wed, Jun 26, 2002"
3861,Louis Armstrong New Orleans International,New Orleans,United States,MSY,KMSY,29.993389,-90.258028,4,-6,A,"New Orleans, LA",4060,4061,4094,4092,3.6763546798029556,10.245752277764106,26.0,90.0,"Sun, Jun  9, 2002","Wed, Jun 26, 2002"
3515,Myrtle Beach International,Myrtle Beach,United States,MYR,KMYR,33.67975,-78.928333,25,-5,A,"Myrtle Beach, SC",237,237,237,237,4.71729957805907,11.05485232067511,43.0,34.0,"Fri, Jun 14, 2002","Wed, Jun 26, 2002"
3453,Metropolitan Oakland International,Oakland,United States,OAK,KOAK,37.721278,-122.220722,9,-8,A,"Oakland, CA",5152,5154,5200,5198,5.148874223602504,10.287931703531218,94.0,77.0,"Sun, Jun 23, 2002","Sat, Jun 22, 2002"
3456,Kahului,Kahului,United States,OGG,PHOG,20.89865,-156.430458,54,-10,N,"Kahului, HI",336,339,337,339,4.773809523809521,11.86725663716814,19.0,41.0,"Thu, Jun 20, 2002","Sun, Jun  9, 2002"
3863,Will Rogers World,Oklahoma City,United States,OKC,KOKC,35.393089,-97.600733,1295,-6,A,"Oklahoma City, OK",1643,1651,1671,1671,4.027388922702374,10.02422774076317,26.0,127.0,"Sun, Jun 23, 2002","Tue, Jun 11, 2002"
3454,Eppley Airfield,Omaha,United States,OMA,KOMA,41.303167,-95.894069,984,-6,A,"Omaha, NE",1502,1498,1521,1520,3.4567243675099886,10.837783711615492,34.0,139.0,"Tue, Jun 25, 2002","Mon, Jun 24, 2002"
3615,Nome,Nome,United States,OME,PAOM,64.512203,-165.445247,37,-9,A,"Nome, AK",87,88,90,90,2.89655172413793,5.806818181818181,6.0,16.0,"Fri, Jun 28, 2002","Sun, Jun  9, 2002"
3734,Ontario International,Ontario,United States,ONT,KONT,34.056,-117.601194,944,-8,A,"Ontario, CA",2723,2719,2740,2739,4.109805361733381,9.121000367782276,37.0,43.0,"Sat, Jun  8, 2002","Sat, Jun 29, 2002"
3830,Chicago O'Hare International,Chicago,United States,ORD,KORD,41.978603,-87.904842,668,-6,A,"Chicago, IL",26816,27021,28274,28283,7.876976431980902,22.07249916731421,102.0,380.0,"Mon, Jun 10, 2002","Thu, Jun 27, 2002"
3611,Norfolk International,Norfolk,United States,ORF,KORF,36.894611,-76.201222,26,-5,A,"Norfolk, VA",1589,1588,1618,1618,4.062932662051619,11.510705289672531,33.0,136.0,"Tue, Jun 18, 2002","Thu, Jun 27, 2002"
6426,Worcester Regional Airport,Worcester,United States,ORH,KORH,42.2673,-71.8757,1009,-5,U,"Worcester, MA",28,28,30,30,2.7142857142857144,11.25,7.0,68.0,"Fri, Jun 21, 2002","Tue, Jun 25, 2002"
3693,Ralph WienMemorial,Kotzebue,United States,OTZ,PAOT,66.884678,-162.59855,11,-9,A,"Kotzebue, AK",88,88,90,90,2.8068181818181817,6.329545454545454,7.0,21.0,"Fri, Jun 21, 2002","Fri, Jun 21, 2002"
3722,Palm Beach International,West Palm Beach,United States,PBI,KPBI,26.683161,-80.095589,19,-5,A,"West Palm Beach/Palm Beach, FL",1574,1580,1592,1590,4.681702668360865,13.197468354430375,15.0,144.0,"Wed, Jun 26, 2002","Wed, Jun 12, 2002"
3720,Portland International,Portland,United States,PDX,KPDX,45.588722,-122.5975,30,-8,A,"Portland, OR",4295,4292,4339,4338,3.857043073341094,11.22972972972976,34.0,225.0,"Wed, Jun 12, 2002","Mon, Jun 10, 2002"
3752,Philadelphia International,Philadelphia,United States,PHL,KPHL,39.871944,-75.241139,36,-5,A,"Philadelphia, PA",8749,8739,9052,9020,7.890501771631029,24.815768394553164,139.0,298.0,"Mon, Jun 24, 2002","Thu, Jun  6, 2002"
3462,Phoenix Sky Harbor International,Phoenix,United States,PHX,KPHX,33.434278,-112.011583,1135,-7,N,"Phoenix, AZ",14501,14542,14749,14753,6.968967657402931,14.380209049649268,137.0,158.0,"Sun, Jun 23, 2002","Thu, Jun 13, 2002"
4046,Peoria Regional,Peoria,United States,PIA,KPIA,40.664203,-89.693258,660,-6,A,"Peoria, IL",112,112,120,120,2.8392857142857144,9.1875,12.0,33.0,"Mon, Jun  3, 2002","Sun, Jun 16, 2002"
3570,Pittsburgh International,Pittsburgh (pennsylva),United States,PIT,KPIT,40.491467,-80.232872,1204,-5,A,"Pittsburgh, PA",6768,6829,6929,6955,6.7724586288416075,15.438717235319942,37.0,146.0,"Fri, Jun 14, 2002","Tue, Jun  4, 2002"
3564,Pensacola Regional,Pensacola,United States,PNS,KPNS,30.473425,-87.186611,121,-6,A,"Pensacola, FL",333,333,335,335,4.789789789789793,12.036036036036041,30.0,98.0,"Fri, Jun  7, 2002","Mon, Jun 17, 2002"
6133,Tri Cities Airport,Pasco,United States,PSC,PSC,46.2647,-119.119,410,-8,A,"Pasco/Kennewick/Richland, WA",60,60,60,60,4.916666666666669,9.533333333333333,8.0,12.0,"Sun, Jun  9, 2002","Sat, Jun  1, 2002"
4147,Petersburg James A. Johnson,Petersburg,United States,PSG,PAPG,56.801667,-132.945278,105,-9,A,"Petersburg, AK",58,58,60,60,2.4310344827586206,6.362068965517241,8.0,13.0,"Tue, Jun 11, 2002","Thu, Jun 27, 2002"
3839,Palm Springs International,Palm Springs,United States,PSP,KPSP,33.829667,-116.506694,477,-8,A,"Palm Springs, CA",300,301,301,302,4.2333333333333325,9.601328903654478,12.0,37.0,"Wed, Jun 12, 2002","Tue, Jun  4, 2002"
3641,Theodore Francis Green State,Providence,United States,PVD,KPVD,41.732581,-71.420383,55,-5,A,"Providence, RI",2300,2302,2342,2341,4.5682608695652185,12.305386620330143,52.0,193.0,"Wed, Jun 12, 2002","Wed, Jun 26, 2002"
3862,Portland International Jetport,Portland,United States,PWM,KPWM,43.646161,-70.309281,77,-5,A,"Portland, ME",621,623,645,646,4.165861513687603,10.884430176565006,12.0,82.0,"Mon, Jun  3, 2002","Wed, Jun 26, 2002"
4087,Rapid City Regional Airport,Rapid City,United States,RAP,KRAP,44.045278,-103.057222,3204,-7,A,"Rapid City, SD",143,142,144,144,4.7832167832167825,10.788732394366198,13.0,62.0,"Tue, Jun  4, 2002","Thu, Jun 20, 2002"
3626,Raleigh Durham International,Raleigh-durham,United States,RDU,KRDU,35.877639,-78.787472,435,-5,A,"Raleigh/Durham, NC",3848,3848,3920,3919,5.057692307692327,12.371101871101859,59.0,170.0,"Sun, Jun 23, 2002","Wed, Jun 26, 2002"
3608,Richmond International,Richmond,United States,RIC,KRIC,37.505167,-77.319667,167,-5,A,"Richmond, VA",1180,1169,1218,1216,5.528813559322034,12.946107784431131,26.0,110.0,"Fri, Jun 14, 2002","Thu, Jun  6, 2002"
3807,Reno Tahoe International,Reno,United States,RNO,KRNO,39.499108,-119.768108,4415,-8,A,"Reno, NV",2005,2003,2016,2015,3.9546134663341674,9.678482276585115,28.0,45.0,"Sun, Jun  9, 2002","Thu, Jun 13, 2002"
3622,Greater Rochester International,Rochester,United States,ROC,KROC,43.118866,-77.672389,559,-5,A,"Rochester, NY",815,812,833,832,5.024539877300615,13.01108374384236,19.0,166.0,"Sun, Jun  2, 2002","Tue, Jun 25, 2002"
4048,Rochester,Rochester,United States,RST,KRST,43.908283,-92.500014,1317,-6,A,"Rochester, MN",190,190,201,201,4.121052631578949,9.999999999999995,9.0,69.0,"Sun, Jun 30, 2002","Tue, Jun  4, 2002"
3793,Southwest Florida International,Fort Myers,United States,RSW,KRSW,26.536167,-81.755167,30,-5,A,"Fort Myers, FL",1015,1012,1015,1015,4.053201970443352,13.566205533596833,14.0,115.0,"Tue, Jun 25, 2002","Tue, Jun 25, 2002"
3731,San Diego International,San Diego,United States,SAN,KSAN,32.733556,-117.189667,17,-8,A,"San Diego, CA",6290,6295,6330,6332,3.4642289348171738,12.929944400317734,32.0,119.0,"Fri, Jun 28, 2002","Tue, Jun 25, 2002"
3621,San Antonio International,San Antonio,United States,SAT,KSAT,29.533694,-98.469778,809,-6,A,"San Antonio, TX",2995,2992,3032,3031,3.275792988313859,10.210227272727268,35.0,71.0,"Sat, Jun 22, 2002","Fri, Jun 14, 2002"
3613,Savannah Hilton Head International,Savannah,United States,SAV,KSAV,32.127583,-81.202139,51,-5,A,"Savannah, GA",501,503,506,507,5.229540918163672,12.831013916500995,27.0,111.0,"Sun, Jun 16, 2002","Thu, Jun 13, 2002"
3949,Santa Barbara Municipal,Santa Barbara,United States,SBA,KSBA,34.426211,-119.840372,10,-8,A,"Santa Barbara, CA",265,264,265,265,4.150943396226417,9.613636363636374,10.0,41.0,"Sat, Jun 29, 2002","Sun, Jun  2, 2002"
4359,South Bend Regional,South Bend,United States,SBN,KSBN,41.708661,-86.31725,799,-5,A,"South Bend, IN",57,56,60,60,4.140350877192981,10.839285714285719,8.0,30.0,"Mon, Jun 10, 2002","Fri, Jun 14, 2002"
5768,San Luis County Regional Airport,San Luis Obispo,United States,SBP,KSBP,35.2368,-120.642,212,-8,A,"San Luis Obispo, CA",199,201,201,201,3.5829145728643215,11.69154228855721,11.0,49.0,"Thu, Jun  6, 2002","Thu, Jun 27, 2002"
3620,Deadhorse,Deadhorse,United States,SCC,PASC,70.19475,-148.465167,64,-9,A,"Deadhorse, AK",38,38,39,39,2.789473684210526,5.7631578947368425,5.0,16.0,"Sat, Jun  1, 2002","Thu, Jun 20, 2002"
4014,Louisville International Airport,Louisville,United States,SDF,KSDF,38.1740858,-85.7364989,501,-5,A,"Louisville, KY",1485,1489,1512,1513,5.123905723905724,10.332437877770314,34.0,80.0,"Tue, Jun  4, 2002","Wed, Jun 26, 2002"
3577,Seattle Tacoma International,Seattle,United States,SEA,KSEA,47.449,-122.309306,433,-8,A,"Seattle, WA",9006,9019,9146,9148,6.289473684210527,13.969841445836561,47.0,108.0,"Thu, Jun 27, 2002","Fri, Jun 14, 2002"
3469,San Francisco International,San Francisco,United States,SFO,KSFO,37.618972,-122.374889,13,-8,A,"San Francisco, CA",8512,8540,8607,8612,5.838345864661646,18.06978922716633,42.0,171.0,"Mon, Jun 24, 2002","Tue, Jun 25, 2002"
4348,Springfield Branson National,Springfield,United States,SGF,KSGF,37.245667,-93.388639,1268,-6,A,"Springfield, MO",358,358,361,362,4.586592178770954,11.597765363128493,16.0,45.0,"Fri, Jun 14, 2002","Mon, Jun 10, 2002"
3609,Shreveport Regional,Shreveport,United States,SHV,KSHV,32.446629,-93.8256,258,-6,A,"Shreveport, LA",374,374,380,380,5.21390374331551,8.537433155080208,16.0,23.0,"Mon, Jun  3, 2002","Tue, Jun 25, 2002"
3856,Sitka Rocky Gutierrez,Sitka,United States,SIT,PASI,57.047138,-135.361611,21,-9,A,"Sitka, AK",163,163,164,164,4.067484662576686,9.024539877300619,14.0,24.0,"Tue, Jun 18, 2002","Thu, Jun  6, 2002"
3748,Norman Y. Mineta San Jose International,San Jose,United States,SJC,KSJC,37.3626,-121.929022,62,-8,A,"San Jose, CA",5076,5079,5138,5143,4.32486209613871,13.496554439850353,130.0,127.0,"Sun, Jun 30, 2002","Mon, Jun  3, 2002"
3708,San Angelo Regional-Mathis Field,San Angelo,United States,SJT,KSJT,31.35775,-100.496306,1919,-6,A,"San Angelo, TX",174,175,174,175,4.287356321839082,9.33142857142858,17.0,23.0,"Fri, Jun 28, 2002","Fri, Jun 14, 2002"
3536,Salt Lake City International,Salt Lake City,United States,SLC,KSLC,40.788389,-111.977772,4227,-7,A,"Salt Lake City, UT",5774,5783,5809,5807,5.558365084863177,15.791803562164974,41.0,82.0,"Fri, Jun 28, 2002","Sun, Jun 30, 2002"
3817,Sacramento International,Sacramento,United States,SMF,KSMF,38.695417,-121.590778,27,-8,A,"Sacramento, CA",3432,3430,3446,3446,4.094114219114212,9.552186588921304,44.0,54.0,"Sun, Jun 23, 2002","Fri, Jun 14, 2002"
3867,John Wayne Airport Orange County,Santa Ana,United States,SNA,KSNA,33.675667,-117.868222,56,-8,A,"Santa Ana, CA",3502,3507,3562,3563,7.05653912050257,13.49044767607641,66.0,162.0,"Wed, Jun  5, 2002","Thu, Jun 20, 2002"
3680,Sheppard AFB Wichita Falls Municipal,Wichita Falls,United States,SPS,KSPS,33.988797,-98.491894,1019,-6,A,"Wichita Falls, TX",167,167,170,170,5.431137724550897,10.317365269461074,14.0,36.0,"Sun, Jun  9, 2002","Fri, Jun 21, 2002"
4067,Sarasota Bradenton International,Sarasota,United States,SRQ,KSRQ,27.395444,-82.554389,30,-5,A,"Sarasota/Bradenton, FL",257,258,261,261,4.424124513618679,12.78682170542636,12.0,115.0,"Thu, Jun 20, 2002","Tue, Jun 25, 2002"
3678,Lambert St. Louis International,St. Louis,United States,STL,KSTL,38.748697,-90.370028,618,-6,A,"St. Louis, MO",11233,11276,11471,11468,6.614350574201009,18.8452465413266,83.0,196.0,"Tue, Jun 11, 2002","Thu, Jun 27, 2002"
3661,Stewart International,Newburgh,United States,SWF,KSWF,41.504094,-74.104839,491,-5,A,"Newburgh/Poughkeepsie, NY",87,87,90,90,4.390804597701147,12.563218390804598,7.0,39.0,"Sun, Jun  9, 2002","Sun, Jun 16, 2002"
3745,Syracuse Hancock International,Syracuse,United States,SYR,KSYR,43.111187,-76.106311,421,-5,A,"Syracuse, NY",765,762,779,779,4.427450980392158,12.123359580052494,20.0,84.0,"Thu, Jun 27, 2002","Tue, Jun 25, 2002"
3698,Tallahassee Regional,Tallahassee,United States,TLH,KTLH,30.396528,-84.350333,81,-5,A,"Tallahassee, FL",144,143,145,144,4.409722222222223,11.727272727272732,7.0,84.0,"Sat, Jun 29, 2002","Fri, Jun 14, 2002"
4040,Toledo,Toledo,United States,TOL,KTOL,41.586806,-83.807833,684,-5,A,"Toledo, OH",139,138,150,149,2.6618705035971235,10.246376811594205,5.0,45.0,"Mon, Jun 10, 2002","Sun, Jun 16, 2002"
3646,Tampa International,Tampa,United States,TPA,KTPA,27.975472,-82.53325,26,-5,A,"Tampa, FL",5157,5160,5187,5191,5.017839829358145,12.84651162790699,115.0,149.0,"Fri, Jun 28, 2002","Thu, Jun 27, 2002"
3855,Tulsa International,Tulsa,United States,TUL,KTUL,36.198389,-95.888111,677,-6,A,"Tulsa, OK",1657,1659,1682,1683,3.3488231744115877,10.818565400843873,31.0,133.0,"Sat, Jun 22, 2002","Mon, Jun  3, 2002"
3636,Tucson International,Tucson,United States,TUS,KTUS,32.116083,-110.941028,2643,-7,N,"Tucson, AZ",1331,1327,1343,1342,3.6972201352366634,10.899773926149207,27.0,136.0,"Wed, Jun 19, 2002","Thu, Jun 13, 2002"
4023,Cherry Capital Airport,Traverse City,United States,TVC,KTVC,44.741445,-85.582235,624,-5,A,"Traverse City, MI",234,231,239,239,2.876068376068377,12.502164502164502,15.0,121.0,"Sun, Jun 30, 2002","Fri, Jun 21, 2002"
3770,Texarkana Regional-Webb Field,Texarkana,United States,TXK,KTXK,33.453722,-93.991028,390,-6,A,"Texarkana, AR",90,90,90,90,3.888888888888889,7.4,12.0,14.0,"Sat, Jun 29, 2002","Tue, Jun  4, 2002"
3848,Tyler Pounds Regional,Tyler,United States,TYR,KTYR,32.354139,-95.402386,544,-6,A,"Tyler, TX",233,232,235,235,4.832618025751075,10.224137931034488,11.0,25.0,"Wed, Jun 12, 2002","Wed, Jun 26, 2002"
3676,McGhee Tyson,Knoxville,United States,TYS,KTYS,35.810972,-83.994028,981,-5,A,"Knoxville, TN",354,353,360,360,4.598870056497174,12.889518413597731,13.0,107.0,"Sat, Jun 15, 2002","Fri, Jun 14, 2002"
3873,Eglin AFB,Valparaiso,United States,VPS,KVPS,30.48325,-86.5254,87,-6,A,"Valparaiso, FL",202,203,204,204,8.574257425742575,9.906403940886696,16.0,32.0,"Thu, Jun  6, 2002","Tue, Jun 25, 2002"
5969,Wrangell Airport,Wrangell,United States,WRG,PAWG,56.4843,-132.37,44,-9,A,"Wrangell, AK",60,60,60,60,2.249999999999999,6.566666666666666,5.0,21.0,"Sun, Jun  2, 2002","Tue, Jun  4, 2002"
4356,NW Arkansas Regional,Bentonville,United States,XNA,KXNA,36.2818694,-94.3068111,1287,-6,A,"Fayetteville, AR",477,476,496,496,4.207547169811321,10.747899159663874,25.0,106.0,"Thu, Jun 13, 2002","Mon, Jun  3, 2002"
6803,Yakutat,Yakutat,United States,YAK,PAYA,59.3012,-139.3937,33,-9,A,"Yakutat, AK",59,59,60,60,3.457627118644068,6.4576271186440675,7.0,23.0,"Sat, Jun 22, 2002","Fri, Jun 14, 2002"
