airport_id,name,city,country,iata_faa,iaco,latitude,longitude,altitude,zone,dst,city_state,avg_able_landings,avg_able_takeoffs,total_landings,total_takeoffs,avg_taxi_in,avg_taxi_out,longest_taxi_in,longest_taxi_out,lng_tx_in_date,lng_tx_out_date
4355,Lehigh Valley International,Allentown,United States,ABE,KABE,40.652083,-75.440806,393,-5,A,"Allentown/Bethlehem/Easton, PA",419,468,456,502,4.560859188544158,16.188034188034205,63.0,141.0,"Sun, Jan 23, 2005","Mon, Jan 17, 2005"
3718,Abilene Regional,Abilene,United States,ABI,KABI,32.411319,-99.681897,1791,-6,A,"Abilene, TX",248,247,259,259,3.5887096774193528,9.097165991902838,12.0,126.0,"Fri, Jan 28, 2005","Wed, Jan 12, 2005"
4019,Albuquerque International Sunport,Albuquerque,United States,ABQ,KABQ,35.0402222,-106.6091944,5355,-7,A,"Albuquerque, NM",2944,2953,2979,2980,4.4531249999999964,9.843210294615613,26.0,149.0,"Tue, Jan  4, 2005","Wed, Jan 12, 2005"
5715,Southwest Georgia Regional Airport,Albany,United States,ABY,KABY,31.5355,-84.1945,197,-5,A,"Albany, GA",108,107,121,121,3.4722222222222223,8.588785046728972,7.0,32.0,"Sun, Jan 16, 2005","Wed, Jan 19, 2005"
3700,Waco Regional,Waco,United States,ACT,KACT,31.611289,-97.230519,516,-6,A,"Waco, TX",278,278,285,286,4.636690647482012,10.395683453237407,21.0,37.0,"Mon, Jan  3, 2005","Fri, Jan  7, 2005"
4384,Arcata,Arcata CA,United States,ACV,KACV,40.978111,-124.108611,221,-8,A,"Arcata/Eureka, CA",312,315,328,328,3.4391025641025634,8.053968253968259,11.0,127.0,"Wed, Jan  5, 2005","Mon, Jan  3, 2005"
3524,Atlantic City International,Atlantic City,United States,ACY,KACY,39.457583,-74.577167,75,-5,A,"Atlantic City, NJ",83,83,91,91,4.722891566265061,11.650602409638553,63.0,29.0,"Wed, Jan 12, 2005","Sun, Jan 30, 2005"
5959,Adak Airport,Adak Island,United States,ADK,PADK,51.878,-176.646,18,-10,A,"Adak Island, AK",8,8,9,9,4.125,6.125,5.0,7.0,"Thu, Jan 27, 2005","Thu, Jan  6, 2005"
3531,Kodiak,Kodiak,United States,ADQ,PADQ,57.749967,-152.493856,78,-9,A,"Kodiak, AK",59,59,62,62,3.2203389830508473,7.084745762711864,8.0,22.0,"Sat, Jan 22, 2005","Sat, Jan 22, 2005"
3852,Alexandria International,Alexandria,United States,AEX,KAEX,31.3274,-92.549833,89,-6,A,"Alexandria, LA",246,244,254,252,5.349593495934963,11.01639344262295,11.0,89.0,"Fri, Jan 14, 2005","Thu, Jan 20, 2005"
3658,Augusta Regional At Bush Field,Bush Field,United States,AGS,KAGS,33.369944,-81.9645,144,-5,A,"Augusta, GA",219,218,244,245,3.4246575342465753,11.99082568807339,9.0,104.0,"Thu, Jan 27, 2005","Sun, Jan  9, 2005"
3794,King Salmon,King Salmon,United States,AKN,PAKN,58.676778,-156.649278,68,-9,A,"King Salmon, AK",21,21,22,22,3.5238095238095237,4.142857142857143,7.0,8.0,"Thu, Jan 13, 2005","Thu, Jan 13, 2005"
3864,Albany International,Albany,United States,ALB,KALB,42.748267,-73.801692,285,-5,A,"Albany, NY",1413,1416,1496,1500,3.9150743099787673,15.94985875706212,32.0,160.0,"Sun, Jan  2, 2005","Wed, Jan 12, 2005"
3840,Rick Husband Amarillo International,Amarillo,United States,AMA,KAMA,35.219369,-101.705931,3607,-6,A,"Amarillo, TX",636,641,670,671,3.7405660377358485,9.01716068642745,17.0,47.0,"Wed, Jan 12, 2005","Sat, Jan 29, 2005"
3774,Ted Stevens Anchorage International,Anchorage,United States,ANC,PANC,61.174361,-149.996361,152,-9,A,"Anchorage, AK",1440,1458,1491,1494,5.433333333333336,12.558984910836768,18.0,75.0,"Fri, Jan 28, 2005","Sun, Jan  2, 2005"
4012,Naples Municipal,Naples,United States,APF,KAPF,26.152619,-81.775294,8,-5,A,"Naples, FL",86,86,93,93,3.813953488372093,11.372093023255816,7.0,42.0,"Wed, Jan 12, 2005","Sun, Jan  2, 2005"
3682,Hartsfield Jackson Atlanta International,Atlanta,United States,ATL,KATL,33.636719,-84.428067,1026,-5,A,"Atlanta, GA",32568,32923,35048,35282,8.89363792679931,19.081098320323125,112.0,508.0,"Sat, Jan 29, 2005","Fri, Jan 28, 2005"
4047,Appleton,Appleton,United States,ATW,KATW,44.257526,-88.507576,680,-6,A,"Appleton, WI",193,170,209,184,4.284974093264246,13.741176470588234,28.0,85.0,"Thu, Jan  6, 2005","Thu, Jan  6, 2005"
3673,Austin Bergstrom International,Austin,United States,AUS,KAUS,30.194528,-97.669889,542,-6,A,"Austin, TX",3370,3372,3450,3445,4.582492581602369,11.221233689205203,35.0,149.0,"Wed, Jan 12, 2005","Wed, Jan 12, 2005"
4007,Asheville Regional Airport,Asheville,United States,AVL,KAVL,35.436194,-82.541806,2165,-5,A,"Asheville, NC",343,335,368,357,3.4285714285714297,12.853731343283572,11.0,59.0,"Tue, Jan 25, 2005","Mon, Jan 10, 2005"
4286,Wilkes Barre Scranton International,Scranton,United States,AVP,KAVP,41.338478,-75.723403,962,-5,A,"Scranton/Wilkes-Barre, PA",224,197,241,214,4.200892857142857,15.934010152284264,11.0,95.0,"Sun, Jan 30, 2005","Thu, Jan  6, 2005"
4039,Kalamazoo,Kalamazoo,United States,AZO,KAZO,42.234875,-85.552058,874,-5,A,"Kalamazoo, MI",308,308,334,335,3.844155844155844,19.097402597402624,20.0,162.0,"Sun, Jan 23, 2005","Sat, Jan 22, 2005"
3825,Bradley International,Windsor Locks,United States,BDL,KBDL,41.938889,-72.683222,173,-5,A,"Hartford, CT",2801,2799,2989,2990,5.615137450910389,17.413004644515876,39.0,142.0,"Sat, Jan  8, 2005","Wed, Jan  5, 2005"
3599,Bethel,Bethel,United States,BET,PABE,60.779778,-161.838,121,-9,A,"Bethel, AK",92,92,97,97,2.869565217391304,6.880434782608695,8.0,20.0,"Mon, Jan 17, 2005","Mon, Jan 10, 2005"
3558,Meadows Field,Bakersfield,United States,BFL,KBFL,35.433598,-119.05677,507,-8,A,"Bakersfield, CA",287,288,294,294,4.651567944250871,7.968749999999998,12.0,28.0,"Mon, Jan  3, 2005","Fri, Jan  7, 2005"
4129,Greater Binghamton-Edwin A. Link Field,Binghamton,United States,BGM,KBGM,42.208689,-75.979839,1636,-5,A,"Binghamton, NY",79,77,93,93,3.7341772151898733,17.779220779220783,8.0,47.0,"Mon, Jan 24, 2005","Sat, Jan 22, 2005"
3463,Bangor International,Bangor,United States,BGR,KBGR,44.807444,-68.828139,192,-5,A,"Bangor, ME",373,368,408,407,4.573726541554956,14.478260869565213,16.0,76.0,"Mon, Jan 17, 2005","Thu, Jan 20, 2005"
3811,Birmingham International,Birmingham,United States,BHM,KBHM,33.562942,-86.75355,644,-6,A,"Birmingham, AL",1809,1811,1860,1862,3.849640685461581,10.652678078409716,29.0,60.0,"Tue, Jan 18, 2005","Mon, Jan 17, 2005"
4021,Billings Logan International Airport,Billings,United States,BIL,KBIL,45.80921,-108.537654,3652,-7,A,"Billings, MT",403,404,410,413,3.930521091811416,11.163366336633663,12.0,39.0,"Tue, Jan  4, 2005","Fri, Jan 14, 2005"
4083,Bismarck Municipal Airport,Bismarck,United States,BIS,KBIS,46.775842,-100.757931,1661,-6,A,"Bismarck/Mandan, ND",206,206,213,212,3.8883495145631066,11.169902912621367,10.0,116.0,"Thu, Jan 27, 2005","Mon, Jan  3, 2005"
4037,Central Illinois Regional,Bloomington,United States,BMI,KBMI,40.477111,-88.915917,871,-6,A,"Bloomington/Normal, IL",211,211,247,247,4.781990521327018,13.981042654028435,24.0,150.0,"Thu, Jan 13, 2005","Wed, Jan 12, 2005"
3690,Nashville International,Nashville,United States,BNA,KBNA,36.124472,-86.678194,599,-6,A,"Nashville, TN",4921,4923,5050,5049,4.953464742938432,10.96364005687588,32.0,120.0,"Sun, Jan  2, 2005","Sat, Jan 22, 2005"
3495,Boise Air Terminal,Boise,United States,BOI,KBOI,43.564361,-116.222861,2871,-7,A,"Boise, ID",1267,1286,1326,1334,3.845303867403315,10.641524105754264,63.0,102.0,"Wed, Jan 26, 2005","Mon, Jan  3, 2005"
3448,General Edward Lawrence Logan International,Boston,United States,BOS,KBOS,42.364347,-71.005181,19,-5,A,"Boston, MA",9689,9687,10849,10848,8.766745794199624,21.39578816971196,194.0,192.0,"Mon, Jan 24, 2005","Wed, Jan 26, 2005"
3612,Southeast Texas Regional,Beaumont,United States,BPT,KBPT,29.950833,-94.020694,15,-6,A,"Beaumont/Port Arthur, TX",270,268,280,280,3.3481481481481485,7.440298507462686,10.0,40.0,"Wed, Jan  5, 2005","Tue, Jan 25, 2005"
5725,Brunswick Golden Isles Airport,Brunswick,United States,BQK,KBQK,31.2588,-81.4665,26,-5,A,"Brunswick, GA",105,106,118,118,3.8857142857142875,9.169811320754713,9.0,67.0,"Mon, Jan 31, 2005","Thu, Jan  6, 2005"
3738,Brownsville South Padre Island International,Brownsville,United States,BRO,KBRO,25.906833,-97.425861,22,-6,A,"Brownsville, TX",141,142,143,143,6.262411347517731,13.57042253521127,20.0,39.0,"Sun, Jan  9, 2005","Mon, Jan 31, 2005"
3571,Wiley Post Will RogersMemorial,Barrow,United States,BRW,PABR,71.285446,-156.766003,44,-9,A,"Barrow, AK",52,52,53,53,3.326923076923077,5.192307692307692,12.0,10.0,"Sun, Jan 30, 2005","Wed, Jan  5, 2005"
4022,Bert Mooney Airport,Butte,United States,BTM,KBTM,45.954806,-112.497472,5550,-7,A,"Butte, MT",116,116,126,123,4.3017241379310365,9.525862068965516,7.0,28.0,"Fri, Jan  7, 2005","Mon, Jan 17, 2005"
3846,Baton Rouge Metro-Ryan Field,Baton Rouge,United States,BTR,KBTR,30.533167,-91.149639,70,-6,A,"Baton Rouge, LA",694,726,713,752,4.304034582132566,12.066115702479333,30.0,194.0,"Thu, Jan  6, 2005","Mon, Jan 10, 2005"
3711,Burlington International,Burlington,United States,BTV,KBTV,44.471861,-73.153278,335,-5,A,"Burlington, VT",609,612,653,652,4.098522167487687,19.179738562091504,20.0,120.0,"Sun, Jan  2, 2005","Wed, Jan 26, 2005"
3820,Buffalo Niagara International,Buffalo,United States,BUF,KBUF,42.940525,-78.732167,724,-5,A,"Buffalo, NY",2195,2168,2332,2314,4.330296127562639,15.87961254612545,34.0,140.0,"Sun, Jan  2, 2005","Thu, Jan 13, 2005"
3644,Bob Hope,Burbank,United States,BUR,KBUR,34.200667,-118.358667,778,-8,A,"Burbank, CA",2213,2208,2254,2252,2.7821961138725735,10.59193840579708,23.0,51.0,"Tue, Jan 11, 2005","Mon, Jan 31, 2005"
3849,Baltimore Washington International,Baltimore,United States,BWI,KBWI,39.175361,-76.668333,146,-5,A,"Baltimore, MD",8451,8470,8801,8798,5.173470595195839,13.60259740259741,68.0,223.0,"Sat, Jan 29, 2005","Sun, Jan 30, 2005"
4020,Gallatin Field,Bozeman,United States,BZN,KBZN,45.777643,-111.160151,4500,-7,A,"Bozeman, MT",431,432,442,442,4.707656612529004,14.324074074074085,17.0,194.0,"Sun, Jan  2, 2005","Mon, Jan  3, 2005"
3561,Columbia Metropolitan,Colombia,United States,CAE,KCAE,33.938833,-81.119528,236,-5,A,"Columbia, SC",1080,1058,1136,1114,4.29444444444445,12.423440453686199,63.0,59.0,"Fri, Jan 14, 2005","Thu, Jan 20, 2005"
4112,Akron Canton Regional Airport,Akron,United States,CAK,KCAK,40.9160833,-81.4421944,1228,-5,A,"Akron, OH",764,753,825,810,5.219895287958123,15.95750332005312,56.0,96.0,"Wed, Jan 19, 2005","Sat, Jan 22, 2005"
3824,Cedar City Regional,Cedar City,United States,CDC,KCDC,37.700967,-113.098847,5622,-7,A,"Cedar City, UT",54,57,64,64,2.962962962962963,7.526315789473684,5.0,61.0,"Fri, Jan  7, 2005","Wed, Jan 19, 2005"
3610,Merle K. Mudhole Smith,Cordova,United States,CDV,PACV,60.491778,-145.477556,48,-9,A,"Cordova, AK",58,58,62,62,3.206896551724138,4.827586206896551,7.0,11.0,"Sun, Jan  9, 2005","Tue, Jan  4, 2005"
5727,Del Norte County Airport,Crescent City,United States,CEC,KCEC,41.7802,-124.237,57,-8,A,"Crescent City, CA",81,81,85,85,2.8024691358024683,9.641975308641975,10.0,116.0,"Wed, Jan 26, 2005","Mon, Jan  3, 2005"
3578,Lovell Field,Chattanooga,United States,CHA,KCHA,35.035278,-85.203808,683,-5,A,"Chattanooga, TN",403,404,440,441,3.493796526054591,10.717821782178218,11.0,93.0,"Wed, Jan 19, 2005","Mon, Jan  3, 2005"
4015,Charlottesville-Albemarle,Charlottesville VA,United States,CHO,KCHO,38.138639,-78.452861,639,-5,A,"Charlottesville, VA",170,170,186,186,3.1941176470588224,10.023529411764706,7.0,32.0,"Sat, Jan  1, 2005","Thu, Jan 20, 2005"
3806,Charleston AFB International,Charleston,United States,CHS,KCHS,32.898647,-80.040528,45,-5,A,"Charleston, SC",1290,1282,1359,1359,5.341860465116276,12.315912636505448,65.0,88.0,"Mon, Jan 24, 2005","Mon, Jan 10, 2005"
3710,Chico Municipal,Chico,United States,CIC,KCIC,39.795383,-121.858422,238,-8,A,"Chico, CA",84,84,92,92,3.261904761904762,9.238095238095244,8.0,32.0,"Fri, Jan 21, 2005","Mon, Jan 10, 2005"
4043,Cedar Rapids,Cedar Rapids,United States,CID,KCID,41.884694,-91.710806,869,-6,A,"Cedar Rapids/Iowa City, IA",569,563,631,629,4.89279437609842,13.96802841918295,65.0,120.0,"Sun, Jan 16, 2005","Sun, Jan  9, 2005"
4088,McClellan-Palomar Airport,Carlsbad,United States,CLD,KCRQ,33.0742,-117.1648,328,-8,A,"Carlsbad, CA",166,168,177,178,3.2048192771084345,6.755952380952381,15.0,23.0,"Thu, Jan 20, 2005","Tue, Jan 25, 2005"
3486,Cleveland Hopkins International,Cleveland,United States,CLE,KCLE,41.411689,-81.849794,791,-5,A,"Cleveland, OH",6872,6880,7196,7185,7.028958090803259,21.97645348837218,48.0,177.0,"Sat, Jan  8, 2005","Wed, Jan  5, 2005"
3715,Easterwood Field,College Station,United States,CLL,KCLL,30.588583,-96.363833,321,-6,A,"College Station/Bryan, TX",331,330,339,338,4.740181268882177,10.927272727272728,14.0,40.0,"Mon, Jan 31, 2005","Mon, Jan  3, 2005"
3876,Charlotte Douglas International,Charlotte,United States,CLT,KCLT,35.214,-80.943139,748,-5,A,"Charlotte, NC",9144,9197,9472,9477,4.876859142607181,16.55800804610196,46.0,209.0,"Sun, Jan 30, 2005","Sat, Jan 29, 2005"
3759,Port Columbus International,Columbus,United States,CMH,KCMH,39.997972,-82.891889,815,-5,A,"Columbus, OH",3214,3214,3373,3373,4.7744243932794,14.50933416303671,39.0,176.0,"Sat, Jan 22, 2005","Thu, Jan 13, 2005"
4049,Champaign,Champaign,United States,CMI,KCMI,40.03925,-88.278056,754,-6,A,"Champaign/Urbana, IL",262,265,301,305,4.019083969465645,14.913207547169812,10.0,118.0,"Thu, Jan 13, 2005","Wed, Jan 12, 2005"
4344,Yellowstone Regional,Cody,United States,COD,KCOD,44.520194,-109.023806,5102,-7,A,"Cody, WY",59,60,62,62,3.898305084745762,8.866666666666667,15.0,35.0,"Sat, Jan 15, 2005","Sat, Jan  1, 2005"
3819,City Of Colorado Springs Municipal,Colorado Springs,United States,COS,KCOS,38.805805,-104.700778,6187,-7,A,"Colorado Springs, CO",1213,1224,1264,1264,6.615828524319876,15.41748366013071,55.0,90.0,"Wed, Jan  5, 2005","Sun, Jan 30, 2005"
3872,Natrona County International,Casper,United States,CPR,KCPR,42.908,-106.464417,5347,-7,A,"Casper, WY",260,262,277,277,3.1807692307692306,9.442748091603054,6.0,36.0,"Tue, Jan 11, 2005","Tue, Jan  4, 2005"
3744,Corpus Christi International,Corpus Christi,United States,CRP,KCRP,27.770361,-97.501222,44,-6,A,"Corpus Christi, TX",730,735,745,745,3.8438356164383563,10.463945578231275,14.0,108.0,"Tue, Jan 25, 2005","Wed, Jan 26, 2005"
4285,Yeager,Charleston,United States,CRW,KCRW,38.373147,-81.593189,981,-5,A,"Charleston/Dunbar, WV",467,465,497,498,3.1241970021413294,11.178494623655912,12.0,122.0,"Wed, Jan  5, 2005","Sat, Jan 22, 2005"
4255,Columbus Metropolitan Airport,Columbus,United States,CSG,KCSG,32.5163333,-84.9388611,397,-5,A,"Columbus, GA",161,159,186,185,3.0559006211180133,7.80503144654088,10.0,35.0,"Fri, Jan  7, 2005","Wed, Jan 19, 2005"
3488,Cincinnati Northern Kentucky International,Cincinnati,United States,CVG,KCVG,39.048836,-84.667822,896,-5,A,"Cincinnati, OH",16827,17174,18052,18173,5.352469245854894,19.34307674391507,134.0,267.0,"Thu, Jan 20, 2005","Thu, Jan 20, 2005"
3804,Cheyenne Regional-Jerry Olson Field,Cheyenne,United States,CYS,KCYS,41.155722,-104.811839,6156,-7,A,"Cheyenne, WY",0,1,1,1,0,5.0,0,5.0,"Wed, Jan  5, 2005","Wed, Jan  5, 2005"
3950,Daytona Beach International,Daytona Beach,United States,DAB,KDAB,29.179917,-81.058056,34,-5,A,"Daytona Beach, FL",297,282,312,295,3.7306397306397305,13.592198581560282,8.0,97.0,"Thu, Jan  6, 2005","Thu, Jan  6, 2005"
3502,Dallas Love Field,Dallas,United States,DAL,KDAL,32.847111,-96.851778,487,-6,A,"Dallas, TX",3558,3573,3684,3686,3.035975267003934,8.167926112510493,25.0,92.0,"Mon, Jan  3, 2005","Sun, Jan  2, 2005"
3627,James M. Cox Dayton International,Dayton,United States,DAY,KDAY,39.902375,-84.219375,1009,-5,A,"Dayton, OH",1215,1221,1286,1288,5.82716049382716,18.7911547911548,43.0,185.0,"Sun, Jan 16, 2005","Fri, Jan 21, 2005"
4388,Dubuque Regional,Dubuque IA,United States,DBQ,KDBQ,42.402,-90.709472,1076,-6,A,"Dubuque, IA",92,92,113,113,3.869565217391306,12.09782608695652,11.0,61.0,"Fri, Jan  7, 2005","Thu, Jan  6, 2005"
3520,Ronald Reagan Washington National,Washington,United States,DCA,KDCA,38.852083,-77.037722,15,-5,A,"Washington, DC",7499,7555,8061,8083,4.792905720762785,15.611780277961628,78.0,157.0,"Mon, Jan 10, 2005","Wed, Jan 12, 2005"
3751,Denver International,Denver,United States,DEN,KDEN,39.861656,-104.673178,5431,-7,A,"Denver, CO",12371,12397,12687,12677,8.092393500929676,17.109542631281727,74.0,195.0,"Wed, Jan 12, 2005","Tue, Jan  4, 2005"
3670,Dallas Fort Worth International,Dallas-fort Worth,United States,DFW,KDFW,32.896828,-97.037997,607,-6,A,"Dallas/Fort Worth, TX",26544,26703,27392,27390,11.227659734779957,16.843088791521392,93.0,256.0,"Wed, Jan 12, 2005","Sat, Jan 22, 2005"
3739,Dothan Regional,Dothan,United States,DHN,KDHN,31.321339,-85.449628,401,-6,A,"Dothan, AL",172,172,187,187,3.604651162790698,9.65697674418605,10.0,50.0,"Sun, Jan 23, 2005","Tue, Jan 11, 2005"
3460,Dillingham,Dillingham,United States,DLG,PADL,59.044667,-158.5055,74,-9,A,"Dillingham, AK",13,13,13,13,3.4615384615384617,5.3076923076923075,5.0,8.0,"Sat, Jan 15, 2005","Sat, Jan 22, 2005"
3598,Duluth International,Duluth,United States,DLH,KDLH,46.842091,-92.193649,1428,-6,A,"Duluth, MN",80,80,82,82,8.1125,14.7875,16.0,89.0,"Tue, Jan 18, 2005","Thu, Jan 20, 2005"
3713,Durango La Plata County,Durango,United States,DRO,KDRO,37.151516,-107.75377,6685,-7,A,"Durango, CO",34,34,35,35,4.088235294117648,14.058823529411763,10.0,91.0,"Sat, Jan  8, 2005","Wed, Jan  5, 2005"
3729,Des Moines International,Des Moines,United States,DSM,KDSM,41.533972,-93.663083,958,-6,A,"Des Moines, IA",878,873,920,919,5.414578587699322,15.884306987399773,22.0,164.0,"Mon, Jan  3, 2005","Sat, Jan  1, 2005"
3645,Detroit Metro Wayne County,Detroit,United States,DTW,KDTW,42.212444,-83.353389,645,-5,A,"Detroit, MI",10989,11020,11404,11391,10.270270270270311,22.799546279491857,104.0,239.0,"Sat, Jan 22, 2005","Sat, Jan 22, 2005"
4250,Eagle County Regional,Vail,United States,EGE,KEGE,39.642556,-106.917694,6540,-7,A,"Eagle, CO",330,339,346,346,4.812121212121209,22.94395280235987,25.0,222.0,"Sat, Jan  8, 2005","Thu, Jan 20, 2005"
5736,Elko Regional Airport,Elko,United States,EKO,KEKO,40.8249,-115.792,5140,-8,A,"Elko, NV",150,149,204,225,4.06,7.778523489932887,10.0,41.0,"Wed, Jan  5, 2005","Tue, Jan 11, 2005"
3559,El Paso International,El Paso,United States,ELP,KELP,31.80725,-106.377583,3958,-7,A,"El Paso, TX",1687,1686,1709,1710,3.3402489626556013,9.109727164887296,19.0,72.0,"Mon, Jan 24, 2005","Thu, Jan 27, 2005"
4276,Erie International-Tom Ridge Field,Erie,United States,ERI,KERI,42.082022,-80.176217,733,-5,A,"Erie, PA",85,85,93,93,3.5058823529411764,17.04705882352942,8.0,66.0,"Sat, Jan  1, 2005","Wed, Jan  5, 2005"
4099,Mahlon Sweet Field,Eugene,United States,EUG,KEUG,44.124583,-123.211972,374,-8,A,"Eugene, OR",425,426,455,453,3.687058823529412,9.906103286384976,16.0,68.0,"Fri, Jan 28, 2005","Sat, Jan 15, 2005"
4018,Evansville Regional,Evansville,United States,EVV,KEVV,38.036997,-87.532364,418,-6,A,"Evansville, IN",446,443,484,484,4.1771300448430475,11.446952595936793,15.0,159.0,"Thu, Jan 13, 2005","Wed, Jan 12, 2005"
3494,Newark Liberty International,Newark,United States,EWR,KEWR,40.6925,-74.168667,18,-5,A,"Newark, NJ",11561,11588,12279,12275,8.643888936943227,25.679496030376303,81.0,311.0,"Wed, Jan 19, 2005","Sat, Jan 22, 2005"
3875,Key West International,Key West,United States,EYW,KEYW,24.556111,-81.759556,3,-5,A,"Key West, FL",48,30,51,32,2.9375,11.733333333333333,5.0,27.0,"Thu, Jan 20, 2005","Tue, Jan 18, 2005"
3832,Fairbanks International,Fairbanks,United States,FAI,PAFA,64.815114,-147.856267,434,-9,A,"Fairbanks, AK",374,374,383,383,3.5828877005347604,9.54812834224599,14.0,44.0,"Sun, Jan 30, 2005","Tue, Jan 11, 2005"
4292,Hector International Airport,Fargo,United States,FAR,KFAR,46.92065,-96.8157639,902,-6,A,"Fargo, ND",340,337,353,352,6.0323529411764705,13.997032640949556,67.0,145.0,"Mon, Jan  3, 2005","Wed, Jan 19, 2005"
3687,Fresno Yosemite International,Fresno,United States,FAT,KFAT,36.776194,-119.71814,336,-8,A,"Fresno, CA",1100,1108,1133,1137,4.064545454545458,8.845667870036092,17.0,61.0,"Fri, Jan 28, 2005","Sun, Jan  9, 2005"
5738,Fayetteville Regional-Grannis Field,Fayetteville,United States,FAY,KFAY,34.9912,-78.8803,189,-5,A,"Fayetteville, NC",137,124,147,132,3.7883211678832116,7.919354838709677,9.0,17.0,"Sat, Jan 22, 2005","Tue, Jan 11, 2005"
4127,Glacier Park International,Kalispell,United States,FCA,KFCA,48.310472,-114.256,2977,-7,A,"Kalispell, MT",258,258,277,280,4.333333333333333,12.213178294573643,14.0,59.0,"Wed, Jan 26, 2005","Wed, Jan  5, 2005"
3533,Fort Lauderdale Hollywood International,Fort Lauderdale,United States,FLL,KFLL,26.072583,-80.15275,9,-5,A,"Fort Lauderdale, FL",5931,5954,6065,6074,5.047715393694153,18.272253946926494,50.0,178.0,"Sun, Jan  2, 2005","Thu, Jan 13, 2005"
3879,Florence Regional,Florence,United States,FLO,KFLO,34.185361,-79.723889,146,-5,A,"Florence, SC",84,83,89,89,4.869047619047619,9.457831325301207,12.0,34.0,"Thu, Jan 20, 2005","Mon, Jan 31, 2005"
4089,Bishop International,Flint,United States,FNT,KFNT,42.965424,-83.743629,782,-5,A,"Flint, MI",703,707,740,741,4.711237553342816,14.171145685997171,15.0,99.0,"Sun, Jan  2, 2005","Sat, Jan 22, 2005"
4009,Sioux Falls,Sioux Falls,United States,FSD,KFSD,43.582014,-96.741914,1429,-6,A,"Sioux Falls, SD",391,388,402,402,5.3759590792838825,15.10309278350514,66.0,84.0,"Mon, Jan 24, 2005","Mon, Jan  3, 2005"
3437,Fort Smith Regional,Fort Smith,United States,FSM,KFSM,35.336583,-94.367444,469,-6,A,"Fort Smith, AR",171,170,176,176,4.403508771929829,9.435294117647056,14.0,66.0,"Sun, Jan  9, 2005","Wed, Jan 12, 2005"
4041,Fort Wayne,Fort Wayne,United States,FWA,KFWA,40.978472,-85.195139,815,-5,A,"Fort Wayne, IN",526,525,584,584,4.4657794676806075,15.097142857142854,29.0,138.0,"Thu, Jan 20, 2005","Wed, Jan  5, 2005"
3467,Spokane International,Spokane,United States,GEG,KGEG,47.619861,-117.533833,2376,-8,A,"Spokane, WA",1155,1158,1184,1185,4.451948051948043,12.65371329879103,14.0,133.0,"Sat, Jan 22, 2005","Sun, Jan 16, 2005"
3442,Grand Forks International,Grand Forks,United States,GFK,KGFK,47.949256,-97.176111,845,-6,A,"Grand Forks, ND",62,61,62,62,5.467741935483871,11.459016393442623,52.0,37.0,"Fri, Jan 21, 2005","Thu, Jan 20, 2005"
3465,East Texas Regional,Longview,United States,GGG,KGGG,32.384014,-94.711486,365,-6,A,"Longview, TX",92,92,93,93,5.782608695652174,11.782608695652174,11.0,93.0,"Thu, Jan 27, 2005","Wed, Jan 12, 2005"
4063,Grand Junction Regional,Grand Junction,United States,GJT,KGJT,39.122413,-108.526735,4858,-7,A,"Grand Junction, CO",259,269,295,293,2.857142857142858,8.431226765799252,10.0,41.0,"Fri, Jan  7, 2005","Wed, Jan 12, 2005"
3472,Gainesville Regional,Gainesville,United States,GNV,KGNV,29.690056,-82.271778,152,-5,A,"Gainesville, FL",172,166,184,177,3.2151162790697674,6.8734939759036155,10.0,45.0,"Mon, Jan 10, 2005","Thu, Jan  6, 2005"
4038,Gulfport-Biloxi,Gulfport,United States,GPT,KGPT,30.407278,-89.070111,28,-6,A,"Gulfport/Biloxi, MS",510,484,539,506,4.825490196078432,10.832644628099168,19.0,46.0,"Sun, Jan  2, 2005","Sat, Jan  8, 2005"
3653,Austin Straubel International,Green Bay,United States,GRB,KGRB,44.485072,-88.129589,695,-6,A,"Green Bay, WI",537,533,569,569,4.6536312849162025,13.4859287054409,28.0,82.0,"Sat, Jan  1, 2005","Fri, Jan 21, 2005"
3775,Robert Gray AAF,Killeen,United States,GRK,KGRK,31.06725,-97.828917,1015,-6,A,"Killeen, TX",482,482,501,503,4.6203319502074685,11.40456431535269,19.0,85.0,"Fri, Jan 28, 2005","Mon, Jan 31, 2005"
3685,Gerald R. Ford International,Grand Rapids,United States,GRR,KGRR,42.880833,-85.522806,794,-5,A,"Grand Rapids, MI",1251,1233,1321,1309,4.858513189448435,16.69099756690999,71.0,152.0,"Sat, Jan 22, 2005","Tue, Jan 18, 2005"
4008,Piedmont Triad,Greensboro,United States,GSO,KGSO,36.09775,-79.937306,925,-5,A,"Greensboro/High Point, NC",1617,1604,1699,1695,4.521335807050078,14.960099750623444,40.0,157.0,"Fri, Jan 21, 2005","Thu, Jan 13, 2005"
4034,Greenville-Spartanburg International,Greenville,United States,GSP,KGSP,34.895556,-82.218889,964,-5,A,"Greer, SC",1301,1268,1398,1370,3.6372021521906226,13.559148264984222,31.0,113.0,"Thu, Jan 13, 2005","Fri, Jan 28, 2005"
3880,Great Falls International,Great Falls,United States,GTF,KGTF,47.482,-111.370689,3677,-7,A,"Great Falls, MT",317,318,336,337,4.514195583596211,9.465408805031453,9.0,67.0,"Thu, Jan 20, 2005","Fri, Jan  7, 2005"
4273,Golden Triangle Regional Airport,Columbus Mississippi,United States,GTR,KGTR,33.450333,-88.591361,264,-6,A,"Columbus, MS",110,94,121,106,3.2454545454545456,7.829787234042553,7.0,23.0,"Sat, Jan  1, 2005","Fri, Jan 21, 2005"
7051,Gunnison - Crested Butte,Gunnison,United States,GUC,KGUC,38.533889,-106.933056,7678,-7,A,"Gunnison, CO",64,63,66,66,4.374999999999998,14.746031746031745,14.0,55.0,"Sat, Jan  8, 2005","Sat, Jan  8, 2005"
4339,Yampa Valley,Hayden,United States,HDN,KHDN,40.481181,-107.21766,6602,-7,A,"Hayden, CO",207,208,211,211,3.9323671497584543,16.413461538461537,8.0,61.0,"Sat, Jan  8, 2005","Thu, Jan  6, 2005"
3504,Helena Regional,Helena,United States,HLN,KHLN,46.606806,-111.98275,3877,-7,A,"Helena, MT",203,201,218,218,3.970443349753694,11.422885572139299,12.0,49.0,"Mon, Jan 10, 2005","Thu, Jan 13, 2005"
3728,Honolulu International,Honolulu,United States,HNL,PHNL,21.318681,-157.922428,13,-10,N,"Honolulu, HI",3117,3123,3141,3141,6.792428617260182,13.389048991354462,46.0,64.0,"Tue, Jan  4, 2005","Thu, Jan 13, 2005"
3566,William P. Hobby,Houston,United States,HOU,KHOU,29.645419,-95.278889,46,-6,A,"Houston, TX",4774,4778,4945,4943,4.538542103058226,9.32858936793637,58.0,107.0,"Thu, Jan 13, 2005","Wed, Jan 12, 2005"
3589,Westchester County,White Plains,United States,HPN,KHPN,41.066959,-73.707575,439,-5,A,"White Plains, NY",544,532,625,611,6.990808823529411,18.383458646616543,85.0,136.0,"Tue, Jan 11, 2005","Thu, Jan  6, 2005"
3560,Valley International,Harlingen,United States,HRL,KHRL,26.2285,-97.654389,36,-6,A,"Harlingen/San Benito, TX",482,488,492,493,2.6991701244813266,8.747950819672127,8.0,92.0,"Sun, Jan  2, 2005","Mon, Jan 31, 2005"
4113,Huntsville International Airport-Carl T. Jones Field,Huntsville,United States,HSV,KHSV,34.6371944,-86.7750556,629,-6,A,"Huntsville, AL",1133,1091,1188,1148,4.827007943512804,11.923006416131988,66.0,118.0,"Tue, Jan 11, 2005","Fri, Jan 21, 2005"
5742,TriState-Milton J. Ferguson Field,Huntington,United States,HTS,KHTS,38.3667,-82.558,828,-5,A,"Ashland, WV",115,113,125,124,3.3130434782608695,10.23893805309735,10.0,76.0,"Sat, Jan  1, 2005","Sat, Jan 29, 2005"
4006,Tweed-New Haven Airport,New Haven,United States,HVN,KHVN,41.26375,-72.886806,14,-5,A,"New Haven, CT",82,80,93,93,3.756097560975609,15.7,22.0,115.0,"Wed, Jan  5, 2005","Wed, Jan 26, 2005"
3714,Washington Dulles International,Washington,United States,IAD,KIAD,38.944533,-77.455811,313,-5,A,"Washington, DC",11555,11628,12381,12393,6.6303764604067545,19.49415204678381,89.0,172.0,"Wed, Jan 19, 2005","Wed, Jan  5, 2005"
3550,George Bush Intercontinental Houston,Houston,United States,IAH,KIAH,29.984433,-95.341442,97,-6,A,"Houston, TX",16660,16679,16862,16836,8.275570228091237,18.890580970082198,48.0,141.0,"Mon, Jan 24, 2005","Wed, Jan 12, 2005"
3457,Wichita Mid Continent,Wichita,United States,ICT,KICT,37.649944,-97.433056,1333,-6,A,"Wichita, KS",786,784,853,855,5.104325699745544,14.400510204081638,76.0,114.0,"Fri, Jan 21, 2005","Mon, Jan  3, 2005"
4100,Idaho Falls Regional,Idaho Falls,United States,IDA,KIDA,43.514556,-112.07075,4744,-7,A,"Idaho Falls, ID",253,253,275,276,3.5770750988142286,8.272727272727275,14.0,55.0,"Sat, Jan 29, 2005","Wed, Jan 19, 2005"
3845,Wilmington International,Wilmington,United States,ILM,KILM,34.270615,-77.902569,32,-5,A,"Wilmington, NC",289,289,303,304,4.148788927335635,9.391003460207614,12.0,45.0,"Sun, Jan 16, 2005","Thu, Jan  6, 2005"
3585,Indianapolis International,Indianapolis,United States,IND,KIND,39.717331,-86.294383,797,-5,A,"Indianapolis, IN",3658,3646,3761,3747,8.765445598687787,16.254251234229375,74.0,158.0,"Sat, Jan  8, 2005","Wed, Jan 19, 2005"
3689,Imperial County,Imperial,United States,IPL,KIPL,32.834219,-115.578744,-54,-8,A,"El Centro, CA",62,62,62,62,2.8225806451612914,8.870967741935486,5.0,18.0,"Fri, Jan  7, 2005","Mon, Jan 24, 2005"
3857,Long Island MacArthur,Islip,United States,ISP,KISP,40.79525,-73.100222,99,-5,A,"Islip, NY",932,934,997,997,4.337982832618025,11.342612419700222,28.0,137.0,"Mon, Jan 24, 2005","Thu, Jan 13, 2005"
3415,Hilo International,Hilo,United States,ITO,PHTO,19.721375,-155.048469,38,-10,N,"Hilo, HI",212,212,212,212,4.7075471698113205,5.0566037735849045,11.0,8.0,"Fri, Jan 21, 2005","Mon, Jan 24, 2005"
7120,Inyokern Airport,Inyokern,United States,IYK,KIYK,35.658889,-117.829444,2455,-8,A,"Inyokern, CA",78,78,83,85,3.6153846153846154,9.06410256410256,6.0,17.0,"Wed, Jan 12, 2005","Mon, Jan 17, 2005"
4027,Jackson Hole Airport,Jacksn Hole,United States,JAC,KJAC,43.60733333,-110.73775,6451,-7,A,"Jackson, WY",333,336,368,369,3.585585585585585,17.127976190476176,50.0,96.0,"Mon, Jan  3, 2005","Mon, Jan  3, 2005"
3580,Jackson Evers International,Jackson,United States,JAN,KJAN,32.311167,-90.075889,346,-6,A,"Jackson/Vicksburg, MS",1007,1007,1042,1043,4.314796425024828,10.356504468718969,30.0,58.0,"Sun, Jan  2, 2005","Thu, Jan  6, 2005"
3712,Jacksonville International,Jacksonville,United States,JAX,KJAX,30.494056,-81.687861,30,-5,A,"Jacksonville, FL",2373,2379,2447,2444,4.6380109565950205,12.405632618747369,28.0,138.0,"Sat, Jan  8, 2005","Thu, Jan 13, 2005"
3797,John F. Kennedy International,New York,United States,JFK,KJFK,40.639751,-73.778925,13,-5,A,"New York, NY",7614,7623,8102,8102,10.241134751773044,24.739210284664846,137.0,155.0,"Mon, Jan 24, 2005","Wed, Jan 19, 2005"
3492,Juneau International,Juneau,United States,JNU,PAJN,58.354972,-134.576278,21,-9,A,"Juneau, AK",271,278,310,310,4.37638376383764,13.284172661870503,9.0,49.0,"Mon, Jan 17, 2005","Tue, Jan 18, 2005"
3514,Kona International At Keahole,Kona,United States,KOA,PHKO,19.738767,-156.045631,47,-10,N,"Kona, HI",553,552,554,554,3.976491862567819,8.090579710144928,8.0,49.0,"Sat, Jan 22, 2005","Sun, Jan  9, 2005"
3808,Ketchikan International,Ketchikan,United States,KTN,PAKT,55.355556,-131.71375,88,-9,A,"Ketchikan, AK",167,171,186,186,4.736526946107788,10.596491228070171,13.0,29.0,"Sun, Jan 16, 2005","Fri, Jan 14, 2005"
3544,Capital City,Lansing,United States,LAN,KLAN,42.7787,-84.587357,861,-5,A,"Lansing, MI",399,400,429,429,4.215538847117794,12.447499999999996,16.0,84.0,"Fri, Jan 28, 2005","Fri, Jan 21, 2005"
3877,McCarran International,Las Vegas,United States,LAS,KLAS,36.080056,-115.15225,2141,-8,A,"Las Vegas, NV",13229,13253,13520,13521,5.9526041272961026,15.265977514525058,92.0,139.0,"Fri, Jan 28, 2005","Thu, Jan 13, 2005"
4256,Lawton-Fort Sill Regional Airport,Lawton,United States,LAW,KLAW,34.5677144,-98.4166367,1110,-6,A,"Lawton/Fort Sill, OK",181,181,184,185,4.8232044198895,12.34254143646409,14.0,53.0,"Mon, Jan  3, 2005","Wed, Jan  5, 2005"
3484,Los Angeles International,Los Angeles,United States,LAX,KLAX,33.942536,-118.408075,126,-8,A,"Los Angeles, CA",18889,18929,19365,19339,7.970300174704851,14.764699667177396,105.0,162.0,"Sat, Jan  8, 2005","Wed, Jan  5, 2005"
3829,Lubbock Preston Smith International,Lubbock,United States,LBB,KLBB,33.663639,-101.822778,3282,-6,A,"Lubbock, TX",764,765,790,791,3.0170157068062826,9.457516339869294,13.0,138.0,"Sun, Jan  2, 2005","Wed, Jan 12, 2005"
3513,Lake Charles Regional,Lake Charles,United States,LCH,KLCH,30.126112,-93.223335,15,-6,A,"Lake Charles, LA",131,130,131,131,5.282442748091603,15.52307692307692,12.0,98.0,"Sat, Jan 22, 2005","Mon, Jan 31, 2005"
4017,Blue Grass,Lexington KY,United States,LEX,KLEX,38.0365,-84.605889,979,-5,A,"Lexington, KY",711,712,745,744,4.213783403656823,13.540730337078656,10.0,126.0,"Sat, Jan 22, 2005","Thu, Jan  6, 2005"
3493,Lafayette Regional,Lafayette,United States,LFT,KLFT,30.205278,-91.987611,43,-6,A,"Lafayette, LA",330,328,338,336,4.527272727272722,13.265243902439025,9.0,70.0,"Sun, Jan  2, 2005","Fri, Jan 21, 2005"
3697,LaGuardia Airport,New York,United States,LGA,KLGA,40.777245,-73.872608,22,-5,A,"New York, NY",9854,9862,10799,10793,8.30079155672826,22.41776515919685,76.0,161.0,"Mon, Jan 24, 2005","Wed, Jan 12, 2005"
3582,Long Beach,Long Beach,United States,LGB,KLGB,33.817722,-118.151611,60,-8,A,"Long Beach, CA",902,923,936,935,4.7217294900221605,12.829902491874327,38.0,65.0,"Sat, Jan 15, 2005","Mon, Jan 24, 2005"
3602,Lihue,Lihue,United States,LIH,PHLI,21.975983,-159.338958,153,-10,N,"Lihue, HI",621,621,625,626,4.521739130434782,4.998389694041868,20.0,33.0,"Sun, Jan 23, 2005","Tue, Jan 11, 2005"
3660,Adams Field,Little Rock,United States,LIT,KLIT,34.729444,-92.224306,262,-6,A,"Little Rock, AR",1476,1471,1537,1532,4.574525745257454,11.189666893269864,62.0,107.0,"Tue, Jan 25, 2005","Fri, Jan 21, 2005"
3543,Lincoln,Lincoln,United States,LNK,KLNK,40.850971,-96.75925,1219,-6,A,"Lincoln, NE",176,173,180,182,4.772727272727273,13.98265895953757,39.0,134.0,"Sat, Jan 29, 2005","Mon, Jan  3, 2005"
3691,Laredo International,Laredo,United States,LRD,KLRD,27.54375,-99.461556,508,-6,A,"Laredo, TX",239,239,244,244,3.728033472803347,11.364016736401673,10.0,65.0,"Sun, Jan 30, 2005","Mon, Jan 31, 2005"
4044,LaCrosse Municipal,LaCrosse,United States,LSE,KLSE,43.878986,-91.256711,654,-6,A,"La Crosse, WI",151,149,160,160,3.7019867549668874,12.85234899328859,18.0,53.0,"Sun, Jan 23, 2005","Tue, Jan 11, 2005"
3945,Lewiston Nez Perce County,Lewiston,United States,LWS,KLWS,46.3745,-117.015389,1442,-8,A,"Lewiston, ID",3,2,3,2,5.666666666666667,8.5,9.0,10.0,"Mon, Jan 31, 2005","Mon, Jan 31, 2005"
5753,Lynchburg Regional-Preston Glenn Field,Lynchburg,United States,LYH,KLYH,37.3267,-79.2004,938,-5,A,"Lynchburg, VA",83,83,93,93,3.783132530120482,10.385542168674705,7.0,45.0,"Thu, Jan  6, 2005","Wed, Jan 19, 2005"
3652,Midland International,Midland,United States,MAF,KMAF,31.942528,-102.201914,2871,-6,A,"Midland/Odessa, TX",658,655,660,659,3.234042553191489,9.024427480916033,11.0,102.0,"Thu, Jan 27, 2005","Mon, Jan  3, 2005"
4128,MBS International,Saginaw,United States,MBS,KMBS,43.532913,-84.079647,668,-5,A,"Saginaw/Bay City/Midland, MI",273,271,286,287,4.761904761904764,11.044280442804428,16.0,68.0,"Thu, Jan  6, 2005","Fri, Jan 21, 2005"
3458,Kansas City International,Kansas City,United States,MCI,KMCI,39.297606,-94.713905,1026,-6,A,"Kansas City, MO",4466,4478,4689,4690,5.216300940438877,13.27936578829834,32.0,175.0,"Wed, Jan  5, 2005","Tue, Jan  4, 2005"
3754,Middle Georgia Regional,Macon,United States,MCN,KMCN,32.69285,-83.649211,354,-5,A,"Macon, GA",107,86,112,92,3.7663551401869158,13.162790697674419,7.0,42.0,"Thu, Jan  6, 2005","Sat, Jan 22, 2005"
3878,Orlando International,Orlando,United States,MCO,KMCO,28.429394,-81.308994,96,-5,A,"Orlando, FL",9974,9984,10179,10186,5.6410667736114,13.054487179487179,50.0,107.0,"Sat, Jan 29, 2005","Wed, Jan 12, 2005"
3542,Harrisburg International,Harrisburg,United States,MDT,KMDT,40.193494,-76.763403,310,-5,A,"Harrisburg, PA",629,624,666,665,4.535771065182828,15.714743589743595,17.0,82.0,"Wed, Jan 19, 2005","Sun, Jan  9, 2005"
3747,Chicago Midway International,Chicago,United States,MDW,KMDW,41.785972,-87.752417,620,-6,A,"Chicago, IL",6841,6908,7166,7167,5.648150855138131,14.895483497394338,101.0,202.0,"Sat, Jan 22, 2005","Wed, Jan  5, 2005"
4335,Key Field,Meridian,United States,MEI,KMEI,32.332624,-88.751868,297,-6,A,"Meridian, MS",84,71,91,75,4.059523809523809,10.098591549295778,9.0,40.0,"Tue, Jan  4, 2005","Thu, Jan  6, 2005"
3473,Memphis International,Memphis,United States,MEM,KMEM,35.042417,-89.976667,341,-6,A,"Memphis, TN",4190,4186,4270,4267,6.348687350835326,15.558767319636887,47.0,80.0,"Mon, Jan 17, 2005","Fri, Jan 28, 2005"
3826,McAllen Miller International,Mcallen,United States,MFE,KMFE,26.175833,-98.238611,107,-6,A,"Mission/McAllen/Edinburg, TX",295,295,296,296,3.9322033898305087,10.423728813559325,7.0,52.0,"Mon, Jan  3, 2005","Wed, Jan 26, 2005"
4101,Rogue Valley International Medford,Medford,United States,MFR,KMFR,42.374228,-122.8735,1335,-8,A,"Medford, OR",342,342,374,379,3.049707602339182,8.154970760233923,10.0,58.0,"Sat, Jan  8, 2005","Sat, Jan  8, 2005"
4115,Montgomery Regional Airport ,MONTGOMERY,United States,MGM,KMGM,32.3006389,-86.3939722,221,-6,A,"Montgomery, AL",258,258,277,278,3.007751937984496,12.414728682170542,9.0,134.0,"Sun, Jan 23, 2005","Wed, Jan 12, 2005"
4011,Manchester Regional Airport,Manchester NH,United States,MHT,KMHT,42.932556,-71.435667,266,-5,A,"Manchester, NH",1990,1998,2178,2177,4.6155778894472395,15.236236236236246,44.0,185.0,"Sat, Jan  8, 2005","Thu, Jan  6, 2005"
3576,Miami International,Miami,United States,MIA,KMIA,25.79325,-80.290556,8,-5,A,"Miami, FL",5445,5455,5567,5569,7.58402203856747,17.14995417048587,68.0,131.0,"Wed, Jan  5, 2005","Mon, Jan  3, 2005"
3717,General Mitchell International,Milwaukee,United States,MKE,KMKE,42.947222,-87.896583,723,-6,A,"Milwaukee, WI",1730,1730,1809,1810,5.357225433526013,18.624855491329534,58.0,162.0,"Thu, Jan 27, 2005","Sat, Jan 22, 2005"
3671,Melbourne International,Melbourne,United States,MLB,KMLB,28.102753,-80.645258,33,-5,A,"Melbourne, FL",238,239,252,253,4.823529411764706,11.548117154811713,9.0,32.0,"Mon, Jan 17, 2005","Thu, Jan  6, 2005"
4072,Quad City International,Moline,United States,MLI,KMLI,41.448528,-90.507539,590,-6,A,"Moline, IL",346,345,369,368,4.1647398843930725,12.927536231884053,19.0,83.0,"Fri, Jan  7, 2005","Mon, Jan  3, 2005"
3732,Monroe Regional,Monroe,United States,MLU,KMLU,32.510864,-92.037689,79,-6,A,"Monroe, LA",275,274,289,289,3.3527272727272726,8.076642335766424,8.0,25.0,"Sat, Jan  1, 2005","Mon, Jan 31, 2005"
3782,Mobile Regional,Mobile,United States,MOB,KMOB,30.691231,-88.242814,219,-6,A,"Mobile, AL",363,362,378,378,4.34710743801653,12.3232044198895,12.0,164.0,"Sun, Jan  2, 2005","Fri, Jan 21, 2005"
3816,Modesto City County Harry Sham,Modesto,United States,MOD,KMOD,37.625817,-120.954422,97,-8,A,"Modesto, CA",104,106,115,115,4.182692307692307,8.877358490566044,160.0,44.0,"Sat, Jan 29, 2005","Wed, Jan  5, 2005"
3498,Minot International,Minot,United States,MOT,KMOT,48.259378,-101.280333,1716,-6,A,"Minot, ND",93,94,94,95,5.494623655913981,11.23404255319149,10.0,31.0,"Thu, Jan 27, 2005","Wed, Jan 26, 2005"
6838,Sawyer International Airport,Marquette,United States,MQT,KMQT,46.353611,-87.395278,1221,-5,A,"Marquette, MI",82,80,88,88,5.219512195121952,16.450000000000006,15.0,69.0,"Sun, Jan  2, 2005","Fri, Jan 14, 2005"
3948,Monterey Peninsula,Monterey,United States,MRY,KMRY,36.587,-121.842944,257,-8,A,"Monterey, CA",580,578,592,593,3.324137931034482,8.837370242214535,12.0,60.0,"Sun, Jan 16, 2005","Thu, Jan 27, 2005"
3459,Dane County Regional-Truax Field,Madison,United States,MSN,KMSN,43.139858,-89.337514,887,-6,A,"Madison, WI",710,704,739,738,4.37605633802817,15.776988636363628,28.0,177.0,"Tue, Jan 18, 2005","Sat, Jan 22, 2005"
4216,Missoula International,Missoula,United States,MSO,KMSO,46.916306,-114.090556,3205,-7,A,"Missoula, MT",358,362,376,382,4.8519553072625685,12.3121546961326,14.0,57.0,"Fri, Jan  7, 2005","Tue, Jan 18, 2005"
3858,Minneapolis St. Paul International,Minneapolis,United States,MSP,KMSP,44.881956,-93.221767,841,-6,A,"Minneapolis, MN",11035,11058,11384,11361,6.632170367014054,21.504612045577797,158.0,207.0,"Fri, Jan 14, 2005","Sat, Jan 22, 2005"
3861,Louis Armstrong New Orleans International,New Orleans,United States,MSY,KMSY,29.993389,-90.258028,4,-6,A,"New Orleans, LA",4453,4463,4531,4537,3.9925892656635993,9.868025991485545,42.0,165.0,"Sat, Jan 15, 2005","Thu, Jan 13, 2005"
6880,Montrose Regional Airport,Montrose CO,United States,MTJ,KMTJ,38.509794,-107.894242,5759,-7,A,"Montrose/Delta, CO",283,284,292,293,3.7703180212014136,10.08802816901408,11.0,38.0,"Sun, Jan  2, 2005","Sun, Jan  2, 2005"
3515,Myrtle Beach International,Myrtle Beach,United States,MYR,KMYR,33.67975,-78.928333,25,-5,A,"Myrtle Beach, SC",496,502,529,532,3.653225806451613,9.30278884462151,11.0,47.0,"Sun, Jan  2, 2005","Sun, Jan  2, 2005"
3453,Metropolitan Oakland International,Oakland,United States,OAK,KOAK,37.721278,-122.220722,9,-8,A,"Oakland, CA",5776,5811,5945,5940,4.9302285318559536,10.817071072104627,45.0,137.0,"Mon, Jan 10, 2005","Wed, Jan 26, 2005"
3456,Kahului,Kahului,United States,OGG,PHOG,20.89865,-156.430458,54,-10,N,"Kahului, HI",1201,1200,1210,1210,4.345545378850967,9.588333333333342,36.0,44.0,"Tue, Jan  4, 2005","Fri, Jan 14, 2005"
3863,Will Rogers World,Oklahoma City,United States,OKC,KOKC,35.393089,-97.600733,1295,-6,A,"Oklahoma City, OK",1691,1686,1726,1720,4.490242460082794,11.930604982206402,47.0,126.0,"Wed, Jan  5, 2005","Wed, Jan  5, 2005"
3454,Eppley Airfield,Omaha,United States,OMA,KOMA,41.303167,-95.894069,984,-6,A,"Omaha, NE",1697,1687,1732,1730,4.142015321154985,15.587433313574392,75.0,155.0,"Wed, Jan  5, 2005","Wed, Jan  5, 2005"
3615,Nome,Nome,United States,OME,PAOM,64.512203,-165.445247,37,-9,A,"Nome, AK",84,86,93,93,3.5,5.337209302325582,7.0,13.0,"Fri, Jan 14, 2005","Sat, Jan 22, 2005"
3734,Ontario International,Ontario,United States,ONT,KONT,34.056,-117.601194,944,-8,A,"Ontario, CA",2902,2899,2978,2957,4.133700895933826,9.831666091755753,15.0,69.0,"Mon, Jan 17, 2005","Mon, Jan 24, 2005"
3830,Chicago O'Hare International,Chicago,United States,ORD,KORD,41.978603,-87.904842,668,-6,A,"Chicago, IL",25884,26042,28194,28181,9.727283263792218,20.300552952922228,107.0,1339.0,"Thu, Jan 20, 2005","Thu, Jan 20, 2005"
3611,Norfolk International,Norfolk,United States,ORF,KORF,36.894611,-76.201222,26,-5,A,"Norfolk, VA",1830,1836,1919,1921,3.9322404371584714,12.27450980392158,40.0,101.0,"Fri, Jan 14, 2005","Thu, Jan 13, 2005"
3693,Ralph WienMemorial,Kotzebue,United States,OTZ,PAOT,66.884678,-162.59855,11,-9,A,"Kotzebue, AK",86,86,93,93,3.604651162790698,6.534883720930233,9.0,20.0,"Mon, Jan 31, 2005","Sat, Jan 22, 2005"
6961,Oxnard - Ventura County,Oxnard,United States,OXR,KOXR,34.200833,-119.207222,15,-8,A,"Oxnard/Ventura, CA",137,138,142,142,3.145985401459854,8.391304347826088,9.0,97.0,"Sat, Jan 29, 2005","Mon, Jan 24, 2005"
3722,Palm Beach International,West Palm Beach,United States,PBI,KPBI,26.683161,-80.095589,19,-5,A,"West Palm Beach/Palm Beach, FL",2465,2470,2529,2530,4.5184584178498985,13.355060728744933,36.0,90.0,"Sun, Jan  2, 2005","Fri, Jan 28, 2005"
3720,Portland International,Portland,United States,PDX,KPDX,45.588722,-122.5975,30,-8,A,"Portland, OR",4206,4235,4350,4348,4.056585829767012,10.439197166469915,28.0,145.0,"Tue, Jan  4, 2005","Sat, Jan 15, 2005"
4073,Panama City Bay County International,Panama City,United States,PFN,KPFN,30.212083,-85.682806,20,-6,A,"Panama City, FL",237,239,262,262,3.2362869198312225,8.606694560669457,20.0,35.0,"Sat, Jan 29, 2005","Thu, Jan 27, 2005"
3633,Newport News Williamsburg International,Newport News,United States,PHF,KPHF,37.131894,-76.492989,43,-5,A,"Newport News/Williamsburg, VA",531,530,564,563,5.470809792843695,10.996226415094341,22.0,70.0,"Mon, Jan  3, 2005","Thu, Jan  6, 2005"
3752,Philadelphia International,Philadelphia,United States,PHL,KPHL,39.871944,-75.241139,36,-5,A,"Philadelphia, PA",10645,10691,11517,11521,8.23973696571156,23.875783369188998,120.0,233.0,"Mon, Jan 24, 2005","Sat, Jan 22, 2005"
3462,Phoenix Sky Harbor International,Phoenix,United States,PHX,KPHX,33.434278,-112.011583,1135,-7,N,"Phoenix, AZ",14139,14175,14457,14434,5.858618006931185,14.667372134038887,121.0,102.0,"Fri, Jan 21, 2005","Thu, Jan 20, 2005"
4046,Peoria Regional,Peoria,United States,PIA,KPIA,40.664203,-89.693258,660,-6,A,"Peoria, IL",311,297,358,342,3.4180064308681666,12.602693602693602,19.0,65.0,"Tue, Jan 11, 2005","Tue, Jan 18, 2005"
3617,St. Petersburg Clearwater International,St. Petersburg,United States,PIE,KPIE,27.910167,-82.687389,10,-5,A,"St. Petersburg, FL",156,155,157,156,4.358974358974358,12.380645161290325,12.0,54.0,"Sun, Jan 23, 2005","Sun, Jan  2, 2005"
5760,Pocatello Regional Airport,Pocatello,United States,PIH,KPIH,42.9098,-112.596,4452,-7,A,"Pocatello, ID",133,139,157,157,3.5037593984962405,11.057553956834532,10.0,58.0,"Wed, Jan  5, 2005","Sat, Jan  8, 2005"
3570,Pittsburgh International,Pittsburgh (pennsylva),United States,PIT,KPIT,40.491467,-80.232872,1204,-5,A,"Pittsburgh, PA",4237,4263,4464,4462,5.946424356856256,17.509031198686372,40.0,165.0,"Mon, Jan 24, 2005","Sat, Jan 22, 2005"
3564,Pensacola Regional,Pensacola,United States,PNS,KPNS,30.473425,-87.186611,121,-6,A,"Pensacola, FL",606,592,630,613,4.298679867986796,11.199324324324321,66.0,106.0,"Thu, Jan 20, 2005","Thu, Jan 13, 2005"
6133,Tri Cities Airport,Pasco,United States,PSC,PSC,46.2647,-119.119,410,-8,A,"Pasco/Kennewick/Richland, WA",292,288,308,306,4.657534246575344,11.881944444444446,23.0,50.0,"Mon, Jan 17, 2005","Sun, Jan  9, 2005"
4147,Petersburg James A. Johnson,Petersburg,United States,PSG,PAPG,56.801667,-132.945278,105,-9,A,"Petersburg, AK",46,52,62,62,3.4130434782608696,6.076923076923077,6.0,16.0,"Mon, Jan  3, 2005","Thu, Jan 13, 2005"
3839,Palm Springs International,Palm Springs,United States,PSP,KPSP,33.829667,-116.506694,477,-8,A,"Palm Springs, CA",1090,1104,1213,1244,4.419266055045874,10.184782608695642,24.0,67.0,"Sun, Jan  9, 2005","Mon, Jan 24, 2005"
3641,Theodore Francis Green State,Providence,United States,PVD,KPVD,41.732581,-71.420383,55,-5,A,"Providence, RI",2451,2451,2672,2661,4.472868217054271,14.496124031007753,55.0,150.0,"Mon, Jan  3, 2005","Sat, Jan 22, 2005"
3862,Portland International Jetport,Portland,United States,PWM,KPWM,43.646161,-70.309281,77,-5,A,"Portland, ME",641,639,717,717,4.0327613104524165,17.39123630672927,23.0,95.0,"Thu, Jan  6, 2005","Sat, Jan  8, 2005"
4087,Rapid City Regional Airport,Rapid City,United States,RAP,KRAP,44.045278,-103.057222,3204,-7,A,"Rapid City, SD",225,227,233,236,4.395555555555559,11.550660792951538,15.0,83.0,"Sun, Jan  2, 2005","Tue, Jan  4, 2005"
4098,Redding Municipal,Redding,United States,RDD,KRDD,40.509,-122.293389,504,-8,A,"Redding, CA",148,147,159,158,3.5067567567567566,8.224489795918368,6.0,19.0,"Sat, Jan  1, 2005","Wed, Jan 12, 2005"
4103,Roberts Field,Redmond-Bend,United States,RDM,KRDM,44.254066,-121.149964,3077,-8,A,"Bend/Redmond, OR",200,202,209,208,3.8700000000000006,8.059405940594056,57.0,48.0,"Fri, Jan  7, 2005","Fri, Jan 14, 2005"
3626,Raleigh Durham International,Raleigh-durham,United States,RDU,KRDU,35.877639,-78.787472,435,-5,A,"Raleigh/Durham, NC",5110,5134,5433,5434,5.082191780821908,13.312426957538,76.0,150.0,"Thu, Jan 13, 2005","Wed, Jan 19, 2005"
3608,Richmond International,Richmond,United States,RIC,KRIC,37.505167,-77.319667,167,-5,A,"Richmond, VA",1398,1395,1472,1472,4.818311874105859,14.074551971326162,21.0,103.0,"Mon, Jan 31, 2005","Wed, Jan  5, 2005"
3807,Reno Tahoe International,Reno,United States,RNO,KRNO,39.499108,-119.768108,4415,-8,A,"Reno, NV",2294,2333,2580,2593,4.950741063644282,12.514359194170595,50.0,112.0,"Fri, Jan 28, 2005","Fri, Jan  7, 2005"
4016,Roanoke Regional,Roanoke VA,United States,ROA,KROA,37.325472,-79.975417,1175,-5,A,"Roanoke, VA",282,279,303,302,4.911347517730497,11.222222222222221,10.0,65.0,"Fri, Jan 28, 2005","Sat, Jan 22, 2005"
3622,Greater Rochester International,Rochester,United States,ROC,KROC,43.118866,-77.672389,559,-5,A,"Rochester, NY",1440,1424,1507,1496,6.02083333333333,20.346910112359552,70.0,179.0,"Sun, Jan 23, 2005","Sat, Jan 22, 2005"
4048,Rochester,Rochester,United States,RST,KRST,43.908283,-92.500014,1317,-6,A,"Rochester, MN",170,167,193,192,4.3882352941176475,16.550898203592816,18.0,128.0,"Sun, Jan 23, 2005","Sat, Jan 22, 2005"
3793,Southwest Florida International,Fort Myers,United States,RSW,KRSW,26.536167,-81.755167,30,-5,A,"Fort Myers, FL",2163,2179,2227,2233,4.473878871937126,14.587425424506655,46.0,71.0,"Sat, Jan 15, 2005","Wed, Jan 19, 2005"
3731,San Diego International,San Diego,United States,SAN,KSAN,32.733556,-117.189667,17,-8,A,"San Diego, CA",7130,7140,7283,7285,3.8534361851332393,13.378851540616246,47.0,139.0,"Sun, Jan  9, 2005","Thu, Jan 13, 2005"
3621,San Antonio International,San Antonio,United States,SAT,KSAT,29.533694,-98.469778,809,-6,A,"San Antonio, TX",3068,3068,3135,3132,3.679269882659716,9.795632333767918,50.0,99.0,"Fri, Jan 14, 2005","Mon, Jan  3, 2005"
3613,Savannah Hilton Head International,Savannah,United States,SAV,KSAV,32.127583,-81.202139,51,-5,A,"Savannah, GA",1008,1011,1065,1066,4.7718253968254025,12.077151335311576,65.0,58.0,"Mon, Jan 24, 2005","Fri, Jan 28, 2005"
3949,Santa Barbara Municipal,Santa Barbara,United States,SBA,KSBA,34.426211,-119.840372,10,-8,A,"Santa Barbara, CA",1038,1039,1066,1067,3.9865125240847785,8.786333012512022,15.0,94.0,"Tue, Jan 18, 2005","Mon, Jan 24, 2005"
4359,South Bend Regional,South Bend,United States,SBN,KSBN,41.708661,-86.31725,799,-5,A,"South Bend, IN",329,328,363,361,4.145896656534954,13.490853658536585,14.0,73.0,"Wed, Jan 19, 2005","Mon, Jan  3, 2005"
5768,San Luis County Regional Airport,San Luis Obispo,United States,SBP,KSBP,35.2368,-120.642,212,-8,A,"San Luis Obispo, CA",443,446,454,455,3.2573363431151234,10.195067264574,9.0,64.0,"Fri, Jan 14, 2005","Mon, Jan 24, 2005"
3620,Deadhorse,Deadhorse,United States,SCC,PASC,70.19475,-148.465167,64,-9,A,"Deadhorse, AK",24,24,26,26,3.4166666666666665,5.000000000000001,5.0,16.0,"Wed, Jan 12, 2005","Sat, Jan  8, 2005"
4318,University Park Airport,State College Pennsylvania,United States,SCE,KUNV,40.849278,-77.848694,1239,-5,A,"State College, PA",83,81,92,91,4.156626506024096,13.654320987654321,15.0,65.0,"Thu, Jan  6, 2005","Thu, Jan  6, 2005"
4014,Louisville International Airport,Louisville,United States,SDF,KSDF,38.1740858,-85.7364989,501,-5,A,"Louisville, KY",1984,1982,2043,2042,5.17741935483871,12.508577194752771,52.0,75.0,"Fri, Jan  7, 2005","Thu, Jan  6, 2005"
3577,Seattle Tacoma International,Seattle,United States,SEA,KSEA,47.449,-122.309306,433,-8,A,"Seattle, WA",8110,8153,8309,8312,5.920345252774351,13.487918557586156,32.0,110.0,"Sun, Jan  2, 2005","Mon, Jan  3, 2005"
3469,San Francisco International,San Francisco,United States,SFO,KSFO,37.618972,-122.374889,13,-8,A,"San Francisco, CA",9941,9961,10274,10252,5.531133688763696,15.433289830338316,65.0,137.0,"Wed, Jan 12, 2005","Wed, Jan  5, 2005"
4348,Springfield Branson National,Springfield,United States,SGF,KSGF,37.245667,-93.388639,1268,-6,A,"Springfield, MO",587,579,619,622,3.921635434412266,11.960276338514683,63.0,105.0,"Mon, Jan 10, 2005","Sun, Jan  9, 2005"
4064,St. George Municipal,Saint George,United States,SGU,KSGU,37.090583,-113.593056,2941,-7,A,"St. George, UT",232,232,245,246,3.0991379310344827,7.568965517241379,7.0,23.0,"Fri, Jan  7, 2005","Wed, Jan 26, 2005"
3609,Shreveport Regional,Shreveport,United States,SHV,KSHV,32.446629,-93.8256,258,-6,A,"Shreveport, LA",692,684,724,714,4.5043352601156075,9.353801169590637,13.0,96.0,"Sun, Jan  9, 2005","Mon, Jan  3, 2005"
3856,Sitka Rocky Gutierrez,Sitka,United States,SIT,PASI,57.047138,-135.361611,21,-9,A,"Sitka, AK",87,92,93,93,4.666666666666667,9.565217391304346,7.0,25.0,"Sun, Jan  2, 2005","Fri, Jan 14, 2005"
3748,Norman Y. Mineta San Jose International,San Jose,United States,SJC,KSJC,37.3626,-121.929022,62,-8,A,"San Jose, CA",4854,4858,4984,4986,4.2317676143386835,11.610539316591185,32.0,114.0,"Fri, Jan 14, 2005","Thu, Jan 13, 2005"
3708,San Angelo Regional-Mathis Field,San Angelo,United States,SJT,KSJT,31.35775,-100.496306,1919,-6,A,"San Angelo, TX",240,239,254,256,3.9875000000000043,9.443514644351463,11.0,22.0,"Fri, Jan 28, 2005","Sun, Jan  9, 2005"
3536,Salt Lake City International,Salt Lake City,United States,SLC,KSLC,40.788389,-111.977772,4227,-7,A,"Salt Lake City, UT",11439,11555,12000,11997,5.763353439986018,17.915794028559073,65.0,225.0,"Sat, Jan 22, 2005","Thu, Jan 20, 2005"
3817,Sacramento International,Sacramento,United States,SMF,KSMF,38.695417,-121.590778,27,-8,A,"Sacramento, CA",4010,4007,4077,4078,4.421695760598491,10.366358871974027,66.0,153.0,"Mon, Jan 24, 2005","Thu, Jan 13, 2005"
5772,Santa Maria Public-Captain G. Allan Hancock Airport,Santa Maria,United States,SMX,KSMX,34.8989,-120.457,261,-8,A,"Santa Maria, CA",175,174,178,178,3.5085714285714285,7.816091954022989,9.0,93.0,"Mon, Jan  3, 2005","Mon, Jan 24, 2005"
3867,John Wayne Airport Orange County,Santa Ana,United States,SNA,KSNA,33.675667,-117.868222,56,-8,A,"Santa Ana, CA",3920,3932,4022,4022,6.436479591836735,14.029247202441502,82.0,220.0,"Sun, Jan  9, 2005","Wed, Jan 12, 2005"
3680,Sheppard AFB Wichita Falls Municipal,Wichita Falls,United States,SPS,KSPS,33.988797,-98.491894,1019,-6,A,"Wichita Falls, TX",202,202,212,212,7.935643564356438,12.202970297029703,15.0,36.0,"Thu, Jan 27, 2005","Sat, Jan 22, 2005"
4067,Sarasota Bradenton International,Sarasota,United States,SRQ,KSRQ,27.395444,-82.554389,30,-5,A,"Sarasota/Bradenton, FL",610,618,639,642,4.590163934426233,10.88673139158578,65.0,51.0,"Sat, Jan  8, 2005","Tue, Jan 18, 2005"
3678,Lambert St. Louis International,St. Louis,United States,STL,KSTL,38.748697,-90.370028,618,-6,A,"St. Louis, MO",5322,5342,5492,5491,4.923900789176996,12.955447397978268,86.0,114.0,"Thu, Jan 13, 2005","Mon, Jan 24, 2005"
6494,Friedman Memorial,Hailey,United States,SUN,KSUN,43.504444,-114.296194,5320,-7,A,"Sun Valley/Hailey/Ketchum, ID",154,153,183,191,2.5064935064935057,12.973856209150327,11.0,869.0,"Fri, Jan 14, 2005","Sat, Jan 29, 2005"
3661,Stewart International,Newburgh,United States,SWF,KSWF,41.504094,-74.104839,491,-5,A,"Newburgh/Poughkeepsie, NY",307,307,343,343,4.6775244299674235,16.869706840390872,12.0,86.0,"Sat, Jan 29, 2005","Thu, Jan  6, 2005"
3745,Syracuse Hancock International,Syracuse,United States,SYR,KSYR,43.111187,-76.106311,421,-5,A,"Syracuse, NY",1090,1085,1145,1143,4.615596330275231,19.722580645161287,35.0,149.0,"Thu, Jan  6, 2005","Wed, Jan 19, 2005"
3698,Tallahassee Regional,Tallahassee,United States,TLH,KTLH,30.396528,-84.350333,81,-5,A,"Tallahassee, FL",381,378,401,399,5.325459317585302,10.8862433862434,64.0,39.0,"Thu, Jan 13, 2005","Wed, Jan 26, 2005"
4040,Toledo,Toledo,United States,TOL,KTOL,41.586806,-83.807833,684,-5,A,"Toledo, OH",416,413,455,456,3.5817307692307696,13.065375302663439,15.0,158.0,"Mon, Jan 17, 2005","Wed, Jan 12, 2005"
3646,Tampa International,Tampa,United States,TPA,KTPA,27.975472,-82.53325,26,-5,A,"Tampa, FL",6834,6885,6991,7037,4.216271583260155,12.431953522149582,45.0,215.0,"Mon, Jan  3, 2005","Sat, Jan 22, 2005"
4116,Tri-Cities Regional Airport,BRISTOL,United States,TRI,KTRI,36.4752222,-82.4074167,1519,-5,A,"Bristol/Johnson City/Kingsport, TN",319,316,340,340,3.93730407523511,9.955696202531644,24.0,46.0,"Sun, Jan  2, 2005","Mon, Jan 24, 2005"
3855,Tulsa International,Tulsa,United States,TUL,KTUL,36.198389,-95.888111,677,-6,A,"Tulsa, OK",1653,1650,1701,1699,4.039927404718694,10.797575757575753,25.0,90.0,"Mon, Jan  3, 2005","Wed, Jan 26, 2005"
3636,Tucson International,Tucson,United States,TUS,KTUS,32.116083,-110.941028,2643,-7,N,"Tucson, AZ",1634,1629,1656,1655,4.345165238678099,10.269490484960086,42.0,134.0,"Tue, Jan  4, 2005","Wed, Jan  5, 2005"
4023,Cherry Capital Airport,Traverse City,United States,TVC,KTVC,44.741445,-85.582235,624,-5,A,"Traverse City, MI",96,97,104,105,3.291666666666666,11.649484536082472,7.0,45.0,"Tue, Jan 11, 2005","Wed, Jan  5, 2005"
4263,Magic Valley Regional Airport,Twin Falls,United States,TWF,KTWF,42.481803,-114.487733,4151,-7,A,"Twin Falls, ID",203,204,234,221,3.226600985221675,9.47549019607843,13.0,33.0,"Fri, Jan  7, 2005","Thu, Jan 27, 2005"
3770,Texarkana Regional-Webb Field,Texarkana,United States,TXK,KTXK,33.453722,-93.991028,390,-6,A,"Texarkana, AR",170,169,171,170,3.8705882352941194,7.958579881656803,14.0,17.0,"Fri, Jan 21, 2005","Sun, Jan  2, 2005"
3848,Tyler Pounds Regional,Tyler,United States,TYR,KTYR,32.354139,-95.402386,544,-6,A,"Tyler, TX",321,320,325,325,4.735202492211836,9.209375000000001,21.0,70.0,"Tue, Jan 18, 2005","Thu, Jan 20, 2005"
3676,McGhee Tyson,Knoxville,United States,TYS,KTYS,35.810972,-83.994028,981,-5,A,"Knoxville, TN",1214,1187,1272,1244,3.699341021416804,12.957877000842458,36.0,120.0,"Fri, Jan 14, 2005","Thu, Jan  6, 2005"
5775,Victoria Regional Airport,Victoria,United States,VCT,KVCT,28.8526,-96.9185,115,-6,A,"Victoria, TX",84,84,87,88,3.738095238095238,9.154761904761903,10.0,18.0,"Thu, Jan  6, 2005","Tue, Jan 25, 2005"
7121,Visalia Municipal Airport,Visalia,United States,VIS,KVIS,36.318611,-119.392778,295,-8,A,"Visalia, CA",49,49,57,57,2.5102040816326534,8.081632653061222,5.0,22.0,"Sat, Jan  1, 2005","Fri, Jan 28, 2005"
5776,Valdosta Regional Airport,Valdosta,United States,VLD,KVLD,30.7825,-83.2767,203,-5,A,"Valdosta, GA",115,115,124,124,3.373913043478261,7.626086956521739,10.0,55.0,"Wed, Jan 26, 2005","Sun, Jan 16, 2005"
3873,Eglin AFB,Valparaiso,United States,VPS,KVPS,30.48325,-86.5254,87,-6,A,"Valparaiso, FL",432,454,459,484,7.541666666666667,12.38105726872246,16.0,87.0,"Thu, Jan 20, 2005","Fri, Jan 21, 2005"
5969,Wrangell Airport,Wrangell,United States,WRG,PAWG,56.4843,-132.37,44,-9,A,"Wrangell, AK",50,53,62,62,3.4,6.2075471698113205,7.0,23.0,"Wed, Jan  5, 2005","Thu, Jan 13, 2005"
4356,NW Arkansas Regional,Bentonville,United States,XNA,KXNA,36.2818694,-94.3068111,1287,-6,A,"Fayetteville, AR",1106,1107,1187,1186,4.974683544303804,13.707317073170731,34.0,114.0,"Wed, Jan 12, 2005","Mon, Jan 10, 2005"
6803,Yakutat,Yakutat,United States,YAK,PAYA,59.3012,-139.3937,33,-9,A,"Yakutat, AK",56,59,62,62,4.142857142857143,4.559322033898308,7.0,12.0,"Wed, Jan  5, 2005","Mon, Jan  3, 2005"
3596,Yuma MCAS Yuma International,Yuma,United States,YUM,KYUM,32.656578,-114.60598,216,-7,N,"Yuma, AZ",119,120,121,121,3.3529411764705883,8.625000000000004,8.0,15.0,"Thu, Jan 27, 2005","Fri, Jan 21, 2005"
