airport_id,name,city,country,iata_faa,iaco,latitude,longitude,altitude,zone,dst,city_state,avg_able_landings,avg_able_takeoffs,total_landings,total_takeoffs,avg_taxi_in,avg_taxi_out,longest_taxi_in,longest_taxi_out,lng_tx_in_date,lng_tx_out_date
4355,Lehigh Valley International,Allentown,United States,ABE,KABE,40.652083,-75.440806,393,-5,A,"Allentown/Bethlehem/Easton, PA",466,466,479,478,4.9570815450643755,13.193133047210303,15.0,102.0,"Sun, Jul  1, 2007","Thu, Jul 26, 2007"
3718,Abilene Regional,Abilene,United States,ABI,KABI,32.411319,-99.681897,1791,-6,A,"Abilene, TX",233,230,240,240,3.600858369098712,9.378260869565219,25.0,70.0,"Mon, Jul 23, 2007","Mon, Jul 30, 2007"
4019,Albuquerque International Sunport,Albuquerque,United States,ABQ,KABQ,35.0402222,-106.6091944,5355,-7,A,"Albuquerque, NM",3797,3800,3821,3820,5.813537002897026,10.71605263157895,64.0,80.0,"Sat, Jul 21, 2007","Tue, Jul 17, 2007"
5715,Southwest Georgia Regional Airport,Albany,United States,ABY,KABY,31.5355,-84.1945,197,-5,A,"Albany, GA",108,108,112,112,4.120370370370375,9.129629629629635,10.0,46.0,"Sat, Jul 21, 2007","Sun, Jul  1, 2007"
3517,Nantucket Memorial,Nantucket,United States,ACK,KACK,41.253053,-70.060181,48,-5,A,"Nantucket, MA",87,89,105,105,4.988505747126439,21.19101123595506,13.0,122.0,"Fri, Jul  6, 2007","Fri, Jul  6, 2007"
3700,Waco Regional,Waco,United States,ACT,KACT,31.611289,-97.230519,516,-6,A,"Waco, TX",199,198,209,209,4.63819095477387,9.1060606060606,15.0,43.0,"Fri, Jul  6, 2007","Sun, Jul 29, 2007"
4384,Arcata,Arcata CA,United States,ACV,KACV,40.978111,-124.108611,221,-8,A,"Arcata/Eureka, CA",336,331,346,347,4.532738095238093,10.404833836858007,15.0,49.0,"Mon, Jul 16, 2007","Wed, Jul 11, 2007"
3524,Atlantic City International,Atlantic City,United States,ACY,KACY,39.457583,-74.577167,75,-5,A,"Atlantic City, NJ",52,56,57,63,3.75,10.785714285714286,11.0,67.0,"Tue, Jul 24, 2007","Sun, Jul  1, 2007"
5959,Adak Airport,Adak Island,United States,ADK,PADK,51.878,-176.646,18,-10,A,"Adak Island, AK",8,8,9,9,4.75,6.0,7.0,10.0,"Sun, Jul  8, 2007","Sun, Jul 29, 2007"
3531,Kodiak,Kodiak,United States,ADQ,PADQ,57.749967,-152.493856,78,-9,A,"Kodiak, AK",59,59,62,62,2.779661016949153,7.796610169491525,11.0,35.0,"Sat, Jul  7, 2007","Wed, Jul 18, 2007"
3852,Alexandria International,Alexandria,United States,AEX,KAEX,31.3274,-92.549833,89,-6,A,"Alexandria, LA",224,223,235,234,3.3348214285714284,11.076233183856507,9.0,65.0,"Tue, Jul 31, 2007","Sun, Jul 15, 2007"
3658,Augusta Regional At Bush Field,Bush Field,United States,AGS,KAGS,33.369944,-81.9645,144,-5,A,"Augusta, GA",179,183,189,189,3.7262569832402233,10.23497267759563,10.0,30.0,"Thu, Jul  5, 2007","Wed, Jul 11, 2007"
3794,King Salmon,King Salmon,United States,AKN,PAKN,58.676778,-156.649278,68,-9,A,"King Salmon, AK",39,39,39,39,4.871794871794871,5.82051282051282,35.0,14.0,"Tue, Jul 17, 2007","Sun, Jul 29, 2007"
3864,Albany International,Albany,United States,ALB,KALB,42.748267,-73.801692,285,-5,A,"Albany, NY",1282,1288,1312,1312,4.18486739469579,14.357919254658402,39.0,191.0,"Fri, Jul 13, 2007","Fri, Jul 27, 2007"
5718,Waterloo Regional Airport,Waterloo,United States,ALO,KALO,42.5571,-92.4003,873,-6,A,"Waterloo, IA",25,25,29,29,5.28,13.96,9.0,42.0,"Mon, Jul 16, 2007","Fri, Jul 20, 2007"
3840,Rick Husband Amarillo International,Amarillo,United States,AMA,KAMA,35.219369,-101.705931,3607,-6,A,"Amarillo, TX",593,592,606,605,4.544688026981448,8.702702702702695,14.0,175.0,"Mon, Jul  2, 2007","Sun, Jul  1, 2007"
3774,Ted Stevens Anchorage International,Anchorage,United States,ANC,PANC,61.174361,-149.996361,152,-9,A,"Anchorage, AK",2319,2324,2348,2348,4.919361793876679,13.910068846815832,27.0,79.0,"Sat, Jul 28, 2007","Sun, Jul  8, 2007"
4012,Naples Municipal,Naples,United States,APF,KAPF,26.152619,-81.775294,8,-5,A,"Naples, FL",58,59,59,60,4.06896551724138,10.372881355932206,9.0,22.0,"Sat, Jul 14, 2007","Wed, Jul 18, 2007"
7001,Aspen/Pitkin County-Sardy Field,Aspen,United States,ASE,KASE,39.2232,-106.869,7820,-7,A,"Aspen, CO",561,560,581,582,3.149732620320855,12.239285714285721,10.0,181.0,"Sun, Jul  8, 2007","Fri, Jul 27, 2007"
3682,Hartsfield Jackson Atlanta International,Atlanta,United States,ATL,KATL,33.636719,-84.428067,1026,-5,A,"Atlanta, GA",36014,36191,36992,36977,11.218109624035105,21.569810173800136,86.0,332.0,"Thu, Jul 19, 2007","Sun, Jul 29, 2007"
4047,Appleton,Appleton,United States,ATW,KATW,44.257526,-88.507576,680,-6,A,"Appleton, WI",505,504,520,521,4.782178217821784,12.039682539682541,36.0,63.0,"Sat, Jul  7, 2007","Thu, Jul 19, 2007"
3673,Austin Bergstrom International,Austin,United States,AUS,KAUS,30.194528,-97.669889,542,-6,A,"Austin, TX",4605,4600,4656,4652,5.793268186753526,12.450869565217394,58.0,143.0,"Mon, Jul 23, 2007","Thu, Jul 19, 2007"
4007,Asheville Regional Airport,Asheville,United States,AVL,KAVL,35.436194,-82.541806,2165,-5,A,"Asheville, NC",388,385,404,402,3.891752577319584,15.810389610389592,15.0,209.0,"Mon, Jul  9, 2007","Mon, Jul 30, 2007"
4286,Wilkes Barre Scranton International,Scranton,United States,AVP,KAVP,41.338478,-75.723403,962,-5,A,"Scranton/Wilkes-Barre, PA",248,252,257,262,3.9596774193548385,13.079365079365079,15.0,72.0,"Sat, Jul  7, 2007","Thu, Jul 19, 2007"
4039,Kalamazoo,Kalamazoo,United States,AZO,KAZO,42.234875,-85.552058,874,-5,A,"Kalamazoo, MI",391,388,421,421,4.07416879795396,12.81958762886598,37.0,144.0,"Sun, Jul 22, 2007","Tue, Jul 10, 2007"
3825,Bradley International,Windsor Locks,United States,BDL,KBDL,41.938889,-72.683222,173,-5,A,"Hartford, CT",2810,2813,2854,2855,5.398576512455515,15.791325986491291,50.0,289.0,"Tue, Jul 10, 2007","Sun, Jul 15, 2007"
3599,Bethel,Bethel,United States,BET,PABE,60.779778,-161.838,121,-9,A,"Bethel, AK",88,88,88,88,3.5454545454545454,7.170454545454546,6.0,59.0,"Tue, Jul  3, 2007","Sun, Jul 29, 2007"
3558,Meadows Field,Bakersfield,United States,BFL,KBFL,35.433598,-119.05677,507,-8,A,"Bakersfield, CA",445,445,458,456,4.802247191011238,11.355056179775273,44.0,34.0,"Mon, Jul 16, 2007","Sat, Jul  7, 2007"
4129,Greater Binghamton-Edwin A. Link Field,Binghamton,United States,BGM,KBGM,42.208689,-75.979839,1636,-5,A,"Binghamton, NY",59,58,62,62,5.627118644067797,11.120689655172415,9.0,30.0,"Sun, Jul 15, 2007","Sat, Jul 28, 2007"
3463,Bangor International,Bangor,United States,BGR,KBGR,44.807444,-68.828139,192,-5,A,"Bangor, ME",380,380,399,399,4.57105263157895,13.24736842105263,20.0,75.0,"Fri, Jul  6, 2007","Fri, Jul 27, 2007"
3811,Birmingham International,Birmingham,United States,BHM,KBHM,33.562942,-86.75355,644,-6,A,"Birmingham, AL",2100,2089,2141,2138,4.559523809523807,13.287218764959318,58.0,157.0,"Wed, Jul 25, 2007","Thu, Jul 26, 2007"
4021,Billings Logan International Airport,Billings,United States,BIL,KBIL,45.80921,-108.537654,3652,-7,A,"Billings, MT",479,484,488,493,4.872651356993735,11.745867768595037,27.0,85.0,"Sat, Jul 28, 2007","Thu, Jul 26, 2007"
4083,Bismarck Municipal Airport,Bismarck,United States,BIS,KBIS,46.775842,-100.757931,1661,-6,A,"Bismarck/Mandan, ND",282,285,292,292,4.379432624113472,11.056140350877193,10.0,73.0,"Tue, Jul 10, 2007","Sun, Jul  8, 2007"
4287,Bemidji Regional Airport,Bemidji,United States,BJI,KBJI,47.510722,-94.934722,1391,-6,A,"Bemidji, MN",27,27,28,28,5.8888888888888875,12.851851851851851,9.0,67.0,"Sun, Jul  1, 2007","Wed, Jul 18, 2007"
3777,Bellingham International,Bellingham,United States,BLI,KBLI,48.792694,-122.537528,170,-8,A,"Bellingham, WA",60,60,60,60,4.700000000000002,12.4,7.0,28.0,"Sun, Jul  1, 2007","Fri, Jul 27, 2007"
4037,Central Illinois Regional,Bloomington,United States,BMI,KBMI,40.477111,-88.915917,871,-6,A,"Bloomington/Normal, IL",287,288,299,299,4.101045296167247,12.666666666666664,18.0,133.0,"Sun, Jul  1, 2007","Sat, Jul 28, 2007"
3690,Nashville International,Nashville,United States,BNA,KBNA,36.124472,-86.678194,599,-6,A,"Nashville, TN",5099,5117,5202,5202,6.150225534418521,11.549149892515155,75.0,160.0,"Sat, Jul 14, 2007","Sun, Jul 29, 2007"
3495,Boise Air Terminal,Boise,United States,BOI,KBOI,43.564361,-116.222861,2871,-7,A,"Boise, ID",1682,1679,1693,1690,4.618311533888229,11.191185229303155,29.0,106.0,"Sun, Jul 15, 2007","Thu, Jul 26, 2007"
3448,General Edward Lawrence Logan International,Boston,United States,BOS,KBOS,42.364347,-71.005181,19,-5,A,"Boston, MA",10315,10350,10711,10716,8.030828889966031,21.93690821256044,82.0,257.0,"Sun, Jul 29, 2007","Wed, Jul 11, 2007"
3612,Southeast Texas Regional,Beaumont,United States,BPT,KBPT,29.950833,-94.020694,15,-6,A,"Beaumont/Port Arthur, TX",30,29,31,31,6.2,13.758620689655173,11.0,51.0,"Tue, Jul 24, 2007","Thu, Jul  5, 2007"
5725,Brunswick Golden Isles Airport,Brunswick,United States,BQK,KBQK,31.2588,-81.4665,26,-5,A,"Brunswick, GA",86,85,90,90,3.953488372093024,8.717647058823529,8.0,26.0,"Thu, Jul 19, 2007","Thu, Jul 19, 2007"
3738,Brownsville South Padre Island International,Brownsville,United States,BRO,KBRO,25.906833,-97.425861,22,-6,A,"Brownsville, TX",95,96,98,99,5.021052631578947,14.8125,13.0,131.0,"Mon, Jul  2, 2007","Sun, Jul  1, 2007"
3571,Wiley Post Will Rogers Memorial,Barrow,United States,BRW,PABR,71.285446,-156.766003,44,-9,A,"Barrow, AK",60,61,62,62,3.15,5.278688524590162,7.0,15.0,"Thu, Jul 26, 2007","Thu, Jul 12, 2007"
4022,Bert Mooney Airport,Butte,United States,BTM,KBTM,45.954806,-112.497472,5550,-7,A,"Butte, MT",84,84,85,85,4.32142857142857,10.988095238095237,6.0,33.0,"Mon, Jul  9, 2007","Thu, Jul 19, 2007"
3846,Baton Rouge Metro-Ryan Field,Baton Rouge,United States,BTR,KBTR,30.533167,-91.149639,70,-6,A,"Baton Rouge, LA",789,786,832,831,4.68821292775665,10.83587786259543,39.0,84.0,"Mon, Jul  9, 2007","Fri, Jul 27, 2007"
3711,Burlington International,Burlington,United States,BTV,KBTV,44.471861,-73.153278,335,-5,A,"Burlington, VT",678,667,703,705,4.691740412979346,16.593703148425764,20.0,167.0,"Sat, Jul 21, 2007","Fri, Jul 27, 2007"
3820,Buffalo Niagara International,Buffalo,United States,BUF,KBUF,42.940525,-78.732167,724,-5,A,"Buffalo, NY",2236,2230,2295,2296,4.241055456171738,12.623766816143497,45.0,165.0,"Sun, Jul 29, 2007","Thu, Jul 19, 2007"
3644,Bob Hope,Burbank,United States,BUR,KBUR,34.200667,-118.358667,778,-8,A,"Burbank, CA",2843,2825,2874,2856,2.8199085473091854,12.060530973451327,46.0,85.0,"Tue, Jul 17, 2007","Mon, Jul 16, 2007"
3849,Baltimore Washington International,Baltimore,United States,BWI,KBWI,39.175361,-76.668333,146,-5,A,"Baltimore, MD",9531,9548,9689,9692,5.745042492917834,14.199622957687456,80.0,264.0,"Thu, Jul 12, 2007","Sun, Jul 29, 2007"
4020,Gallatin Field,Bozeman,United States,BZN,KBZN,45.777643,-111.160151,4500,-7,A,"Bozeman, MT",539,540,546,545,4.93320964749537,13.466666666666669,20.0,55.0,"Sat, Jul 14, 2007","Tue, Jul 17, 2007"
3561,Columbia Metropolitan,Colombia,United States,CAE,KCAE,33.938833,-81.119528,236,-5,A,"Columbia, SC",810,804,854,854,4.732098765432098,13.625621890547263,41.0,101.0,"Thu, Jul 19, 2007","Sun, Jul 29, 2007"
4112,Akron Canton Regional Airport,Akron,United States,CAK,KCAK,40.9160833,-81.4421944,1228,-5,A,"Akron, OH",790,787,804,804,4.755696202531649,12.35069885641677,20.0,103.0,"Mon, Jul 16, 2007","Wed, Jul 11, 2007"
3610,Merle K. Mudhole Smith,Cordova,United States,CDV,PACV,60.491778,-145.477556,48,-9,A,"Cordova, AK",61,61,62,62,3.6721311475409837,7.754098360655738,7.0,27.0,"Fri, Jul 20, 2007","Fri, Jul 13, 2007"
5727,Del Norte County Airport,Crescent City,United States,CEC,KCEC,41.7802,-124.237,57,-8,A,"Crescent City, CA",86,86,91,93,3.813953488372093,14.593023255813954,9.0,67.0,"Wed, Jul 25, 2007","Wed, Jul 25, 2007"
3578,Lovell Field,Chattanooga,United States,CHA,KCHA,35.035278,-85.203808,683,-5,A,"Chattanooga, TN",321,321,343,343,5.0373831775700975,11.694704049844237,16.0,73.0,"Wed, Jul 11, 2007","Mon, Jul 16, 2007"
4015,Charlottesville-Albemarle,Charlottesville VA,United States,CHO,KCHO,38.138639,-78.452861,639,-5,A,"Charlottesville, VA",80,79,85,85,3.4625,8.886075949367095,17.0,43.0,"Fri, Jul 20, 2007","Tue, Jul 10, 2007"
3806,Charleston AFB International,Charleston,United States,CHS,KCHS,32.898647,-80.040528,45,-5,A,"Charleston, SC",1311,1308,1362,1363,6.345537757437068,14.367737003058105,43.0,110.0,"Fri, Jul 20, 2007","Thu, Jul  5, 2007"
3710,Chico Municipal,Chico,United States,CIC,KCIC,39.795383,-121.858422,238,-8,A,"Chico, CA",108,109,113,113,3.962962962962963,11.908256880733942,9.0,48.0,"Tue, Jul 17, 2007","Sun, Jul  8, 2007"
4043,Cedar Rapids,Cedar Rapids,United States,CID,KCID,41.884694,-91.710806,869,-6,A,"Cedar Rapids/Iowa City, IA",948,947,990,987,4.931434599156115,10.94086589229146,30.0,90.0,"Sun, Jul  8, 2007","Thu, Jul 26, 2007"
4088,McClellan-Palomar Airport,Carlsbad,United States,CLD,KCRQ,33.0742,-117.1648,328,-8,A,"Carlsbad, CA",224,223,230,230,4.066964285714284,9.83856502242152,26.0,29.0,"Sun, Jul 22, 2007","Tue, Jul  3, 2007"
3486,Cleveland Hopkins International,Cleveland,United States,CLE,KCLE,41.411689,-81.849794,791,-5,A,"Cleveland, OH",6389,6408,6508,6507,6.270621380497739,14.99048064918852,39.0,176.0,"Wed, Jul 25, 2007","Sun, Jul 29, 2007"
3715,Easterwood Field,College Station,United States,CLL,KCLL,30.588583,-96.363833,321,-6,A,"College Station/Bryan, TX",131,129,140,140,4.824427480916032,10.05426356589147,10.0,35.0,"Sat, Jul 21, 2007","Fri, Jul  6, 2007"
3876,Charlotte Douglas International,Charlotte,United States,CLT,KCLT,35.214,-80.943139,748,-5,A,"Charlotte, NC",10712,10770,10983,10987,7.366878267363702,19.269730733519072,134.0,182.0,"Mon, Jul  9, 2007","Thu, Jul 19, 2007"
3759,Port Columbus International,Columbus,United States,CMH,KCMH,39.997972,-82.891889,815,-5,A,"Columbus, OH",3193,3174,3248,3247,4.859066708424675,12.836168872085706,49.0,208.0,"Wed, Jul 11, 2007","Sun, Jul 29, 2007"
4049,Champaign,Champaign,United States,CMI,KCMI,40.03925,-88.278056,754,-6,A,"Champaign/Urbana, IL",233,235,244,244,3.7339055793991416,12.65531914893617,13.0,133.0,"Sun, Jul 15, 2007","Thu, Jul 26, 2007"
5732,Houghton County Memorial Airport,Hancock,United States,CMX,KCMX,47.1684,-88.4891,1095,-5,A,"Hancock/Houghton, MI",31,31,31,31,7.354838709677419,13.96774193548387,20.0,54.0,"Tue, Jul 31, 2007","Wed, Jul  4, 2007"
4344,Yellowstone Regional,Cody,United States,COD,KCOD,44.520194,-109.023806,5102,-7,A,"Cody, WY",150,151,154,155,3.946666666666669,11.933774834437084,10.0,32.0,"Thu, Jul 26, 2007","Sun, Jul 29, 2007"
3819,City Of Colorado Springs Municipal,Colorado Springs,United States,COS,KCOS,38.805805,-104.700778,6187,-7,A,"Colorado Springs, CO",1676,1668,1697,1693,6.570405727923625,15.39208633093525,49.0,86.0,"Wed, Jul 25, 2007","Sun, Jul  8, 2007"
3872,Natrona County International,Casper,United States,CPR,KCPR,42.908,-106.464417,5347,-7,A,"Casper, WY",358,358,363,363,4.544692737430168,11.38268156424581,18.0,38.0,"Tue, Jul  3, 2007","Wed, Jul 18, 2007"
3744,Corpus Christi International,Corpus Christi,United States,CRP,KCRP,27.770361,-97.501222,44,-6,A,"Corpus Christi, TX",566,568,585,587,4.337455830388695,10.577464788732403,20.0,111.0,"Mon, Jul  2, 2007","Fri, Jul  6, 2007"
4285,Yeager,Charleston,United States,CRW,KCRW,38.373147,-81.593189,981,-5,A,"Charleston/Dunbar, WV",277,279,294,294,3.5523465703971118,12.698924731182794,12.0,249.0,"Thu, Jul 19, 2007","Tue, Jul 10, 2007"
4255,Columbus Metropolitan Airport,Columbus,United States,CSG,KCSG,32.5163333,-84.9388611,397,-5,A,"Columbus, GA",110,108,112,111,3.8272727272727267,10.416666666666671,17.0,32.0,"Mon, Jul  2, 2007","Wed, Jul 11, 2007"
3488,Cincinnati Northern Kentucky International,Cincinnati,United States,CVG,KCVG,39.048836,-84.667822,896,-5,A,"Cincinnati, OH",9248,9344,9605,9596,4.747621107266452,15.886986301369866,135.0,197.0,"Wed, Jul 11, 2007","Sun, Jul  1, 2007"
4045,Central Wisconsin,Wassau,United States,CWA,KCWA,44.772726,-89.646635,840,-6,A,"Mosinee, WI",139,139,145,145,3.661870503597121,12.02158273381295,17.0,54.0,"Thu, Jul 26, 2007","Sat, Jul  7, 2007"
3950,Daytona Beach International,Daytona Beach,United States,DAB,KDAB,29.179917,-81.058056,34,-5,A,"Daytona Beach, FL",250,250,254,255,3.968,13.8,20.0,116.0,"Tue, Jul 24, 2007","Fri, Jul 27, 2007"
3502,Dallas Love Field,Dallas,United States,DAL,KDAL,32.847111,-96.851778,487,-6,A,"Dallas, TX",4459,4499,4584,4580,3.686028257456829,10.354300955767915,45.0,187.0,"Tue, Jul 31, 2007","Fri, Jul 27, 2007"
3627,James M. Cox Dayton International,Dayton,United States,DAY,KDAY,39.902375,-84.219375,1009,-5,A,"Dayton, OH",1312,1320,1358,1362,5.869664634146337,13.127272727272727,39.0,121.0,"Thu, Jul 26, 2007","Sun, Jul  1, 2007"
4388,Dubuque Regional,Dubuque IA,United States,DBQ,KDBQ,42.402,-90.709472,1076,-6,A,"Dubuque, IA",121,120,124,124,4.074380165289255,10.04166666666667,13.0,63.0,"Sat, Jul 21, 2007","Thu, Jul 26, 2007"
3520,Ronald Reagan Washington National,Washington,United States,DCA,KDCA,38.852083,-77.037722,15,-5,A,"Washington, DC",7268,7285,7640,7638,5.962850853054486,19.00892244337678,97.0,188.0,"Sun, Jul 29, 2007","Thu, Jul 19, 2007"
3751,Denver International,Denver,United States,DEN,KDEN,39.861656,-104.673178,5431,-7,A,"Denver, CO",21044,21175,21357,21415,8.292815054172227,16.927603305785308,89.0,244.0,"Sat, Jul 21, 2007","Fri, Jul 27, 2007"
3670,Dallas Fort Worth International,Dallas-fort Worth,United States,DFW,KDFW,32.896828,-97.037997,607,-6,A,"Dallas/Fort Worth, TX",24588,24912,25657,25643,11.569830811778147,18.67846820809232,157.0,181.0,"Sun, Jul  1, 2007","Wed, Jul 11, 2007"
3739,Dothan Regional,Dothan,United States,DHN,KDHN,31.321339,-85.449628,401,-6,A,"Dothan, AL",139,140,145,145,4.453237410071942,9.392857142857142,10.0,42.0,"Sat, Jul 28, 2007","Sun, Jul  8, 2007"
3460,Dillingham,Dillingham,United States,DLG,PADL,59.044667,-158.5055,74,-9,A,"Dillingham, AK",31,31,31,31,2.6451612903225805,5.838709677419355,5.0,19.0,"Sat, Jul  7, 2007","Sun, Jul  1, 2007"
3598,Duluth International,Duluth,United States,DLH,KDLH,46.842091,-92.193649,1428,-6,A,"Duluth, MN",169,168,173,172,7.136094674556213,12.863095238095235,17.0,64.0,"Fri, Jul 13, 2007","Tue, Jul 24, 2007"
3713,Durango La Plata County,Durango,United States,DRO,KDRO,37.151516,-107.75377,6685,-7,A,"Durango, CO",325,323,329,331,4.73846153846154,11.922600619195043,25.0,55.0,"Mon, Jul  9, 2007","Mon, Jul 30, 2007"
3729,Des Moines International,Des Moines,United States,DSM,KDSM,41.533972,-93.663083,958,-6,A,"Des Moines, IA",1489,1487,1523,1522,4.276695768972466,11.967720242098192,37.0,111.0,"Wed, Jul 11, 2007","Wed, Jul 18, 2007"
3645,Detroit Metro Wayne County,Detroit,United States,DTW,KDTW,42.212444,-83.353389,645,-5,A,"Detroit, MI",14701,14780,15239,15253,10.611114890143543,19.44607577807848,59.0,166.0,"Thu, Jul 19, 2007","Sun, Jul 29, 2007"
4250,Eagle County Regional,Vail,United States,EGE,KEGE,39.642556,-106.917694,6540,-7,A,"Eagle, CO",180,183,183,183,3.8777777777777778,14.912568306010929,11.0,42.0,"Fri, Jul 13, 2007","Tue, Jul  3, 2007"
5736,Elko Regional Airport,Elko,United States,EKO,KEKO,40.8249,-115.792,5140,-8,A,"Elko, NV",167,166,167,168,4.514970059880244,10.204819277108431,10.0,32.0,"Thu, Jul  5, 2007","Wed, Jul 25, 2007"
3946,Elmira Corning Regional,Elmira,United States,ELM,KELM,42.159889,-76.891611,954,-5,A,"Elmira/Corning, NY",106,106,111,110,5.377358490566036,14.226415094339623,13.0,118.0,"Tue, Jul 10, 2007","Thu, Jul 19, 2007"
3559,El Paso International,El Paso,United States,ELP,KELP,31.80725,-106.377583,3958,-7,A,"El Paso, TX",1893,1896,1908,1909,4.269941891178017,10.790611814345995,39.0,128.0,"Tue, Jul 31, 2007","Tue, Jul  3, 2007"
4276,Erie International-Tom Ridge Field,Erie,United States,ERI,KERI,42.082022,-80.176217,733,-5,A,"Erie, PA",114,115,117,118,4.000000000000002,9.965217391304352,9.0,31.0,"Mon, Jul 30, 2007","Mon, Jul  2, 2007"
4099,Mahlon Sweet Field,Eugene,United States,EUG,KEUG,44.124583,-123.211972,374,-8,A,"Eugene, OR",593,590,600,600,4.079258010118049,12.110169491525422,15.0,63.0,"Sun, Jul  1, 2007","Fri, Jul 13, 2007"
4018,Evansville Regional,Evansville,United States,EVV,KEVV,38.036997,-87.532364,418,-6,A,"Evansville, IN",488,489,507,509,4.9077868852458995,11.871165644171779,24.0,116.0,"Sun, Jul 22, 2007","Mon, Jul  9, 2007"
3730,Craven County Regional,New Bern,United States,EWN,KEWN,35.072972,-77.042944,18,-5,A,"New Bern/Morehead/Beaufort, NC",83,83,85,85,3.6144578313253013,8.650602409638553,12.0,17.0,"Fri, Jul 20, 2007","Sat, Jul 21, 2007"
3494,Newark Liberty International,Newark,United States,EWR,KEWR,40.6925,-74.168667,18,-5,A,"Newark, NJ",12337,12440,13089,13076,10.24657534246581,31.427331189710614,113.0,322.0,"Thu, Jul 26, 2007","Fri, Jul 27, 2007"
3875,Key West International,Key West,United States,EYW,KEYW,24.556111,-81.759556,3,-5,A,"Key West, FL",92,91,94,94,3.7065217391304346,7.351648351648351,20.0,23.0,"Mon, Jul 16, 2007","Thu, Jul 19, 2007"
3832,Fairbanks International,Fairbanks,United States,FAI,PAFA,64.815114,-147.856267,434,-9,A,"Fairbanks, AK",536,535,541,541,3.516791044776119,10.648598130841117,23.0,40.0,"Mon, Jul  2, 2007","Thu, Jul  5, 2007"
4292,Hector International Airport,Fargo,United States,FAR,KFAR,46.92065,-96.8157639,902,-6,A,"Fargo, ND",433,428,442,441,4.976905311778292,13.887850467289718,36.0,92.0,"Thu, Jul 26, 2007","Thu, Jul 26, 2007"
3687,Fresno Yosemite International,Fresno,United States,FAT,KFAT,36.776194,-119.71814,336,-8,A,"Fresno, CA",1406,1402,1421,1419,4.934566145092451,10.960057061340938,23.0,60.0,"Fri, Jul 20, 2007","Wed, Jul 25, 2007"
5738,Fayetteville Regional-Grannis Field,Fayetteville,United States,FAY,KFAY,34.9912,-78.8803,189,-5,A,"Fayetteville, NC",171,175,178,179,4.5204678362573105,10.142857142857146,19.0,58.0,"Fri, Jul 20, 2007","Sun, Jul  1, 2007"
4127,Glacier Park International,Kalispell,United States,FCA,KFCA,48.310472,-114.256,2977,-7,A,"Kalispell, MT",384,384,384,384,4.578125,13.156249999999995,10.0,50.0,"Sat, Jul  7, 2007","Tue, Jul 17, 2007"
4261,Flagstaff Pulliam Airport,Flagstaff,United States,FLG,KFLG,35.140318,-111.6692392,7015,-7,N,"Flagstaff, AZ",172,171,185,185,5.296511627906979,13.286549707602337,17.0,52.0,"Wed, Jul 18, 2007","Mon, Jul 23, 2007"
3533,Fort Lauderdale Hollywood International,Fort Lauderdale,United States,FLL,KFLL,26.072583,-80.15275,9,-5,A,"Fort Lauderdale, FL",5519,5517,5586,5578,4.892190614241697,17.254123617908256,75.0,194.0,"Tue, Jul  3, 2007","Sun, Jul 29, 2007"
3879,Florence Regional,Florence,United States,FLO,KFLO,34.185361,-79.723889,146,-5,A,"Florence, SC",52,50,54,54,5.500000000000001,11.92,13.0,40.0,"Sun, Jul  8, 2007","Wed, Jul 11, 2007"
4089,Bishop International,Flint,United States,FNT,KFNT,42.965424,-83.743629,782,-5,A,"Flint, MI",585,585,602,602,4.5282051282051325,10.941880341880346,75.0,98.0,"Wed, Jul  4, 2007","Sun, Jul  1, 2007"
4009,Sioux Falls,Sioux Falls,United States,FSD,KFSD,43.582014,-96.741914,1429,-6,A,"Sioux Falls, SD",561,562,571,571,4.841354723707664,12.983985765124556,24.0,80.0,"Sun, Jul 22, 2007","Sat, Jul 28, 2007"
3437,Fort Smith Regional,Fort Smith,United States,FSM,KFSM,35.336583,-94.367444,469,-6,A,"Fort Smith, AR",238,238,260,260,4.344537815126048,10.205882352941169,17.0,65.0,"Tue, Jul 31, 2007","Sun, Jul 29, 2007"
4041,Fort Wayne,Fort Wayne,United States,FWA,KFWA,40.978472,-85.195139,815,-5,A,"Fort Wayne, IN",563,561,585,585,4.220248667850799,12.237076648841358,11.0,82.0,"Fri, Jul 27, 2007","Sun, Jul 15, 2007"
3467,Spokane International,Spokane,United States,GEG,KGEG,47.619861,-117.533833,2376,-8,A,"Spokane, WA",1461,1462,1467,1467,4.672142368240943,10.582763337893317,46.0,35.0,"Sun, Jul 22, 2007","Thu, Jul 26, 2007"
3442,Grand Forks International,Grand Forks,United States,GFK,KGFK,47.949256,-97.176111,845,-6,A,"Grand Forks, ND",81,79,85,84,4.71604938271605,10.240506329113927,8.0,26.0,"Wed, Jul 11, 2007","Sat, Jul 21, 2007"
3465,East Texas Regional,Longview,United States,GGG,KGGG,32.384014,-94.711486,365,-6,A,"Longview, TX",88,88,93,93,6.159090909090909,9.488636363636358,11.0,34.0,"Tue, Jul 10, 2007","Mon, Jul  2, 2007"
4063,Grand Junction Regional,Grand Junction,United States,GJT,KGJT,39.122413,-108.526735,4858,-7,A,"Grand Junction, CO",405,403,417,415,3.876543209876543,11.337468982630268,15.0,61.0,"Sun, Jul 22, 2007","Mon, Jul 30, 2007"
3472,Gainesville Regional,Gainesville,United States,GNV,KGNV,29.690056,-82.271778,152,-5,A,"Gainesville, FL",163,160,178,178,3.5950920245398774,11.412499999999996,13.0,40.0,"Wed, Jul  4, 2007","Fri, Jul  6, 2007"
4038,Gulfport-Biloxi,Gulfport,United States,GPT,KGPT,30.407278,-89.070111,28,-6,A,"Gulfport/Biloxi, MS",559,561,577,577,5.076923076923076,11.45989304812834,51.0,175.0,"Sat, Jul  7, 2007","Mon, Jul 16, 2007"
3653,Austin Straubel International,Green Bay,United States,GRB,KGRB,44.485072,-88.129589,695,-6,A,"Green Bay, WI",678,682,700,708,4.061946902654868,12.252199413489725,30.0,102.0,"Thu, Jul 12, 2007","Thu, Jul 26, 2007"
3775,Robert Gray AAF,Killeen,United States,GRK,KGRK,31.06725,-97.828917,1015,-6,A,"Killeen, TX",419,417,437,436,4.085918854415277,10.03836930455636,34.0,52.0,"Thu, Jul 19, 2007","Wed, Jul 25, 2007"
3685,Gerald R. Ford International,Grand Rapids,United States,GRR,KGRR,42.880833,-85.522806,794,-5,A,"Grand Rapids, MI",1427,1429,1481,1480,4.164681149264181,13.360391882435275,23.0,149.0,"Thu, Jul 26, 2007","Tue, Jul 10, 2007"
4008,Piedmont Triad,Greensboro,United States,GSO,KGSO,36.09775,-79.937306,925,-5,A,"Greensboro/High Point, NC",1259,1261,1310,1315,4.70214455917395,15.408406026962728,26.0,184.0,"Sun, Jul 22, 2007","Tue, Jul 10, 2007"
4034,Greenville-Spartanburg International,Greenville,United States,GSP,KGSP,34.895556,-82.218889,964,-5,A,"Greer, SC",1116,1120,1162,1161,4.325268817204298,13.578571428571427,26.0,122.0,"Tue, Jul 24, 2007","Thu, Jul 26, 2007"
5960,Gustavus Airport,Gustavus,United States,GST,PAGS,58.4253,-135.707,34,-9,A,"Gustavus, AK",29,29,31,31,4.655172413793103,9.03448275862069,7.0,22.0,"Sun, Jul  1, 2007","Sun, Jul 29, 2007"
3880,Great Falls International,Great Falls,United States,GTF,KGTF,47.482,-111.370689,3677,-7,A,"Great Falls, MT",233,233,236,237,4.613733905579398,10.635193133047213,16.0,30.0,"Wed, Jul  4, 2007","Mon, Jul 30, 2007"
4273,Golden Triangle Regional Airport,Columbus Mississippi,United States,GTR,KGTR,33.450333,-88.591361,264,-6,A,"Columbus, MS",80,78,85,84,4.137499999999999,8.884615384615387,9.0,25.0,"Sat, Jul  7, 2007","Wed, Jul 11, 2007"
7051,Gunnison - Crested Butte,Gunnison,United States,GUC,KGUC,38.533889,-106.933056,7678,-7,A,"Gunnison, CO",92,90,92,92,2.456521739130435,11.544444444444443,6.0,37.0,"Sat, Jul 14, 2007","Mon, Jul 16, 2007"
4339,Yampa Valley,Hayden,United States,HDN,KHDN,40.481181,-107.21766,6602,-7,A,"Hayden, CO",179,178,185,184,3.201117318435754,11.050561797752813,16.0,26.0,"Tue, Jul 17, 2007","Sat, Jul 21, 2007"
7002,Hilton Head,Hilton Head,United States,HHH,KHHH,32.216,-80.752,10,-5,U,"Hilton Head, SC",114,114,121,122,3.307017543859649,10.412280701754382,10.0,22.0,"Thu, Jul 19, 2007","Sat, Jul 14, 2007"
3504,Helena Regional,Helena,United States,HLN,KHLN,46.606806,-111.98275,3877,-7,A,"Helena, MT",173,171,176,176,3.5491329479768785,12.257309941520473,11.0,32.0,"Sat, Jul  7, 2007","Tue, Jul 17, 2007"
3728,Honolulu International,Honolulu,United States,HNL,PHNL,21.318681,-157.922428,13,-10,N,"Honolulu, HI",5920,5920,5957,5955,4.751351351351355,12.23665540540539,38.0,53.0,"Fri, Jul 20, 2007","Sat, Jul 21, 2007"
3566,William P. Hobby,Houston,United States,HOU,KHOU,29.645419,-95.278889,46,-6,A,"Houston, TX",4846,4890,4953,4955,5.4395377631035835,9.405316973415115,124.0,99.0,"Thu, Jul 19, 2007","Fri, Jul 27, 2007"
3589,Westchester County,White Plains,United States,HPN,KHPN,41.066959,-73.707575,439,-5,A,"White Plains, NY",1139,1140,1198,1193,10.011413520632146,20.18771929824563,116.0,227.0,"Mon, Jul 30, 2007","Tue, Jul 10, 2007"
3560,Valley International,Harlingen,United States,HRL,KHRL,26.2285,-97.654389,36,-6,A,"Harlingen/San Benito, TX",425,424,426,426,2.3647058823529385,8.200471698113207,7.0,123.0,"Mon, Jul 16, 2007","Thu, Jul 19, 2007"
4113,Huntsville International Airport-Carl T. Jones Field,Huntsville,United States,HSV,KHSV,34.6371944,-86.7750556,629,-6,A,"Huntsville, AL",798,799,829,827,5.464912280701757,13.32916145181476,20.0,142.0,"Tue, Jul 24, 2007","Sun, Jul  1, 2007"
5742,TriState-Milton J. Ferguson Field,Huntington,United States,HTS,KHTS,38.3667,-82.558,828,-5,A,"Ashland, WV",24,24,25,25,3.375,11.458333333333334,5.0,33.0,"Tue, Jul  3, 2007","Sun, Jul  1, 2007"
3714,Washington Dulles International,Washington,United States,IAD,KIAD,38.944533,-77.455811,313,-5,A,"Washington, DC",7125,7145,7334,7336,7.143298245614025,21.567669699090313,130.0,218.0,"Sun, Jul 29, 2007","Fri, Jul 27, 2007"
3550,George Bush Intercontinental Houston,Houston,United States,IAH,KIAH,29.984433,-95.341442,97,-6,A,"Houston, TX",16077,16262,16573,16575,8.755240405548252,21.849096052146006,63.0,198.0,"Mon, Jul 30, 2007","Fri, Jul  6, 2007"
3457,Wichita Mid Continent,Wichita,United States,ICT,KICT,37.649944,-97.433056,1333,-6,A,"Wichita, KS",1208,1205,1240,1239,5.122516556291391,12.753526970954363,35.0,101.0,"Mon, Jul  9, 2007","Thu, Jul 19, 2007"
4100,Idaho Falls Regional,Idaho Falls,United States,IDA,KIDA,43.514556,-112.07075,4744,-7,A,"Idaho Falls, ID",291,289,296,295,4.292096219931267,12.141868512110728,9.0,46.0,"Mon, Jul 16, 2007","Sat, Jul 28, 2007"
3859,New Castle,Wilmington,United States,ILG,KILG,39.678722,-75.606528,79,-5,A,"Wilmington, DE",54,54,56,56,4.629629629629627,11.888888888888891,25.0,26.0,"Sun, Jul 29, 2007","Mon, Jul  9, 2007"
3845,Wilmington International,Wilmington,United States,ILM,KILM,34.270615,-77.902569,32,-5,A,"Wilmington, NC",385,385,393,392,5.142857142857138,10.833766233766234,48.0,48.0,"Sat, Jul 28, 2007","Mon, Jul  2, 2007"
3585,Indianapolis International,Indianapolis,United States,IND,KIND,39.717331,-86.294383,797,-5,A,"Indianapolis, IN",3775,3779,3864,3864,9.245827814569541,14.434506483196621,45.0,140.0,"Sun, Jul 29, 2007","Tue, Jul 10, 2007"
3535,Falls International,International Falls,United States,INL,KINL,48.566186,-93.403067,1185,-6,A,"International Falls, MN",57,57,58,58,5.964912280701754,13.368421052631579,10.0,97.0,"Thu, Jul 19, 2007","Wed, Jul 18, 2007"
3689,Imperial County,Imperial,United States,IPL,KIPL,32.834219,-115.578744,-54,-8,A,"El Centro, CA",103,103,104,105,3.766990291262136,10.174757281553399,14.0,24.0,"Mon, Jul 16, 2007","Fri, Jul 20, 2007"
3857,Long Island MacArthur,Islip,United States,ISP,KISP,40.79525,-73.100222,99,-5,A,"Islip, NY",1093,1094,1097,1098,4.062214089661481,10.08683729433273,24.0,102.0,"Thu, Jul 19, 2007","Fri, Jul 27, 2007"
3415,Hilo International,Hilo,United States,ITO,PHTO,19.721375,-155.048469,38,-10,N,"Hilo, HI",818,819,819,820,3.9902200488997566,7.544566544566544,10.0,29.0,"Fri, Jul 20, 2007","Sat, Jul 28, 2007"
7120,Inyokern Airport,Inyokern,United States,IYK,KIYK,35.658889,-117.829444,2455,-8,A,"Inyokern, CA",76,77,80,82,3.8157894736842106,13.727272727272727,9.0,60.0,"Wed, Jul  4, 2007","Mon, Jul  9, 2007"
4027,Jackson Hole Airport,Jacksn Hole,United States,JAC,KJAC,43.60733333,-110.73775,6451,-7,A,"Jackson, WY",422,426,427,431,3.8364928909952605,14.624413145539904,19.0,60.0,"Tue, Jul 24, 2007","Sat, Jul 28, 2007"
3580,Jackson Evers International,Jackson,United States,JAN,KJAN,32.311167,-90.075889,346,-6,A,"Jackson/Vicksburg, MS",1121,1121,1151,1151,4.801070472792151,10.90900981266726,50.0,157.0,"Sun, Jul  1, 2007","Sun, Jul 29, 2007"
3712,Jacksonville International,Jacksonville,United States,JAX,KJAX,30.494056,-81.687861,30,-5,A,"Jacksonville, FL",3241,3246,3299,3297,5.836161678494287,13.294824399260643,66.0,123.0,"Sat, Jul 14, 2007","Sat, Jul 14, 2007"
3797,John F. Kennedy International,New York,United States,JFK,KJFK,40.639751,-73.778925,13,-5,A,"New York, NY",10437,10566,10964,11000,12.258886653252869,44.19676320272568,146.0,334.0,"Mon, Jul  2, 2007","Fri, Jul 27, 2007"
3492,Juneau International,Juneau,United States,JNU,PAJN,58.354972,-134.576278,21,-9,A,"Juneau, AK",513,519,528,528,3.7173489278752436,13.262042389210016,28.0,46.0,"Sun, Jul 15, 2007","Thu, Jul 26, 2007"
3514,Kona International At Keahole,Kona,United States,KOA,PHKO,19.738767,-156.045631,47,-10,N,"Kona, HI",1433,1431,1441,1442,3.654570830425679,8.491963661775003,23.0,37.0,"Sat, Jul 28, 2007","Fri, Jul  6, 2007"
3808,Ketchikan International,Ketchikan,United States,KTN,PAKT,55.355556,-131.71375,88,-9,A,"Ketchikan, AK",243,245,248,248,4.230452674897124,11.14285714285714,13.0,41.0,"Sun, Jul 15, 2007","Sun, Jul 22, 2007"
3544,Capital City,Lansing,United States,LAN,KLAN,42.7787,-84.587357,861,-5,A,"Lansing, MI",360,358,379,377,4.594444444444451,12.952513966480442,20.0,66.0,"Mon, Jul  9, 2007","Thu, Jul 19, 2007"
3877,McCarran International,Las Vegas,United States,LAS,KLAS,36.080056,-115.15225,2141,-8,A,"Las Vegas, NV",15562,15578,15713,15711,7.1995244827143114,17.42842470150208,73.0,136.0,"Mon, Jul 23, 2007","Mon, Jul 23, 2007"
4256,Lawton-Fort Sill Regional Airport,Lawton,United States,LAW,KLAW,34.5677144,-98.4166367,1110,-6,A,"Lawton/Fort Sill, OK",199,198,208,207,4.065326633165828,8.358585858585858,9.0,28.0,"Mon, Jul 23, 2007","Wed, Jul 18, 2007"
3484,Los Angeles International,Los Angeles,United States,LAX,KLAX,33.942536,-118.408075,126,-8,A,"Los Angeles, CA",20680,20691,20920,20917,9.636025145067688,16.56019525397498,124.0,140.0,"Sun, Jul  1, 2007","Thu, Jul 26, 2007"
3829,Lubbock Preston Smith International,Lubbock,United States,LBB,KLBB,33.663639,-101.822778,3282,-6,A,"Lubbock, TX",686,685,698,698,3.307580174927114,8.531386861313871,21.0,29.0,"Tue, Jul  3, 2007","Fri, Jul 27, 2007"
3513,Lake Charles Regional,Lake Charles,United States,LCH,KLCH,30.126112,-93.223335,15,-6,A,"Lake Charles, LA",83,82,85,85,5.216867469879519,14.975609756097562,13.0,77.0,"Tue, Jul 24, 2007","Fri, Jul 27, 2007"
4017,Blue Grass,Lexington KY,United States,LEX,KLEX,38.0365,-84.605889,979,-5,A,"Lexington, KY",847,864,877,883,4.760330578512401,13.721064814814813,21.0,109.0,"Thu, Jul  5, 2007","Fri, Jul 13, 2007"
3493,Lafayette Regional,Lafayette,United States,LFT,KLFT,30.205278,-91.987611,43,-6,A,"Lafayette, LA",483,487,511,513,5.175983436853,13.503080082135522,15.0,187.0,"Fri, Jul  6, 2007","Thu, Jul 19, 2007"
3697,LaGuardia Airport,New York,United States,LGA,KLGA,40.777245,-73.872608,22,-5,A,"New York, NY",9531,9586,10310,10301,8.427762039660067,30.709159190486126,88.0,298.0,"Sun, Jul 29, 2007","Fri, Jul 27, 2007"
3582,Long Beach,Long Beach,United States,LGB,KLGB,33.817722,-118.151611,60,-8,A,"Long Beach, CA",1236,1232,1250,1244,6.317152103559874,16.29788961038958,165.0,58.0,"Thu, Jul 26, 2007","Thu, Jul 26, 2007"
3602,Lihue,Lihue,United States,LIH,PHLI,21.975983,-159.338958,153,-10,N,"Lihue, HI",1389,1387,1392,1392,4.8869690424766095,5.422494592646002,26.0,39.0,"Fri, Jul  6, 2007","Tue, Jul  3, 2007"
3660,Adams Field,Little Rock,United States,LIT,KLIT,34.729444,-92.224306,262,-6,A,"Little Rock, AR",1431,1432,1479,1478,4.883298392732356,11.314245810055866,67.0,216.0,"Mon, Jul  9, 2007","Sun, Jul  1, 2007"
3543,Lincoln,Lincoln,United States,LNK,KLNK,40.850971,-96.75925,1219,-6,A,"Lincoln, NE",343,343,351,351,3.94460641399417,12.825072886297379,15.0,126.0,"Sat, Jul  7, 2007","Thu, Jul 26, 2007"
3691,Laredo International,Laredo,United States,LRD,KLRD,27.54375,-99.461556,508,-6,A,"Laredo, TX",189,191,199,200,3.513227513227513,10.162303664921467,19.0,66.0,"Mon, Jul  9, 2007","Fri, Jul 20, 2007"
4044,LaCrosse Municipal,LaCrosse,United States,LSE,KLSE,43.878986,-91.256711,654,-6,A,"La Crosse, WI",192,190,201,200,3.401041666666666,11.257894736842106,14.0,79.0,"Sun, Jul 15, 2007","Tue, Jul 17, 2007"
6958,Greenbrier Valley Airport,Lewisburg,United States,LWB,KLWB,37.858333,-80.399444,2302,-5,U,"Lewisburg, WV",29,29,29,29,3.896551724137931,7.862068965517241,7.0,13.0,"Tue, Jul 10, 2007","Sun, Jul 15, 2007"
3945,Lewiston Nez Perce County,Lewiston,United States,LWS,KLWS,46.3745,-117.015389,1442,-8,A,"Lewiston, ID",60,60,60,60,5.433333333333334,10.76666666666667,10.0,25.0,"Sun, Jul 29, 2007","Fri, Jul 27, 2007"
5753,Lynchburg Regional-Preston Glenn Field,Lynchburg,United States,LYH,KLYH,37.3267,-79.2004,938,-5,A,"Lynchburg, VA",66,65,75,75,3.803030303030303,9.399999999999999,10.0,59.0,"Tue, Jul  3, 2007","Fri, Jul 27, 2007"
3652,Midland International,Midland,United States,MAF,KMAF,31.942528,-102.201914,2871,-6,A,"Midland/Odessa, TX",588,587,601,601,2.8197278911564623,9.352640545144803,32.0,185.0,"Wed, Jul 11, 2007","Fri, Jul  6, 2007"
4128,MBS International,Saginaw,United States,MBS,KMBS,43.532913,-84.079647,668,-5,A,"Saginaw/Bay City/Midland, MI",313,310,327,327,4.418530351437699,11.945161290322584,20.0,76.0,"Wed, Jul 18, 2007","Fri, Jul 27, 2007"
3458,Kansas City International,Kansas City,United States,MCI,KMCI,39.297606,-94.713905,1026,-6,A,"Kansas City, MO",5911,5914,5967,5969,5.3701573337844755,12.149475820087916,51.0,160.0,"Fri, Jul 20, 2007","Wed, Jul 18, 2007"
3754,Middle Georgia Regional,Macon,United States,MCN,KMCN,32.69285,-83.649211,354,-5,A,"Macon, GA",89,87,93,94,3.707865168539326,10.137931034482762,14.0,27.0,"Fri, Jul 20, 2007","Fri, Jul  6, 2007"
3878,Orlando International,Orlando,United States,MCO,KMCO,28.429394,-81.308994,96,-5,A,"Orlando, FL",11422,11457,11547,11546,7.2036420942041755,16.742079078292726,83.0,200.0,"Tue, Jul 10, 2007","Sat, Jul 14, 2007"
3542,Harrisburg International,Harrisburg,United States,MDT,KMDT,40.193494,-76.763403,310,-5,A,"Harrisburg, PA",752,751,773,774,5.222074468085107,13.84953395472703,47.0,148.0,"Sun, Jul 29, 2007","Sun, Jul  1, 2007"
3747,Chicago Midway International,Chicago,United States,MDW,KMDW,41.785972,-87.752417,620,-6,A,"Chicago, IL",8178,8217,8263,8263,5.337246270481763,12.289765121090433,82.0,189.0,"Mon, Jul  9, 2007","Mon, Jul  9, 2007"
4335,Key Field,Meridian,United States,MEI,KMEI,32.332624,-88.751868,297,-6,A,"Meridian, MS",57,57,58,58,5.035087719298245,10.824561403508772,15.0,23.0,"Mon, Jul 30, 2007","Wed, Jul 11, 2007"
3473,Memphis International,Memphis,United States,MEM,KMEM,35.042417,-89.976667,341,-6,A,"Memphis, TN",7018,7053,7199,7203,7.186805357651744,18.378420530270752,55.0,158.0,"Thu, Jul 19, 2007","Mon, Jul 16, 2007"
3826,McAllen Miller International,Mcallen,United States,MFE,KMFE,26.175833,-98.238611,107,-6,A,"Mission/McAllen/Edinburg, TX",392,395,404,405,4.48724489795918,12.245569620253164,15.0,196.0,"Mon, Jul 16, 2007","Thu, Jul 19, 2007"
4101,Rogue Valley International Medford,Medford,United States,MFR,KMFR,42.374228,-122.8735,1335,-8,A,"Medford, OR",595,594,603,602,4.0403361344537805,11.407407407407403,11.0,104.0,"Wed, Jul 11, 2007","Sun, Jul 22, 2007"
4115,Montgomery Regional Airport ,MONTGOMERY,United States,MGM,KMGM,32.3006389,-86.3939722,221,-6,A,"Montgomery, AL",304,303,319,319,3.6151315789473686,12.537953795379538,12.0,105.0,"Tue, Jul  3, 2007","Tue, Jul 10, 2007"
4011,Manchester Regional Airport,Manchester NH,United States,MHT,KMHT,42.932556,-71.435667,266,-5,A,"Manchester, NH",1836,1836,1874,1874,4.31427015250545,13.861655773420475,20.0,127.0,"Wed, Jul 11, 2007","Sun, Jul 15, 2007"
3576,Miami International,Miami,United States,MIA,KMIA,25.79325,-80.290556,8,-5,A,"Miami, FL",5273,5294,5391,5386,9.089133320690326,18.457121269361494,156.0,238.0,"Tue, Jul  3, 2007","Sun, Jul 29, 2007"
3717,General Mitchell International,Milwaukee,United States,MKE,KMKE,42.947222,-87.896583,723,-6,A,"Milwaukee, WI",2434,2435,2496,2496,5.159819227608875,14.128952772073916,110.0,128.0,"Wed, Jul 11, 2007","Fri, Jul 13, 2007"
3671,Melbourne International,Melbourne,United States,MLB,KMLB,28.102753,-80.645258,33,-5,A,"Melbourne, FL",170,171,176,175,5.117647058823529,11.187134502923982,72.0,43.0,"Fri, Jul 27, 2007","Sat, Jul 14, 2007"
4072,Quad City International,Moline,United States,MLI,KMLI,41.448528,-90.507539,590,-6,A,"Moline, IL",770,768,800,798,4.0584415584415545,12.561197916666666,26.0,112.0,"Sun, Jul  8, 2007","Sun, Jul  1, 2007"
3732,Monroe Regional,Monroe,United States,MLU,KMLU,32.510864,-92.037689,79,-6,A,"Monroe, LA",244,242,256,256,4.795081967213115,9.768595041322312,17.0,27.0,"Thu, Jul 12, 2007","Wed, Jul 11, 2007"
3782,Mobile Regional,Mobile,United States,MOB,KMOB,30.691231,-88.242814,219,-6,A,"Mobile, AL",537,537,557,557,4.26256983240223,11.093109869646183,38.0,138.0,"Wed, Jul 25, 2007","Mon, Jul 16, 2007"
3816,Modesto City County Harry Sham,Modesto,United States,MOD,KMOD,37.625817,-120.954422,97,-8,A,"Modesto, CA",249,251,258,258,3.3333333333333326,10.721115537848606,21.0,32.0,"Sun, Jul  1, 2007","Tue, Jul 10, 2007"
3498,Minot International,Minot,United States,MOT,KMOT,48.259378,-101.280333,1716,-6,A,"Minot, ND",86,86,87,87,6.011627906976747,10.953488372093023,10.0,26.0,"Tue, Jul 17, 2007","Sat, Jul 14, 2007"
6838,Sawyer International Airport,Marquette,United States,MQT,KMQT,46.353611,-87.395278,1221,-5,A,"Marquette, MI",110,110,116,115,4.399999999999997,9.354545454545459,16.0,53.0,"Wed, Jul  4, 2007","Wed, Jul  4, 2007"
3948,Monterey Peninsula,Monterey,United States,MRY,KMRY,36.587,-121.842944,257,-8,A,"Monterey, CA",780,780,799,799,3.8884615384615424,10.135897435897434,14.0,63.0,"Thu, Jul  5, 2007","Wed, Jul 18, 2007"
3459,Dane County Regional-Truax Field,Madison,United States,MSN,KMSN,43.139858,-89.337514,887,-6,A,"Madison, WI",1078,1074,1113,1108,4.692949907235626,13.996275605214153,94.0,128.0,"Mon, Jul 30, 2007","Fri, Jul 27, 2007"
4216,Missoula International,Missoula,United States,MSO,KMSO,46.916306,-114.090556,3205,-7,A,"Missoula, MT",429,431,432,434,5.291375291375295,12.17401392111368,78.0,81.0,"Sun, Jul 29, 2007","Sun, Jul  8, 2007"
3858,Minneapolis St. Paul International,Minneapolis,United States,MSP,KMSP,44.881956,-93.221767,841,-6,A,"Minneapolis, MN",13274,13405,13672,13694,8.408693686906823,18.635509138381348,113.0,179.0,"Sun, Jul  8, 2007","Mon, Jul  9, 2007"
3861,Louis Armstrong New Orleans International,New Orleans,United States,MSY,KMSY,29.993389,-90.258028,4,-6,A,"New Orleans, LA",3226,3234,3261,3272,4.211407315561093,11.06246134817564,37.0,125.0,"Sun, Jul 15, 2007","Sun, Jul 29, 2007"
6880,Montrose Regional Airport,Montrose CO,United States,MTJ,KMTJ,38.509794,-107.894242,5759,-7,A,"Montrose/Delta, CO",212,211,217,217,4.202830188679245,12.507109004739341,17.0,97.0,"Sat, Jul 21, 2007","Thu, Jul 19, 2007"
3515,Myrtle Beach International,Myrtle Beach,United States,MYR,KMYR,33.67975,-78.928333,25,-5,A,"Myrtle Beach, SC",633,628,657,653,4.530805687203792,12.91242038216561,20.0,111.0,"Sat, Jul  7, 2007","Mon, Jul  9, 2007"
4386,Albert J. Ellis,Jacksonville NC,United States,OAJ,KOAJ,34.829164,-77.612139,94,-5,A,"Jacksonville/Camp Lejeune, NC",109,111,114,114,3.6422018348623855,10.45945945945946,10.0,71.0,"Wed, Jul 25, 2007","Sat, Jul 28, 2007"
3453,Metropolitan Oakland International,Oakland,United States,OAK,KOAK,37.721278,-122.220722,9,-8,A,"Oakland, CA",6437,6424,6489,6480,6.845114183625922,11.341687422166848,50.0,104.0,"Tue, Jul 10, 2007","Wed, Jul 11, 2007"
3456,Kahului,Kahului,United States,OGG,PHOG,20.89865,-156.430458,54,-10,N,"Kahului, HI",2277,2275,2296,2297,5.036451471234089,8.103296703296706,38.0,68.0,"Tue, Jul 10, 2007","Sun, Jul  8, 2007"
3863,Will Rogers World,Oklahoma City,United States,OKC,KOKC,35.393089,-97.600733,1295,-6,A,"Oklahoma City, OK",2274,2270,2315,2304,5.110378188214593,11.320704845814952,54.0,176.0,"Fri, Jul 20, 2007","Sun, Jul  1, 2007"
3454,Eppley Airfield,Omaha,United States,OMA,KOMA,41.303167,-95.894069,984,-6,A,"Omaha, NE",2418,2413,2456,2454,4.19809760132341,11.894736842105248,53.0,213.0,"Tue, Jul 24, 2007","Fri, Jul  6, 2007"
3615,Nome,Nome,United States,OME,PAOM,64.512203,-165.445247,37,-9,A,"Nome, AK",90,92,93,93,3.6666666666666665,5.663043478260871,8.0,19.0,"Sun, Jul 15, 2007","Mon, Jul 16, 2007"
3734,Ontario International,Ontario,United States,ONT,KONT,34.056,-117.601194,944,-8,A,"Ontario, CA",3744,3745,3779,3776,4.822382478632459,10.73110814419227,93.0,63.0,"Sun, Jul  8, 2007","Mon, Jul 23, 2007"
3830,Chicago O'Hare International,Chicago,United States,ORD,KORD,41.978603,-87.904842,668,-6,A,"Chicago, IL",30841,31006,32047,32014,8.476573392561903,19.315261562278305,125.0,238.0,"Wed, Jul 18, 2007","Sun, Jul  1, 2007"
3611,Norfolk International,Norfolk,United States,ORF,KORF,36.894611,-76.201222,26,-5,A,"Norfolk, VA",1630,1640,1692,1696,4.471779141104301,13.231707317073171,26.0,190.0,"Sun, Jul  8, 2007","Sun, Jul 29, 2007"
3693,Ralph WienMemorial,Kotzebue,United States,OTZ,PAOT,66.884678,-162.59855,11,-9,A,"Kotzebue, AK",90,90,92,92,3.3444444444444446,6.811111111111111,6.0,19.0,"Fri, Jul  6, 2007","Mon, Jul 30, 2007"
6961,Oxnard - Ventura County,Oxnard,United States,OXR,KOXR,34.200833,-119.207222,15,-8,A,"Oxnard/Ventura, CA",114,114,114,114,4.078947368421052,11.201754385964911,15.0,67.0,"Sun, Jul  8, 2007","Sat, Jul  7, 2007"
3722,Palm Beach International,West Palm Beach,United States,PBI,KPBI,26.683161,-80.095589,19,-5,A,"West Palm Beach/Palm Beach, FL",2105,2114,2135,2135,4.708313539192409,13.547303689687798,30.0,159.0,"Wed, Jul  4, 2007","Sun, Jul  1, 2007"
3720,Portland International,Portland,United States,PDX,KPDX,45.588722,-122.5975,30,-8,A,"Portland, OR",5214,5225,5260,5257,3.822209436133483,11.984497607655532,31.0,85.0,"Wed, Jul 18, 2007","Thu, Jul 19, 2007"
4073,Panama City Bay County International,Panama City,United States,PFN,KPFN,30.212083,-85.682806,20,-6,A,"Panama City, FL",281,279,292,292,3.6192170818505347,10.6594982078853,10.0,52.0,"Tue, Jul 10, 2007","Mon, Jul 16, 2007"
3633,Newport News Williamsburg International,Newport News,United States,PHF,KPHF,37.131894,-76.492989,43,-5,A,"Newport News/Williamsburg, VA",482,480,490,490,5.174273858921156,11.114583333333337,23.0,166.0,"Fri, Jul 20, 2007","Thu, Jul 19, 2007"
3752,Philadelphia International,Philadelphia,United States,PHL,KPHL,39.871944,-75.241139,36,-5,A,"Philadelphia, PA",8815,8856,9027,9036,7.86023823028928,27.49616079494128,100.0,237.0,"Sun, Jul 29, 2007","Fri, Jul 27, 2007"
3462,Phoenix Sky Harbor International,Phoenix,United States,PHX,KPHX,33.434278,-112.011583,1135,-7,N,"Phoenix, AZ",17544,17675,17844,17846,7.469676242590068,16.119717114568576,137.0,134.0,"Mon, Jul 30, 2007","Thu, Jul 26, 2007"
4046,Peoria Regional,Peoria,United States,PIA,KPIA,40.664203,-89.693258,660,-6,A,"Peoria, IL",423,422,441,441,3.7281323877068546,13.376777251184834,13.0,82.0,"Mon, Jul 16, 2007","Thu, Jul 26, 2007"
5760,Pocatello Regional Airport,Pocatello,United States,PIH,KPIH,42.9098,-112.596,4452,-7,A,"Pocatello, ID",155,155,157,155,3.574193548387096,9.516129032258068,10.0,31.0,"Thu, Jul  5, 2007","Wed, Jul 11, 2007"
3570,Pittsburgh International,Pittsburgh (pennsylva),United States,PIT,KPIT,40.491467,-80.232872,1204,-5,A,"Pittsburgh, PA",4240,4248,4339,4338,5.880896226415098,14.052259887005645,52.0,282.0,"Fri, Jul 27, 2007","Sun, Jul 29, 2007"
5762,Pellston Regional Airport of Emmet County Airport,Pellston,United States,PLN,KPLN,45.5709,-84.7967,720,-5,A,"Pellston, MI",117,116,121,121,5.034188034188035,12.155172413793103,8.0,45.0,"Mon, Jul 23, 2007","Wed, Jul  4, 2007"
3756,Palmdale Regional Usaf Plt 42,Palmdale,United States,PMD,KPMD,34.629391,-118.08456,2543,-8,A,"Palmdale, CA",59,59,62,62,4.406779661016949,8.152542372881358,10.0,27.0,"Sat, Jul 14, 2007","Tue, Jul 17, 2007"
3564,Pensacola Regional,Pensacola,United States,PNS,KPNS,30.473425,-87.186611,121,-6,A,"Pensacola, FL",905,904,931,931,4.3867403314917155,11.184734513274336,33.0,84.0,"Thu, Jul  5, 2007","Thu, Jul 26, 2007"
6133,Tri Cities Airport,Pasco,United States,PSC,PSC,46.2647,-119.119,410,-8,A,"Pasco/Kennewick/Richland, WA",232,232,236,236,4.69396551724138,11.93534482758621,9.0,34.0,"Mon, Jul 16, 2007","Mon, Jul 30, 2007"
4147,Petersburg James A. Johnson,Petersburg,United States,PSG,PAPG,56.801667,-132.945278,105,-9,A,"Petersburg, AK",60,60,62,62,3.083333333333333,8.350000000000003,5.0,33.0,"Sun, Jul  1, 2007","Wed, Jul  4, 2007"
3839,Palm Springs International,Palm Springs,United States,PSP,KPSP,33.829667,-116.506694,477,-8,A,"Palm Springs, CA",842,837,847,847,4.434679334916866,11.505376344086025,22.0,40.0,"Tue, Jul 10, 2007","Thu, Jul 26, 2007"
3641,Theodore Francis Green State,Providence,United States,PVD,KPVD,41.732581,-71.420383,55,-5,A,"Providence, RI",2133,2137,2174,2176,5.098921706516645,13.37622835751052,46.0,158.0,"Sat, Jul 21, 2007","Fri, Jul  6, 2007"
3862,Portland International Jetport,Portland,United States,PWM,KPWM,43.646161,-70.309281,77,-5,A,"Portland, ME",835,831,883,883,4.722155688622755,17.163658243080626,81.0,202.0,"Sun, Jul 15, 2007","Sun, Jul 29, 2007"
4087,Rapid City Regional Airport,Rapid City,United States,RAP,KRAP,44.045278,-103.057222,3204,-7,A,"Rapid City, SD",507,509,520,519,4.5404339250493075,11.277013752455797,12.0,48.0,"Sun, Jul 22, 2007","Mon, Jul  9, 2007"
4098,Redding Municipal,Redding,United States,RDD,KRDD,40.509,-122.293389,504,-8,A,"Redding, CA",150,150,156,154,4.700000000000002,12.179999999999996,86.0,33.0,"Sun, Jul 15, 2007","Fri, Jul 13, 2007"
4103,Roberts Field,Redmond-Bend,United States,RDM,KRDM,44.254066,-121.149964,3077,-8,A,"Bend/Redmond, OR",334,335,334,335,3.92814371257485,11.125373134328356,8.0,54.0,"Wed, Jul 11, 2007","Tue, Jul 10, 2007"
3626,Raleigh Durham International,Raleigh-durham,United States,RDU,KRDU,35.877639,-78.787472,435,-5,A,"Raleigh/Durham, NC",6024,6014,6182,6178,5.495019920318733,14.304622547389423,123.0,206.0,"Fri, Jul 27, 2007","Sun, Jul 29, 2007"
4028,Chicago Rockford International Airport ,Rockford,United States,RFD,KRFD,42.1953611,-89.0972222,742,-6,A,"Rockford, IL",56,57,58,57,4.232142857142856,14.736842105263158,12.0,40.0,"Tue, Jul  3, 2007","Mon, Jul  2, 2007"
5765,Rhinelander Oneida County Airport,Rhinelander,United States,RHI,KRHI,45.6312,-89.4675,1624,-6,A,"Rhinelander, WI",26,26,27,27,4.038461538461538,9.038461538461538,6.0,19.0,"Mon, Jul 30, 2007","Tue, Jul 10, 2007"
3608,Richmond International,Richmond,United States,RIC,KRIC,37.505167,-77.319667,167,-5,A,"Richmond, VA",1637,1632,1683,1682,5.3023824068417875,14.169730392156863,72.0,106.0,"Sun, Jul 29, 2007","Mon, Jul 23, 2007"
3807,Reno Tahoe International,Reno,United States,RNO,KRNO,39.499108,-119.768108,4415,-8,A,"Reno, NV",2325,2323,2340,2338,4.652043010752683,11.071889797675416,51.0,85.0,"Fri, Jul 13, 2007","Sun, Jul 22, 2007"
4016,Roanoke Regional,Roanoke VA,United States,ROA,KROA,37.325472,-79.975417,1175,-5,A,"Roanoke, VA",204,204,214,213,5.519607843137253,12.308823529411763,22.0,77.0,"Fri, Jul 20, 2007","Thu, Jul 19, 2007"
3622,Greater Rochester International,Rochester,United States,ROC,KROC,43.118866,-77.672389,559,-5,A,"Rochester, NY",1425,1408,1466,1463,5.685614035087722,13.01349431818182,26.0,187.0,"Thu, Jul 26, 2007","Fri, Jul 27, 2007"
4048,Rochester,Rochester,United States,RST,KRST,43.908283,-92.500014,1317,-6,A,"Rochester, MN",316,317,330,329,4.1772151898734196,10.823343848580441,49.0,85.0,"Mon, Jul  2, 2007","Thu, Jul 26, 2007"
3793,Southwest Florida International,Fort Myers,United States,RSW,KRSW,26.536167,-81.755167,30,-5,A,"Fort Myers, FL",1749,1749,1764,1763,4.770154373927957,12.327615780445957,38.0,126.0,"Sat, Jul 28, 2007","Sun, Jul 29, 2007"
3731,San Diego International,San Diego,United States,SAN,KSAN,32.733556,-117.189667,17,-8,A,"San Diego, CA",8657,8653,8718,8715,4.10788956913481,14.439847451750843,50.0,123.0,"Mon, Jul 16, 2007","Thu, Jul 19, 2007"
3621,San Antonio International,San Antonio,United States,SAT,KSAT,29.533694,-98.469778,809,-6,A,"San Antonio, TX",4124,4140,4201,4203,3.8302618816682816,11.559178743961342,53.0,156.0,"Fri, Jul  6, 2007","Tue, Jul 31, 2007"
3613,Savannah Hilton Head International,Savannah,United States,SAV,KSAV,32.127583,-81.202139,51,-5,A,"Savannah, GA",1212,1217,1254,1256,5.649339933993398,13.291700903861946,53.0,174.0,"Fri, Jul  6, 2007","Mon, Jul 23, 2007"
3949,Santa Barbara Municipal,Santa Barbara,United States,SBA,KSBA,34.426211,-119.840372,10,-8,A,"Santa Barbara, CA",1189,1188,1212,1213,4.514718250630781,11.11784511784511,20.0,82.0,"Sun, Jul  8, 2007","Sat, Jul  7, 2007"
4359,South Bend Regional,South Bend,United States,SBN,KSBN,41.708661,-86.31725,799,-5,A,"South Bend, IN",439,440,454,453,4.54441913439636,12.304545454545448,40.0,80.0,"Mon, Jul  9, 2007","Thu, Jul  5, 2007"
5768,San Luis County Regional Airport,San Luis Obispo,United States,SBP,KSBP,35.2368,-120.642,212,-8,A,"San Luis Obispo, CA",602,602,616,619,3.5714285714285716,11.87873754152823,14.0,70.0,"Fri, Jul 27, 2007","Tue, Jul 10, 2007"
3620,Deadhorse,Deadhorse,United States,SCC,PASC,70.19475,-148.465167,64,-9,A,"Deadhorse, AK",60,60,62,62,2.616666666666666,7.983333333333336,4.0,26.0,"Thu, Jul  5, 2007","Wed, Jul 25, 2007"
4318,University Park Airport,State College Pennsylvania,United States,SCE,KUNV,40.849278,-77.848694,1239,-5,A,"State College, PA",59,57,62,62,5.745762711864407,12.052631578947368,10.0,70.0,"Sat, Jul 14, 2007","Thu, Jul 19, 2007"
4014,Louisville International Airport,Louisville,United States,SDF,KSDF,38.1740858,-85.7364989,501,-5,A,"Louisville, KY",1889,1886,1925,1925,5.417151932239282,12.805938494167545,64.0,184.0,"Thu, Jul 19, 2007","Mon, Jul  9, 2007"
3577,Seattle Tacoma International,Seattle,United States,SEA,KSEA,47.449,-122.309306,433,-8,A,"Seattle, WA",10140,10155,10236,10232,6.874556213017755,17.360413589364825,51.0,148.0,"Mon, Jul 30, 2007","Mon, Jul 16, 2007"
3469,San Francisco International,San Francisco,United States,SFO,KSFO,37.618972,-122.374889,13,-8,A,"San Francisco, CA",12108,12142,12345,12347,6.120911793855305,18.085900181189274,85.0,159.0,"Sun, Jul 15, 2007","Mon, Jul  9, 2007"
4348,Springfield Branson National,Springfield,United States,SGF,KSGF,37.245667,-93.388639,1268,-6,A,"Springfield, MO",954,950,988,986,4.410901467505244,12.852631578947374,37.0,105.0,"Mon, Jul 30, 2007","Thu, Jul 26, 2007"
4064,St. George Municipal,Saint George,United States,SGU,KSGU,37.090583,-113.593056,2941,-7,A,"St. George, UT",306,308,308,309,4.173202614379086,10.090909090909086,12.0,26.0,"Tue, Jul 17, 2007","Mon, Jul  9, 2007"
3609,Shreveport Regional,Shreveport,United States,SHV,KSHV,32.446629,-93.8256,258,-6,A,"Shreveport, LA",690,692,718,719,5.314492753623189,9.995664739884386,53.0,69.0,"Thu, Jul 26, 2007","Fri, Jul 27, 2007"
3856,Sitka Rocky Gutierrez,Sitka,United States,SIT,PASI,57.047138,-135.361611,21,-9,A,"Sitka, AK",152,152,155,155,4.059210526315789,12.888157894736839,9.0,39.0,"Thu, Jul 26, 2007","Tue, Jul 10, 2007"
3748,Norman Y. Mineta San Jose International,San Jose,United States,SJC,KSJC,37.3626,-121.929022,62,-8,A,"San Jose, CA",5408,5402,5449,5446,4.120377218934918,11.677156608663482,39.0,96.0,"Sun, Jul  8, 2007","Fri, Jul  6, 2007"
3708,San Angelo Regional-Mathis Field,San Angelo,United States,SJT,KSJT,31.35775,-100.496306,1919,-6,A,"San Angelo, TX",148,147,155,155,3.7972972972972974,7.925170068027217,15.0,23.0,"Mon, Jul  9, 2007","Fri, Jul 13, 2007"
3536,Salt Lake City International,Salt Lake City,United States,SLC,KSLC,40.788389,-111.977772,4227,-7,A,"Salt Lake City, UT",13459,13486,13570,13571,6.62917007207073,19.719190271392556,61.0,120.0,"Tue, Jul 10, 2007","Thu, Jul 26, 2007"
7826,McNary Field,Salem,United States,SLE,KSLE,44.9095,-123.003,214,-7,A,"Salem, OR",60,60,60,60,5.166666666666667,13.433333333333334,22.0,33.0,"Wed, Jul 18, 2007","Wed, Jul  4, 2007"
3817,Sacramento International,Sacramento,United States,SMF,KSMF,38.695417,-121.590778,27,-8,A,"Sacramento, CA",5205,5197,5245,5247,5.388088376561,11.66576871271887,47.0,80.0,"Tue, Jul  3, 2007","Sat, Jul  7, 2007"
5772,Santa Maria Public-Captain G. Allan Hancock Airport,Santa Maria,United States,SMX,KSMX,34.8989,-120.457,261,-8,A,"Santa Maria, CA",149,149,149,149,4.288590604026844,12.664429530201339,17.0,43.0,"Mon, Jul 16, 2007","Sun, Jul 22, 2007"
3867,John Wayne Airport Orange County,Santa Ana,United States,SNA,KSNA,33.675667,-117.868222,56,-8,A,"Santa Ana, CA",4468,4466,4547,4544,6.90196956132498,13.348410210479168,44.0,131.0,"Thu, Jul 26, 2007","Tue, Jul 10, 2007"
4336,Abraham Lincoln Capital,Springfield,United States,SPI,KSPI,39.8441,-89.677889,597,-6,A,"Springfield, IL",143,141,147,146,3.9160839160839163,13.886524822695035,14.0,77.0,"Fri, Jul 20, 2007","Thu, Jul 19, 2007"
3680,Sheppard AFB Wichita Falls Municipal,Wichita Falls,United States,SPS,KSPS,33.988797,-98.491894,1019,-6,A,"Wichita Falls, TX",195,193,208,208,5.866666666666666,11.409326424870466,16.0,76.0,"Tue, Jul  3, 2007","Sun, Jul  1, 2007"
4067,Sarasota Bradenton International,Sarasota,United States,SRQ,KSRQ,27.395444,-82.554389,30,-5,A,"Sarasota/Bradenton, FL",466,473,478,481,4.527896995708158,11.46934460887949,16.0,124.0,"Mon, Jul  2, 2007","Sat, Jul 14, 2007"
3678,Lambert St. Louis International,St. Louis,United States,STL,KSTL,38.748697,-90.370028,618,-6,A,"St. Louis, MO",5465,5481,5565,5568,5.043732845379682,12.274949826673986,55.0,169.0,"Wed, Jul 11, 2007","Sun, Jul  8, 2007"
6494,Friedman Memorial,Hailey,United States,SUN,KSUN,43.504444,-114.296194,5320,-7,A,"Sun Valley/Hailey/Ketchum, ID",338,339,341,341,3.1035502958579877,10.008849557522119,10.0,46.0,"Fri, Jul  6, 2007","Mon, Jul 16, 2007"
3753,Sioux Gateway-Colonel Bud Day Field,Sioux City,United States,SUX,KSUX,42.402603,-96.384367,1098,-6,A,"Sioux City, IA",26,26,27,27,3.3461538461538463,11.153846153846153,7.0,22.0,"Wed, Jul 11, 2007","Sun, Jul  8, 2007"
3661,Stewart International,Newburgh,United States,SWF,KSWF,41.504094,-74.104839,491,-5,A,"Newburgh/Poughkeepsie, NY",512,510,521,522,5.642578125,14.97254901960785,30.0,134.0,"Tue, Jul 17, 2007","Tue, Jul 10, 2007"
3745,Syracuse Hancock International,Syracuse,United States,SYR,KSYR,43.111187,-76.106311,421,-5,A,"Syracuse, NY",1087,1089,1124,1123,4.839926402943879,15.099173553719014,39.0,246.0,"Thu, Jul 26, 2007","Fri, Jul 27, 2007"
3698,Tallahassee Regional,Tallahassee,United States,TLH,KTLH,30.396528,-84.350333,81,-5,A,"Tallahassee, FL",395,398,402,405,4.169620253164553,11.082914572864322,23.0,65.0,"Sun, Jul  1, 2007","Mon, Jul  9, 2007"
4040,Toledo,Toledo,United States,TOL,KTOL,41.586806,-83.807833,684,-5,A,"Toledo, OH",177,179,184,184,3.406779661016948,12.435754189944134,9.0,67.0,"Tue, Jul 10, 2007","Thu, Jul 26, 2007"
3646,Tampa International,Tampa,United States,TPA,KTPA,27.975472,-82.53325,26,-5,A,"Tampa, FL",6465,6497,6553,6555,4.973859242072675,13.452054794520526,150.0,239.0,"Mon, Jul 16, 2007","Fri, Jul 27, 2007"
4116,Tri-Cities Regional Airport,BRISTOL,United States,TRI,KTRI,36.4752222,-82.4074167,1519,-5,A,"Bristol/Johnson City/Kingsport, TN",100,102,111,113,4.559999999999999,10.558823529411763,12.0,32.0,"Fri, Jul 13, 2007","Tue, Jul 10, 2007"
3447,Trenton Mercer,Trenton,United States,TTN,KTTN,40.276692,-74.813469,213,-5,A,"Trenton, NJ",67,66,72,72,5.447761194029851,15.454545454545466,14.0,83.0,"Mon, Jul 30, 2007","Fri, Jul  6, 2007"
3855,Tulsa International,Tulsa,United States,TUL,KTUL,36.198389,-95.888111,677,-6,A,"Tulsa, OK",2185,2192,2227,2227,4.3803203661327155,11.974452554744532,63.0,118.0,"Sat, Jul 21, 2007","Sun, Jul 29, 2007"
5773,Tupelo Regional Airport,Tupelo,United States,TUP,KTUP,34.2681,-88.7699,346,-6,A,"Tupelo, MS",40,38,45,43,3.525,9.421052631578947,7.0,23.0,"Mon, Jul 30, 2007","Tue, Jul 24, 2007"
3636,Tucson International,Tucson,United States,TUS,KTUS,32.116083,-110.941028,2643,-7,N,"Tucson, AZ",2383,2376,2412,2407,5.000839278220734,11.736531986531979,89.0,97.0,"Sat, Jul 28, 2007","Tue, Jul 31, 2007"
4023,Cherry Capital Airport,Traverse City,United States,TVC,KTVC,44.741445,-85.582235,624,-5,A,"Traverse City, MI",547,549,556,557,4.537477148080442,12.072859744990893,42.0,56.0,"Fri, Jul  6, 2007","Fri, Jul 27, 2007"
4263,Magic Valley Regional Airport,Twin Falls,United States,TWF,KTWF,42.481803,-114.487733,4151,-7,A,"Twin Falls, ID",179,180,182,181,3.636871508379888,10.033333333333335,14.0,42.0,"Tue, Jul 17, 2007","Wed, Jul 11, 2007"
3770,Texarkana Regional-Webb Field,Texarkana,United States,TXK,KTXK,33.453722,-93.991028,390,-6,A,"Texarkana, AR",84,85,93,94,3.8452380952380953,8.34117647058823,10.0,23.0,"Fri, Jul 27, 2007","Thu, Jul  5, 2007"
3848,Tyler Pounds Regional,Tyler,United States,TYR,KTYR,32.354139,-95.402386,544,-6,A,"Tyler, TX",117,117,123,124,4.435897435897438,8.769230769230765,8.0,38.0,"Fri, Jul  6, 2007","Mon, Jul  2, 2007"
3676,McGhee Tyson,Knoxville,United States,TYS,KTYS,35.810972,-83.994028,981,-5,A,"Knoxville, TN",1208,1208,1244,1242,4.8625827814569496,12.776490066225165,45.0,129.0,"Thu, Jul 19, 2007","Wed, Jul 25, 2007"
5776,Valdosta Regional Airport,Valdosta,United States,VLD,KVLD,30.7825,-83.2767,203,-5,A,"Valdosta, GA",82,83,87,87,4.536585365853659,8.927710843373495,15.0,62.0,"Tue, Jul 31, 2007","Sun, Jul 29, 2007"
3873,Eglin AFB,Valparaiso,United States,VPS,KVPS,30.48325,-86.5254,87,-6,A,"Valparaiso, FL",615,614,631,632,8.466666666666656,12.071661237785015,56.0,128.0,"Sun, Jul 29, 2007","Tue, Jul 10, 2007"
5969,Wrangell Airport,Wrangell,United States,WRG,PAWG,56.4843,-132.37,44,-9,A,"Wrangell, AK",59,60,62,62,3.593220338983051,8.366666666666665,7.0,25.0,"Sun, Jul 22, 2007","Tue, Jul 31, 2007"
7072,Yellowstone Airport,West Yellowstone,United States,WYS,KWYS,44.688333,-111.1175,6644,-7,A,"West Yellowstone, MT",71,70,71,71,3.676056338028169,10.342857142857142,7.0,24.0,"Sat, Jul 28, 2007","Fri, Jul  6, 2007"
4356,NW Arkansas Regional,Bentonville,United States,XNA,KXNA,36.2818694,-94.3068111,1287,-6,A,"Fayetteville, AR",1097,1098,1146,1142,4.376481312670918,13.962659380692168,28.0,131.0,"Sun, Jul  1, 2007","Sun, Jul  1, 2007"
6803,Yakutat,Yakutat,United States,YAK,PAYA,59.3012,-139.3937,33,-9,A,"Yakutat, AK",61,61,62,62,3.737704918032787,7.88524590163934,7.0,19.0,"Thu, Jul 26, 2007","Thu, Jul 19, 2007"
5779,Yakima Air Terminal-McAllister Field,Yakima,United States,YKM,KYKM,46.5682,-120.544,1095,-8,A,"Yakima, WA",60,59,60,60,3.983333333333333,9.525423728813559,7.0,17.0,"Sun, Jul  8, 2007","Fri, Jul  6, 2007"
3596,Yuma MCAS Yuma International,Yuma,United States,YUM,KYUM,32.656578,-114.60598,216,-7,N,"Yuma, AZ",276,270,281,281,5.163043478260869,12.24074074074074,18.0,51.0,"Tue, Jul 17, 2007","Wed, Jul 25, 2007"
