airport_id,name,city,country,iata_faa,iaco,latitude,longitude,altitude,zone,dst,city_state,avg_able_landings,avg_able_takeoffs,total_landings,total_takeoffs,avg_taxi_in,avg_taxi_out,longest_taxi_in,longest_taxi_out,lng_tx_in_date,lng_tx_out_date
4355,Lehigh Valley International,Allentown,United States,ABE,KABE,40.652083,-75.440806,393,-5,A,"Allentown/Bethlehem/Easton, PA",436,435,445,444,4.568807339449533,12.79310344827586,13.0,85.0,"Wed, Sep 26, 2007","Fri, Sep 14, 2007"
3718,Abilene Regional,Abilene,United States,ABI,KABI,32.411319,-99.681897,1791,-6,A,"Abilene, TX",225,225,229,229,3.2088888888888887,9.444444444444445,13.0,245.0,"Sun, Sep 30, 2007","Mon, Sep 10, 2007"
4019,Albuquerque International Sunport,Albuquerque,United States,ABQ,KABQ,35.0402222,-106.6091944,5355,-7,A,"Albuquerque, NM",3415,3421,3431,3435,5.723865300146413,10.260742472961116,38.0,167.0,"Sun, Sep 23, 2007","Mon, Sep 10, 2007"
5715,Southwest Georgia Regional Airport,Albany,United States,ABY,KABY,31.5355,-84.1945,197,-5,A,"Albany, GA",103,103,107,107,4.116504854368933,8.7378640776699,9.0,86.0,"Sat, Sep 22, 2007","Fri, Sep 14, 2007"
3517,Nantucket Memorial,Nantucket,United States,ACK,KACK,41.253053,-70.060181,48,-5,A,"Nantucket, MA",31,31,31,32,4.419354838709676,15.193548387096774,13.0,114.0,"Sat, Sep 22, 2007","Tue, Sep  4, 2007"
3700,Waco Regional,Waco,United States,ACT,KACT,31.611289,-97.230519,516,-6,A,"Waco, TX",197,193,201,201,4.883248730964463,9.694300518134712,22.0,24.0,"Thu, Sep 13, 2007","Sun, Sep  9, 2007"
4384,Arcata,Arcata CA,United States,ACV,KACV,40.978111,-124.108611,221,-8,A,"Arcata/Eureka, CA",303,304,309,307,4.726072607260726,10.49342105263158,57.0,63.0,"Tue, Sep 18, 2007","Tue, Sep 18, 2007"
3524,Atlantic City International,Atlantic City,United States,ACY,KACY,39.457583,-74.577167,75,-5,A,"Atlantic City, NJ",43,44,45,46,3.9767441860465116,12.090909090909092,9.0,24.0,"Tue, Sep 11, 2007","Fri, Sep  7, 2007"
5959,Adak Airport,Adak Island,United States,ADK,PADK,51.878,-176.646,18,-10,A,"Adak Island, AK",9,9,9,9,4.0,6.666666666666667,8.0,11.0,"Thu, Sep  6, 2007","Sun, Sep 16, 2007"
3531,Kodiak,Kodiak,United States,ADQ,PADQ,57.749967,-152.493856,78,-9,A,"Kodiak, AK",59,59,60,60,2.5423728813559316,8.796610169491526,5.0,27.0,"Sat, Sep  1, 2007","Sat, Sep  8, 2007"
3852,Alexandria International,Alexandria,United States,AEX,KAEX,31.3274,-92.549833,89,-6,A,"Alexandria, LA",222,221,227,227,3.2252252252252256,10.081447963800903,7.0,61.0,"Mon, Sep  3, 2007","Thu, Sep 27, 2007"
3658,Augusta Regional At Bush Field,Bush Field,United States,AGS,KAGS,33.369944,-81.9645,144,-5,A,"Augusta, GA",170,173,178,181,3.8,9.439306358381508,10.0,45.0,"Fri, Sep 28, 2007","Fri, Sep 14, 2007"
3794,King Salmon,King Salmon,United States,AKN,PAKN,58.676778,-156.649278,68,-9,A,"King Salmon, AK",13,13,14,14,3.3076923076923075,5.615384615384615,6.0,12.0,"Mon, Sep 10, 2007","Sat, Sep  1, 2007"
3864,Albany International,Albany,United States,ALB,KALB,42.748267,-73.801692,285,-5,A,"Albany, NY",1266,1264,1275,1275,3.966034755134284,13.539556962025317,19.0,117.0,"Mon, Sep 24, 2007","Wed, Sep 26, 2007"
5718,Waterloo Regional Airport,Waterloo,United States,ALO,KALO,42.5571,-92.4003,873,-6,A,"Waterloo, IA",22,22,25,25,3.8181818181818183,15.5,5.0,75.0,"Thu, Sep 13, 2007","Thu, Sep 20, 2007"
3840,Rick Husband Amarillo International,Amarillo,United States,AMA,KAMA,35.219369,-101.705931,3607,-6,A,"Amarillo, TX",588,592,596,597,5.039115646258499,8.525337837837835,15.0,93.0,"Tue, Sep 25, 2007","Sun, Sep  9, 2007"
3774,Ted Stevens Anchorage International,Anchorage,United States,ANC,PANC,61.174361,-149.996361,152,-9,A,"Anchorage, AK",1713,1732,1747,1755,4.872737886748395,13.620092378752883,26.0,85.0,"Wed, Sep 12, 2007","Sat, Sep  8, 2007"
4012,Naples Municipal,Naples,United States,APF,KAPF,26.152619,-81.775294,8,-5,A,"Naples, FL",30,30,31,31,4.0,10.2,11.0,20.0,"Mon, Sep 24, 2007","Sun, Sep  2, 2007"
7001,Aspen/Pitkin County-Sardy Field,Aspen,United States,ASE,KASE,39.2232,-106.869,7820,-7,A,"Aspen, CO",350,348,379,380,3.0914285714285703,11.623563218390801,15.0,45.0,"Thu, Sep 20, 2007","Thu, Sep 13, 2007"
3682,Hartsfield Jackson Atlanta International,Atlanta,United States,ATL,KATL,33.636719,-84.428067,1026,-5,A,"Atlanta, GA",33728,33898,34271,34258,11.258064516129037,18.98935040415349,78.0,165.0,"Fri, Sep 14, 2007","Fri, Sep 14, 2007"
4047,Appleton,Appleton,United States,ATW,KATW,44.257526,-88.507576,680,-6,A,"Appleton, WI",520,521,533,533,4.426923076923081,13.023032629558541,31.0,139.0,"Sun, Sep 23, 2007","Wed, Sep 26, 2007"
3673,Austin Bergstrom International,Austin,United States,AUS,KAUS,30.194528,-97.669889,542,-6,A,"Austin, TX",4501,4497,4540,4533,5.517884914463458,12.014454080498107,36.0,227.0,"Sat, Sep 22, 2007","Mon, Sep 10, 2007"
4007,Asheville Regional Airport,Asheville,United States,AVL,KAVL,35.436194,-82.541806,2165,-5,A,"Asheville, NC",319,319,330,333,3.5360501567398117,13.843260188087774,12.0,75.0,"Sun, Sep 30, 2007","Mon, Sep  3, 2007"
4286,Wilkes Barre Scranton International,Scranton,United States,AVP,KAVP,41.338478,-75.723403,962,-5,A,"Scranton/Wilkes-Barre, PA",182,181,186,186,3.895604395604398,12.856353591160222,11.0,86.0,"Thu, Sep 27, 2007","Mon, Sep 17, 2007"
4039,Kalamazoo,Kalamazoo,United States,AZO,KAZO,42.234875,-85.552058,874,-5,A,"Kalamazoo, MI",382,383,392,392,4.3612565445026155,14.22715404699739,17.0,168.0,"Sun, Sep 16, 2007","Tue, Sep 25, 2007"
3825,Bradley International,Windsor Locks,United States,BDL,KBDL,41.938889,-72.683222,173,-5,A,"Hartford, CT",2671,2663,2686,2689,5.523025084238111,14.393916635373634,31.0,154.0,"Mon, Sep  3, 2007","Tue, Sep 25, 2007"
3599,Bethel,Bethel,United States,BET,PABE,60.779778,-161.838,121,-9,A,"Bethel, AK",84,84,85,85,3.2261904761904763,6.178571428571429,6.0,20.0,"Tue, Sep 18, 2007","Wed, Sep 19, 2007"
3558,Meadows Field,Bakersfield,United States,BFL,KBFL,35.433598,-119.05677,507,-8,A,"Bakersfield, CA",397,396,399,398,4.722921914357676,11.96464646464646,21.0,55.0,"Wed, Sep 19, 2007","Sat, Sep 29, 2007"
4129,Greater Binghamton-Edwin A. Link Field,Binghamton,United States,BGM,KBGM,42.208689,-75.979839,1636,-5,A,"Binghamton, NY",60,60,60,60,5.316666666666666,11.183333333333334,9.0,21.0,"Thu, Sep  6, 2007","Sun, Sep 16, 2007"
3463,Bangor International,Bangor,United States,BGR,KBGR,44.807444,-68.828139,192,-5,A,"Bangor, ME",337,334,339,339,4.712166172106825,13.757485029940113,15.0,131.0,"Fri, Sep 14, 2007","Fri, Sep  7, 2007"
3811,Birmingham International,Birmingham,United States,BHM,KBHM,33.562942,-86.75355,644,-6,A,"Birmingham, AL",1938,1934,1956,1954,3.83952528379773,11.963805584281285,78.0,141.0,"Thu, Sep 13, 2007","Mon, Sep  3, 2007"
4021,Billings Logan International Airport,Billings,United States,BIL,KBIL,45.80921,-108.537654,3652,-7,A,"Billings, MT",374,374,374,374,3.943850267379678,11.780748663101614,10.0,97.0,"Sat, Sep  8, 2007","Sun, Sep 30, 2007"
4083,Bismarck Municipal Airport,Bismarck,United States,BIS,KBIS,46.775842,-100.757931,1661,-6,A,"Bismarck/Mandan, ND",249,247,254,254,4.180722891566267,12.603238866396762,12.0,90.0,"Mon, Sep  3, 2007","Mon, Sep 24, 2007"
4287,Bemidji Regional Airport,Bemidji,United States,BJI,KBJI,47.510722,-94.934722,1391,-6,A,"Bemidji, MN",13,13,17,17,5.0,16.846153846153847,8.0,29.0,"Tue, Sep  4, 2007","Sun, Sep 16, 2007"
3777,Bellingham International,Bellingham,United States,BLI,KBLI,48.792694,-122.537528,170,-8,A,"Bellingham, WA",33,33,33,33,4.363636363636363,10.000000000000002,7.0,20.0,"Sun, Sep  2, 2007","Sun, Sep 16, 2007"
4037,Central Illinois Regional,Bloomington,United States,BMI,KBMI,40.477111,-88.915917,871,-6,A,"Bloomington/Normal, IL",425,424,430,429,4.272941176470584,13.632075471698117,23.0,130.0,"Sun, Sep 30, 2007","Thu, Sep  6, 2007"
3690,Nashville International,Nashville,United States,BNA,KBNA,36.124472,-86.678194,599,-6,A,"Nashville, TN",4831,4834,4876,4876,6.106810184226864,11.44187008688458,27.0,159.0,"Thu, Sep 20, 2007","Mon, Sep 10, 2007"
3495,Boise Air Terminal,Boise,United States,BOI,KBOI,43.564361,-116.222861,2871,-7,A,"Boise, ID",1530,1528,1534,1532,5.011111111111107,11.386125654450261,32.0,120.0,"Thu, Sep 27, 2007","Fri, Sep 14, 2007"
3448,General Edward Lawrence Logan International,Boston,United States,BOS,KBOS,42.364347,-71.005181,19,-5,A,"Boston, MA",9783,9781,9897,9901,7.371051824593683,19.583375932931226,44.0,157.0,"Sat, Sep  1, 2007","Tue, Sep 11, 2007"
3612,Southeast Texas Regional,Beaumont,United States,BPT,KBPT,29.950833,-94.020694,15,-6,A,"Beaumont/Port Arthur, TX",29,29,30,30,5.482758620689655,11.137931034482758,9.0,24.0,"Sat, Sep  1, 2007","Fri, Sep 14, 2007"
5725,Brunswick Golden Isles Airport,Brunswick,United States,BQK,KBQK,31.2588,-81.4665,26,-5,A,"Brunswick, GA",80,80,82,82,4.0875,8.3875,8.0,64.0,"Fri, Sep  7, 2007","Fri, Sep 14, 2007"
3738,Brownsville South Padre Island International,Brownsville,United States,BRO,KBRO,25.906833,-97.425861,22,-6,A,"Brownsville, TX",127,125,127,125,5.480314960629921,13.112,10.0,198.0,"Wed, Sep  5, 2007","Mon, Sep  3, 2007"
3571,Wiley Post Will Rogers Memorial,Barrow,United States,BRW,PABR,71.285446,-156.766003,44,-9,A,"Barrow, AK",56,56,60,60,3.767857142857143,5.625,7.0,15.0,"Mon, Sep 17, 2007","Tue, Sep  4, 2007"
4022,Bert Mooney Airport,Butte,United States,BTM,KBTM,45.954806,-112.497472,5550,-7,A,"Butte, MT",60,59,60,60,4.116666666666665,10.813559322033896,6.0,29.0,"Wed, Sep 12, 2007","Sun, Sep  9, 2007"
3846,Baton Rouge Metro-Ryan Field,Baton Rouge,United States,BTR,KBTR,30.533167,-91.149639,70,-6,A,"Baton Rouge, LA",774,776,783,787,4.656330749354006,10.304123711340202,39.0,84.0,"Tue, Sep  4, 2007","Sun, Sep 23, 2007"
3711,Burlington International,Burlington,United States,BTV,KBTV,44.471861,-73.153278,335,-5,A,"Burlington, VT",582,575,586,585,4.3470790378006905,17.398260869565227,17.0,139.0,"Tue, Sep 11, 2007","Fri, Sep 21, 2007"
3820,Buffalo Niagara International,Buffalo,United States,BUF,KBUF,42.940525,-78.732167,724,-5,A,"Buffalo, NY",1986,1985,1997,1999,4.191842900302117,12.031234256926949,41.0,108.0,"Fri, Sep 21, 2007","Mon, Sep 10, 2007"
3644,Bob Hope,Burbank,United States,BUR,KBUR,34.200667,-118.358667,778,-8,A,"Burbank, CA",2702,2699,2729,2728,2.7416728349370825,12.138569840681718,46.0,72.0,"Sat, Sep  1, 2007","Tue, Sep 11, 2007"
3849,Baltimore Washington International,Baltimore,United States,BWI,KBWI,39.175361,-76.668333,146,-5,A,"Baltimore, MD",9035,9043,9087,9089,5.016823464305474,12.096649342032528,71.0,144.0,"Mon, Sep 17, 2007","Sat, Sep 22, 2007"
4020,Gallatin Field,Bozeman,United States,BZN,KBZN,45.777643,-111.160151,4500,-7,A,"Bozeman, MT",437,436,439,439,4.636155606407321,14.474770642201834,14.0,105.0,"Mon, Sep 10, 2007","Fri, Sep  7, 2007"
3561,Columbia Metropolitan,Colombia,United States,CAE,KCAE,33.938833,-81.119528,236,-5,A,"Columbia, SC",840,835,856,856,4.664285714285716,13.040718562874256,29.0,89.0,"Wed, Sep 12, 2007","Fri, Sep 21, 2007"
4112,Akron Canton Regional Airport,Akron,United States,CAK,KCAK,40.9160833,-81.4421944,1228,-5,A,"Akron, OH",853,851,859,859,4.568581477139502,11.341950646298468,19.0,62.0,"Tue, Sep  4, 2007","Fri, Sep 14, 2007"
3610,Merle K. Mudhole Smith,Cordova,United States,CDV,PACV,60.491778,-145.477556,48,-9,A,"Cordova, AK",60,60,60,60,3.25,8.066666666666665,5.0,29.0,"Sun, Sep  2, 2007","Wed, Sep  5, 2007"
5727,Del Norte County Airport,Crescent City,United States,CEC,KCEC,41.7802,-124.237,57,-8,A,"Crescent City, CA",85,85,87,89,4.376470588235294,12.141176470588235,65.0,43.0,"Tue, Sep 25, 2007","Sun, Sep  9, 2007"
3578,Lovell Field,Chattanooga,United States,CHA,KCHA,35.035278,-85.203808,683,-5,A,"Chattanooga, TN",320,318,326,326,4.50625,10.893081761006295,41.0,75.0,"Thu, Sep 13, 2007","Thu, Sep  6, 2007"
4015,Charlottesville-Albemarle,Charlottesville VA,United States,CHO,KCHO,38.138639,-78.452861,639,-5,A,"Charlottesville, VA",109,109,110,110,3.9082568807339446,10.605504587155963,11.0,36.0,"Tue, Sep  4, 2007","Mon, Sep 17, 2007"
3806,Charleston AFB International,Charleston,United States,CHS,KCHS,32.898647,-80.040528,45,-5,A,"Charleston, SC",1332,1325,1347,1347,6.592342342342337,13.280000000000012,27.0,111.0,"Sat, Sep 29, 2007","Sat, Sep 22, 2007"
3710,Chico Municipal,Chico,United States,CIC,KCIC,39.795383,-121.858422,238,-8,A,"Chico, CA",110,110,112,112,3.672727272727273,11.536363636363637,7.0,49.0,"Sun, Sep 16, 2007","Tue, Sep 18, 2007"
4043,Cedar Rapids,Cedar Rapids,United States,CID,KCID,41.884694,-91.710806,869,-6,A,"Cedar Rapids/Iowa City, IA",928,930,947,949,5.648706896551724,11.932258064516137,75.0,162.0,"Mon, Sep 10, 2007","Sun, Sep  9, 2007"
4088,McClellan-Palomar Airport,Carlsbad,United States,CLD,KCRQ,33.0742,-117.1648,328,-8,A,"Carlsbad, CA",205,206,207,207,3.9658536585365867,9.349514563106794,10.0,36.0,"Sun, Sep  9, 2007","Mon, Sep 17, 2007"
3486,Cleveland Hopkins International,Cleveland,United States,CLE,KCLE,41.411689,-81.849794,791,-5,A,"Cleveland, OH",5622,5630,5660,5659,6.172002845962281,15.490230905861472,65.0,200.0,"Sat, Sep 22, 2007","Tue, Sep 11, 2007"
3715,Easterwood Field,College Station,United States,CLL,KCLL,30.588583,-96.363833,321,-6,A,"College Station/Bryan, TX",147,146,150,149,5.034013605442176,9.431506849315069,12.0,25.0,"Mon, Sep 17, 2007","Thu, Sep 27, 2007"
3876,Charlotte Douglas International,Charlotte,United States,CLT,KCLT,35.214,-80.943139,748,-5,A,"Charlotte, NC",10170,10196,10248,10250,6.224385447394306,19.22087092977637,56.0,193.0,"Fri, Sep 14, 2007","Tue, Sep 11, 2007"
3759,Port Columbus International,Columbus,United States,CMH,KCMH,39.997972,-82.891889,815,-5,A,"Columbus, OH",2997,2990,3021,3019,4.579245912579243,12.65886287625419,81.0,107.0,"Sat, Sep  8, 2007","Thu, Sep 27, 2007"
4049,Champaign,Champaign,United States,CMI,KCMI,40.03925,-88.278056,754,-6,A,"Champaign/Urbana, IL",229,229,234,234,3.497816593886463,11.606986899563317,10.0,100.0,"Thu, Sep  6, 2007","Tue, Sep 11, 2007"
5732,Houghton County Memorial Airport,Hancock,United States,CMX,KCMX,47.1684,-88.4891,1095,-5,A,"Hancock/Houghton, MI",29,29,30,30,6.896551724137931,13.137931034482758,10.0,22.0,"Mon, Sep 10, 2007","Fri, Sep 14, 2007"
4344,Yellowstone Regional,Cody,United States,COD,KCOD,44.520194,-109.023806,5102,-7,A,"Cody, WY",147,147,149,150,3.80952380952381,10.891156462585034,9.0,31.0,"Mon, Sep 24, 2007","Wed, Sep  5, 2007"
3819,City Of Colorado Springs Municipal,Colorado Springs,United States,COS,KCOS,38.805805,-104.700778,6187,-7,A,"Colorado Springs, CO",1504,1503,1517,1517,6.414228723404262,15.421157684630753,40.0,142.0,"Sun, Sep  2, 2007","Mon, Sep 10, 2007"
3872,Natrona County International,Casper,United States,CPR,KCPR,42.908,-106.464417,5347,-7,A,"Casper, WY",313,312,316,315,3.9520766773162954,11.705128205128203,19.0,67.0,"Fri, Sep 28, 2007","Wed, Sep 19, 2007"
3744,Corpus Christi International,Corpus Christi,United States,CRP,KCRP,27.770361,-97.501222,44,-6,A,"Corpus Christi, TX",465,467,470,470,4.070967741935483,9.503211991434691,12.0,29.0,"Wed, Sep 26, 2007","Wed, Sep  5, 2007"
4285,Yeager,Charleston,United States,CRW,KCRW,38.373147,-81.593189,981,-5,A,"Charleston/Dunbar, WV",262,262,274,274,4.061068702290076,11.095419847328245,20.0,57.0,"Mon, Sep 24, 2007","Thu, Sep  6, 2007"
4255,Columbus Metropolitan Airport,Columbus,United States,CSG,KCSG,32.5163333,-84.9388611,397,-5,A,"Columbus, GA",106,106,108,108,3.80188679245283,9.632075471698109,8.0,27.0,"Tue, Sep 25, 2007","Tue, Sep  4, 2007"
3488,Cincinnati Northern Kentucky International,Cincinnati,United States,CVG,KCVG,39.048836,-84.667822,896,-5,A,"Cincinnati, OH",8661,8705,8766,8762,4.519108647962118,16.303618609994096,37.0,175.0,"Fri, Sep 21, 2007","Fri, Sep 21, 2007"
4045,Central Wisconsin,Wassau,United States,CWA,KCWA,44.772726,-89.646635,840,-6,A,"Mosinee, WI",143,143,144,144,3.9720279720279743,12.405594405594407,25.0,66.0,"Wed, Sep 19, 2007","Fri, Sep 14, 2007"
3950,Daytona Beach International,Daytona Beach,United States,DAB,KDAB,29.179917,-81.058056,34,-5,A,"Daytona Beach, FL",228,226,230,228,3.3464912280701746,13.84955752212389,11.0,179.0,"Fri, Sep  7, 2007","Tue, Sep 11, 2007"
3502,Dallas Love Field,Dallas,United States,DAL,KDAL,32.847111,-96.851778,487,-6,A,"Dallas, TX",4310,4326,4388,4388,3.5220417633410683,9.770688858067503,30.0,80.0,"Mon, Sep 10, 2007","Mon, Sep 10, 2007"
3627,James M. Cox Dayton International,Dayton,United States,DAY,KDAY,39.902375,-84.219375,1009,-5,A,"Dayton, OH",1291,1295,1303,1307,5.670797831138651,12.118918918918924,38.0,117.0,"Sun, Sep  9, 2007","Tue, Sep 25, 2007"
4388,Dubuque Regional,Dubuque IA,United States,DBQ,KDBQ,42.402,-90.709472,1076,-6,A,"Dubuque, IA",114,113,115,115,3.745614035087719,11.336283185840712,7.0,116.0,"Tue, Sep  4, 2007","Fri, Sep 14, 2007"
3520,Ronald Reagan Washington National,Washington,United States,DCA,KDCA,38.852083,-77.037722,15,-5,A,"Washington, DC",6940,6942,7050,7052,5.225792507204611,16.77167963123012,80.0,184.0,"Mon, Sep 10, 2007","Tue, Sep 25, 2007"
3751,Denver International,Denver,United States,DEN,KDEN,39.861656,-104.673178,5431,-7,A,"Denver, CO",19071,19119,19261,19277,8.052016150175797,15.176107537005073,62.0,111.0,"Wed, Sep  5, 2007","Thu, Sep 20, 2007"
3670,Dallas Fort Worth International,Dallas-fort Worth,United States,DFW,KDFW,32.896828,-97.037997,607,-6,A,"Dallas/Fort Worth, TX",23653,23790,24317,24301,10.382615313068156,16.27906683480469,175.0,211.0,"Mon, Sep 10, 2007","Tue, Sep 25, 2007"
3739,Dothan Regional,Dothan,United States,DHN,KDHN,31.321339,-85.449628,401,-6,A,"Dothan, AL",137,136,139,138,3.5547445255474455,8.338235294117649,15.0,38.0,"Fri, Sep  7, 2007","Fri, Sep 14, 2007"
3460,Dillingham,Dillingham,United States,DLG,PADL,59.044667,-158.5055,74,-9,A,"Dillingham, AK",14,14,14,14,3.0,5.214285714285714,6.0,8.0,"Mon, Sep 17, 2007","Mon, Sep 24, 2007"
3598,Duluth International,Duluth,United States,DLH,KDLH,46.842091,-92.193649,1428,-6,A,"Duluth, MN",197,198,200,200,6.340101522842639,14.681818181818182,18.0,76.0,"Tue, Sep 25, 2007","Thu, Sep 20, 2007"
3713,Durango La Plata County,Durango,United States,DRO,KDRO,37.151516,-107.75377,6685,-7,A,"Durango, CO",292,292,296,295,4.479452054794525,10.96232876712329,10.0,41.0,"Wed, Sep  5, 2007","Sat, Sep 29, 2007"
3729,Des Moines International,Des Moines,United States,DSM,KDSM,41.533972,-93.663083,958,-6,A,"Des Moines, IA",1396,1394,1418,1420,4.2234957020057395,11.56886657101866,30.0,115.0,"Fri, Sep 21, 2007","Tue, Sep 25, 2007"
3645,Detroit Metro Wayne County,Detroit,United States,DTW,KDTW,42.212444,-83.353389,645,-5,A,"Detroit, MI",14060,14090,14175,14160,10.25832147937413,19.062029808374792,61.0,171.0,"Fri, Sep  7, 2007","Wed, Sep 12, 2007"
4250,Eagle County Regional,Vail,United States,EGE,KEGE,39.642556,-106.917694,6540,-7,A,"Eagle, CO",145,146,147,149,3.6482758620689655,12.938356164383567,13.0,41.0,"Sat, Sep 15, 2007","Mon, Sep 10, 2007"
5736,Elko Regional Airport,Elko,United States,EKO,KEKO,40.8249,-115.792,5140,-8,A,"Elko, NV",156,156,157,158,4.814102564102559,9.378205128205126,10.0,30.0,"Fri, Sep 28, 2007","Sun, Sep 30, 2007"
3946,Elmira Corning Regional,Elmira,United States,ELM,KELM,42.159889,-76.891611,954,-5,A,"Elmira/Corning, NY",76,79,80,81,4.4868421052631575,13.063291139240507,12.0,52.0,"Sat, Sep 15, 2007","Fri, Sep  7, 2007"
3559,El Paso International,El Paso,United States,ELP,KELP,31.80725,-106.377583,3958,-7,A,"El Paso, TX",1718,1723,1730,1730,3.7805587892898687,9.960533952408598,33.0,70.0,"Fri, Sep 28, 2007","Mon, Sep 10, 2007"
4276,Erie International-Tom Ridge Field,Erie,United States,ERI,KERI,42.082022,-80.176217,733,-5,A,"Erie, PA",120,121,120,121,4.408333333333332,10.636363636363637,8.0,33.0,"Sun, Sep  2, 2007","Sat, Sep 22, 2007"
4099,Mahlon Sweet Field,Eugene,United States,EUG,KEUG,44.124583,-123.211972,374,-8,A,"Eugene, OR",533,533,536,536,4.26078799249531,11.538461538461538,32.0,38.0,"Fri, Sep 14, 2007","Mon, Sep  3, 2007"
4018,Evansville Regional,Evansville,United States,EVV,KEVV,38.036997,-87.532364,418,-6,A,"Evansville, IN",469,468,482,482,4.995735607675906,10.147435897435908,21.0,90.0,"Fri, Sep 14, 2007","Fri, Sep  7, 2007"
3730,Craven County Regional,New Bern,United States,EWN,KEWN,35.072972,-77.042944,18,-5,A,"New Bern/Morehead/Beaufort, NC",78,76,79,79,3.1923076923076925,7.973684210526322,19.0,34.0,"Fri, Sep 14, 2007","Fri, Sep 14, 2007"
3494,Newark Liberty International,Newark,United States,EWR,KEWR,40.6925,-74.168667,18,-5,A,"Newark, NJ",11832,11859,11981,11983,9.088235294117624,28.272957247660006,58.0,257.0,"Sat, Sep  8, 2007","Thu, Sep 27, 2007"
3875,Key West International,Key West,United States,EYW,KEYW,24.556111,-81.759556,3,-5,A,"Key West, FL",54,55,54,55,3.2777777777777777,8.109090909090908,11.0,48.0,"Wed, Sep  5, 2007","Mon, Sep 24, 2007"
3832,Fairbanks International,Fairbanks,United States,FAI,PAFA,64.815114,-147.856267,434,-9,A,"Fairbanks, AK",409,411,416,418,2.889975550122248,10.411192214111926,24.0,38.0,"Sun, Sep  2, 2007","Tue, Sep  4, 2007"
4292,Hector International Airport,Fargo,United States,FAR,KFAR,46.92065,-96.8157639,902,-6,A,"Fargo, ND",410,410,417,417,4.987804878048779,15.229268292682924,19.0,159.0,"Fri, Sep 21, 2007","Sat, Sep 29, 2007"
3687,Fresno Yosemite International,Fresno,United States,FAT,KFAT,36.776194,-119.71814,336,-8,A,"Fresno, CA",1241,1261,1247,1271,4.688154713940371,10.735923869944477,16.0,49.0,"Fri, Sep 21, 2007","Fri, Sep 14, 2007"
5738,Fayetteville Regional-Grannis Field,Fayetteville,United States,FAY,KFAY,34.9912,-78.8803,189,-5,A,"Fayetteville, NC",168,167,171,171,5.238095238095239,10.167664670658679,13.0,90.0,"Sat, Sep  8, 2007","Wed, Sep 26, 2007"
4127,Glacier Park International,Kalispell,United States,FCA,KFCA,48.310472,-114.256,2977,-7,A,"Kalispell, MT",322,322,326,326,4.220496894409937,15.093167701863354,9.0,45.0,"Tue, Sep  4, 2007","Fri, Sep  7, 2007"
4261,Flagstaff Pulliam Airport,Flagstaff,United States,FLG,KFLG,35.140318,-111.6692392,7015,-7,N,"Flagstaff, AZ",170,168,173,173,5.452941176470589,12.434523809523807,17.0,37.0,"Fri, Sep 21, 2007","Fri, Sep 28, 2007"
3533,Fort Lauderdale Hollywood International,Fort Lauderdale,United States,FLL,KFLL,26.072583,-80.15275,9,-5,A,"Fort Lauderdale, FL",4850,4837,4889,4872,4.207628865979393,14.986561918544549,43.0,111.0,"Fri, Sep 21, 2007","Tue, Sep 18, 2007"
3879,Florence Regional,Florence,United States,FLO,KFLO,34.185361,-79.723889,146,-5,A,"Florence, SC",55,54,56,56,5.945454545454545,9.574074074074073,18.0,19.0,"Tue, Sep 25, 2007","Mon, Sep 17, 2007"
4089,Bishop International,Flint,United States,FNT,KFNT,42.965424,-83.743629,782,-5,A,"Flint, MI",612,609,622,621,4.468954248366011,11.075533661740565,16.0,165.0,"Thu, Sep  6, 2007","Fri, Sep 14, 2007"
4009,Sioux Falls,Sioux Falls,United States,FSD,KFSD,43.582014,-96.741914,1429,-6,A,"Sioux Falls, SD",489,491,494,495,5.07566462167689,12.985743380855396,41.0,133.0,"Mon, Sep  3, 2007","Tue, Sep 25, 2007"
3437,Fort Smith Regional,Fort Smith,United States,FSM,KFSM,35.336583,-94.367444,469,-6,A,"Fort Smith, AR",247,244,258,258,3.9757085020242924,9.500000000000004,15.0,76.0,"Sat, Sep  8, 2007","Fri, Sep 14, 2007"
4041,Fort Wayne,Fort Wayne,United States,FWA,KFWA,40.978472,-85.195139,815,-5,A,"Fort Wayne, IN",535,529,542,542,4.20373831775701,12.37618147448015,22.0,116.0,"Thu, Sep 13, 2007","Tue, Sep 11, 2007"
3467,Spokane International,Spokane,United States,GEG,KGEG,47.619861,-117.533833,2376,-8,A,"Spokane, WA",1350,1350,1353,1353,4.335555555555562,10.447407407407416,30.0,51.0,"Wed, Sep 26, 2007","Tue, Sep 18, 2007"
3442,Grand Forks International,Grand Forks,United States,GFK,KGFK,47.949256,-97.176111,845,-6,A,"Grand Forks, ND",86,86,86,87,4.209302325581396,9.755813953488369,11.0,44.0,"Sun, Sep  2, 2007","Tue, Sep 18, 2007"
3465,East Texas Regional,Longview,United States,GGG,KGGG,32.384014,-94.711486,365,-6,A,"Longview, TX",86,86,90,90,5.162790697674419,9.593023255813959,9.0,27.0,"Thu, Sep  6, 2007","Sun, Sep 30, 2007"
4063,Grand Junction Regional,Grand Junction,United States,GJT,KGJT,39.122413,-108.526735,4858,-7,A,"Grand Junction, CO",340,316,353,318,3.9352941176470595,11.65822784810126,22.0,131.0,"Mon, Sep 24, 2007","Sun, Sep 16, 2007"
3472,Gainesville Regional,Gainesville,United States,GNV,KGNV,29.690056,-82.271778,152,-5,A,"Gainesville, FL",120,117,131,131,3.525,8.982905982905983,10.0,23.0,"Wed, Sep 12, 2007","Fri, Sep 14, 2007"
4038,Gulfport-Biloxi,Gulfport,United States,GPT,KGPT,30.407278,-89.070111,28,-6,A,"Gulfport/Biloxi, MS",647,645,657,657,4.80216383307573,10.646511627906985,14.0,108.0,"Wed, Sep  5, 2007","Tue, Sep  4, 2007"
3653,Austin Straubel International,Green Bay,United States,GRB,KGRB,44.485072,-88.129589,695,-6,A,"Green Bay, WI",647,645,661,659,3.990726429675424,11.334883720930229,20.0,70.0,"Tue, Sep 11, 2007","Fri, Sep  7, 2007"
3775,Robert Gray AAF,Killeen,United States,GRK,KGRK,31.06725,-97.828917,1015,-6,A,"Killeen, TX",391,391,400,400,3.6675191815856776,9.271099744245518,23.0,75.0,"Fri, Sep 21, 2007","Thu, Sep 13, 2007"
3685,Gerald R. Ford International,Grand Rapids,United States,GRR,KGRR,42.880833,-85.522806,794,-5,A,"Grand Rapids, MI",1291,1290,1305,1304,4.285050348567001,13.536434108527118,23.0,162.0,"Sun, Sep 16, 2007","Thu, Sep 27, 2007"
4008,Piedmont Triad,Greensboro,United States,GSO,KGSO,36.09775,-79.937306,925,-5,A,"Greensboro/High Point, NC",1113,1114,1131,1131,4.498652291105119,14.677737881508074,31.0,202.0,"Sat, Sep 29, 2007","Tue, Sep 11, 2007"
4034,Greenville-Spartanburg International,Greenville,United States,GSP,KGSP,34.895556,-82.218889,964,-5,A,"Greer, SC",1090,1087,1109,1107,4.369724770642205,12.954001839926404,23.0,87.0,"Sun, Sep 30, 2007","Mon, Sep 10, 2007"
3880,Great Falls International,Great Falls,United States,GTF,KGTF,47.482,-111.370689,3677,-7,A,"Great Falls, MT",204,204,205,205,4.303921568627448,12.09803921568628,12.0,85.0,"Mon, Sep 17, 2007","Mon, Sep 17, 2007"
4273,Golden Triangle Regional Airport,Columbus Mississippi,United States,GTR,KGTR,33.450333,-88.591361,264,-6,A,"Columbus, MS",85,84,87,87,4.035294117647059,8.357142857142854,9.0,28.0,"Wed, Sep 26, 2007","Tue, Sep 11, 2007"
7051,Gunnison - Crested Butte,Gunnison,United States,GUC,KGUC,38.533889,-106.933056,7678,-7,A,"Gunnison, CO",74,74,75,75,3.081081081081081,11.337837837837839,12.0,82.0,"Tue, Sep  4, 2007","Wed, Sep  5, 2007"
4339,Yampa Valley,Hayden,United States,HDN,KHDN,40.481181,-107.21766,6602,-7,A,"Hayden, CO",147,146,148,149,3.074829931972789,11.267123287671232,14.0,25.0,"Sat, Sep 15, 2007","Mon, Sep 24, 2007"
7002,Hilton Head,Hilton Head,United States,HHH,KHHH,32.216,-80.752,10,-5,U,"Hilton Head, SC",97,98,108,109,3.0,11.755102040816324,10.0,33.0,"Sun, Sep  2, 2007","Mon, Sep 17, 2007"
3504,Helena Regional,Helena,United States,HLN,KHLN,46.606806,-111.98275,3877,-7,A,"Helena, MT",135,135,136,136,3.4074074074074074,12.40740740740741,8.0,61.0,"Mon, Sep 24, 2007","Fri, Sep 21, 2007"
3728,Honolulu International,Honolulu,United States,HNL,PHNL,21.318681,-157.922428,13,-10,N,"Honolulu, HI",5294,5300,5334,5334,4.732527389497548,11.7735849056604,54.0,53.0,"Fri, Sep  7, 2007","Tue, Sep  4, 2007"
3566,William P. Hobby,Houston,United States,HOU,KHOU,29.645419,-95.278889,46,-6,A,"Houston, TX",4578,4598,4673,4674,4.491699432066403,9.427359721618144,36.0,93.0,"Tue, Sep 11, 2007","Sun, Sep  9, 2007"
3589,Westchester County,White Plains,United States,HPN,KHPN,41.066959,-73.707575,439,-5,A,"White Plains, NY",1096,1102,1117,1118,7.45529197080292,18.43738656987293,42.0,170.0,"Thu, Sep 27, 2007","Fri, Sep 14, 2007"
3560,Valley International,Harlingen,United States,HRL,KHRL,26.2285,-97.654389,36,-6,A,"Harlingen/San Benito, TX",354,356,363,364,2.381355932203389,7.424157303370786,14.0,33.0,"Thu, Sep 27, 2007","Wed, Sep 12, 2007"
4113,Huntsville International Airport-Carl T. Jones Field,Huntsville,United States,HSV,KHSV,34.6371944,-86.7750556,629,-6,A,"Huntsville, AL",897,895,911,911,5.278706800445939,12.531843575418996,18.0,75.0,"Thu, Sep 27, 2007","Tue, Sep 11, 2007"
3714,Washington Dulles International,Washington,United States,IAD,KIAD,38.944533,-77.455811,313,-5,A,"Washington, DC",6584,6592,6679,6684,6.976306196840831,18.69554004854369,63.0,257.0,"Sun, Sep 30, 2007","Thu, Sep 27, 2007"
3550,George Bush Intercontinental Houston,Houston,United States,IAH,KIAH,29.984433,-95.341442,97,-6,A,"Houston, TX",14775,14821,14867,14870,8.455769881556625,19.122124013224447,60.0,161.0,"Mon, Sep  3, 2007","Tue, Sep 25, 2007"
3457,Wichita Mid Continent,Wichita,United States,ICT,KICT,37.649944,-97.433056,1333,-6,A,"Wichita, KS",1174,1174,1197,1197,4.413117546848375,12.016183986371384,38.0,62.0,"Tue, Sep 18, 2007","Mon, Sep 10, 2007"
4100,Idaho Falls Regional,Idaho Falls,United States,IDA,KIDA,43.514556,-112.07075,4744,-7,A,"Idaho Falls, ID",285,283,289,287,4.238596491228069,11.63250883392226,8.0,79.0,"Sat, Sep  1, 2007","Sun, Sep 23, 2007"
3859,New Castle,Wilmington,United States,ILG,KILG,39.678722,-75.606528,79,-5,A,"Wilmington, DE",5,5,6,7,2.8,7.8,4.0,11.0,"Mon, Sep  3, 2007","Thu, Sep  6, 2007"
3845,Wilmington International,Wilmington,United States,ILM,KILM,34.270615,-77.902569,32,-5,A,"Wilmington, NC",318,316,321,320,5.044025157232702,9.936708860759483,19.0,41.0,"Thu, Sep  6, 2007","Thu, Sep 27, 2007"
3585,Indianapolis International,Indianapolis,United States,IND,KIND,39.717331,-86.294383,797,-5,A,"Indianapolis, IN",3409,3411,3437,3438,9.386330302141408,14.155965992377606,75.0,161.0,"Fri, Sep 28, 2007","Tue, Sep 25, 2007"
3535,Falls International,International Falls,United States,INL,KINL,48.566186,-93.403067,1185,-6,A,"International Falls, MN",25,25,30,30,5.6,10.52,10.0,46.0,"Tue, Sep 18, 2007","Tue, Sep 18, 2007"
3689,Imperial County,Imperial,United States,IPL,KIPL,32.834219,-115.578744,-54,-8,A,"El Centro, CA",105,105,107,108,3.9619047619047634,9.447619047619048,9.0,25.0,"Tue, Sep 11, 2007","Tue, Sep 11, 2007"
3857,Long Island MacArthur,Islip,United States,ISP,KISP,40.79525,-73.100222,99,-5,A,"Islip, NY",1002,1001,1004,1004,4.097804391217565,9.074925074925071,25.0,73.0,"Tue, Sep  4, 2007","Thu, Sep 27, 2007"
3415,Hilo International,Hilo,United States,ITO,PHTO,19.721375,-155.048469,38,-10,N,"Hilo, HI",792,792,797,797,4.068181818181818,7.1515151515151505,36.0,17.0,"Sun, Sep  9, 2007","Thu, Sep 13, 2007"
7120,Inyokern Airport,Inyokern,United States,IYK,KIYK,35.658889,-117.829444,2455,-8,A,"Inyokern, CA",76,76,77,78,3.6842105263157894,11.263157894736842,7.0,23.0,"Fri, Sep  7, 2007","Tue, Sep 18, 2007"
4027,Jackson Hole Airport,Jacksn Hole,United States,JAC,KJAC,43.60733333,-110.73775,6451,-7,A,"Jackson, WY",346,350,351,354,3.586705202312138,14.457142857142857,10.0,91.0,"Tue, Sep 11, 2007","Fri, Sep 28, 2007"
3580,Jackson Evers International,Jackson,United States,JAN,KJAN,32.311167,-90.075889,346,-6,A,"Jackson/Vicksburg, MS",1090,1090,1111,1111,4.755963302752292,10.754128440366992,39.0,113.0,"Wed, Sep 12, 2007","Tue, Sep 25, 2007"
3712,Jacksonville International,Jacksonville,United States,JAX,KJAX,30.494056,-81.687861,30,-5,A,"Jacksonville, FL",2800,2804,2812,2813,5.797142857142867,12.41155492154065,61.0,140.0,"Sat, Sep 29, 2007","Mon, Sep 10, 2007"
3797,John F. Kennedy International,New York,United States,JFK,KJFK,40.639751,-73.778925,13,-5,A,"New York, NY",10118,10113,10243,10212,10.1121763194307,35.61682982299995,133.0,209.0,"Sun, Sep 23, 2007","Thu, Sep 27, 2007"
3492,Juneau International,Juneau,United States,JNU,PAJN,58.354972,-134.576278,21,-9,A,"Juneau, AK",365,371,377,379,3.9397260273972603,12.566037735849056,19.0,40.0,"Fri, Sep  7, 2007","Tue, Sep 11, 2007"
3514,Kona International At Keahole,Kona,United States,KOA,PHKO,19.738767,-156.045631,47,-10,N,"Kona, HI",1216,1211,1218,1217,3.692434210526313,7.947976878612723,13.0,33.0,"Thu, Sep 13, 2007","Sun, Sep 23, 2007"
3808,Ketchikan International,Ketchikan,United States,KTN,PAKT,55.355556,-131.71375,88,-9,A,"Ketchikan, AK",191,191,196,196,4.785340314136125,11.335078534031414,32.0,33.0,"Sat, Sep 15, 2007","Mon, Sep  3, 2007"
3544,Capital City,Lansing,United States,LAN,KLAN,42.7787,-84.587357,861,-5,A,"Lansing, MI",340,337,347,347,4.270588235294119,11.916913946587535,21.0,41.0,"Thu, Sep  6, 2007","Mon, Sep  3, 2007"
3877,McCarran International,Las Vegas,United States,LAS,KLAS,36.080056,-115.15225,2141,-8,A,"Las Vegas, NV",15054,15054,15150,15147,6.845821708516007,18.260595190646942,67.0,128.0,"Tue, Sep 18, 2007","Sun, Sep  9, 2007"
4256,Lawton-Fort Sill Regional Airport,Lawton,United States,LAW,KLAW,34.5677144,-98.4166367,1110,-6,A,"Lawton/Fort Sill, OK",192,192,198,198,3.9687500000000004,8.020833333333334,9.0,35.0,"Sun, Sep 30, 2007","Mon, Sep 24, 2007"
3484,Los Angeles International,Los Angeles,United States,LAX,KLAX,33.942536,-118.408075,126,-8,A,"Los Angeles, CA",19417,19433,19658,19653,9.084719575629643,16.08948695517926,97.0,137.0,"Sun, Sep 16, 2007","Mon, Sep 17, 2007"
3829,Lubbock Preston Smith International,Lubbock,United States,LBB,KLBB,33.663639,-101.822778,3282,-6,A,"Lubbock, TX",682,681,691,690,3.343108504398827,9.447870778267248,35.0,257.0,"Fri, Sep 28, 2007","Mon, Sep  3, 2007"
3513,Lake Charles Regional,Lake Charles,United States,LCH,KLCH,30.126112,-93.223335,15,-6,A,"Lake Charles, LA",86,86,87,87,5.069767441860465,14.895348837209303,10.0,47.0,"Tue, Sep 18, 2007","Thu, Sep  6, 2007"
4017,Blue Grass,Lexington KY,United States,LEX,KLEX,38.0365,-84.605889,979,-5,A,"Lexington, KY",794,796,805,805,4.94458438287154,12.579145728643207,23.0,92.0,"Sun, Sep 23, 2007","Thu, Sep 27, 2007"
3493,Lafayette Regional,Lafayette,United States,LFT,KLFT,30.205278,-91.987611,43,-6,A,"Lafayette, LA",465,466,474,473,5.331182795698925,11.381974248927033,16.0,141.0,"Thu, Sep 27, 2007","Sat, Sep  8, 2007"
3697,LaGuardia Airport,New York,United States,LGA,KLGA,40.777245,-73.872608,22,-5,A,"New York, NY",9596,9632,9841,9858,7.822426010837892,31.8139534883718,93.0,197.0,"Fri, Sep 28, 2007","Thu, Sep 27, 2007"
3582,Long Beach,Long Beach,United States,LGB,KLGB,33.817722,-118.151611,60,-8,A,"Long Beach, CA",1146,1146,1152,1153,5.152705061082021,16.23036649214657,41.0,58.0,"Tue, Sep 25, 2007","Mon, Sep 24, 2007"
3602,Lihue,Lihue,United States,LIH,PHLI,21.975983,-159.338958,153,-10,N,"Lihue, HI",1196,1197,1201,1203,4.872909698996655,5.401002506265663,14.0,39.0,"Sat, Sep  8, 2007","Wed, Sep  5, 2007"
3660,Adams Field,Little Rock,United States,LIT,KLIT,34.729444,-92.224306,262,-6,A,"Little Rock, AR",1285,1289,1314,1312,4.67081712062257,10.575640031031813,42.0,122.0,"Sun, Sep  2, 2007","Mon, Sep  3, 2007"
3543,Lincoln,Lincoln,United States,LNK,KLNK,40.850971,-96.75925,1219,-6,A,"Lincoln, NE",330,329,342,342,3.851515151515154,12.82370820668693,13.0,109.0,"Mon, Sep 24, 2007","Wed, Sep 19, 2007"
3691,Laredo International,Laredo,United States,LRD,KLRD,27.54375,-99.461556,508,-6,A,"Laredo, TX",185,185,188,188,3.32972972972973,10.340540540540543,11.0,119.0,"Sun, Sep  9, 2007","Mon, Sep 10, 2007"
4044,LaCrosse Municipal,LaCrosse,United States,LSE,KLSE,43.878986,-91.256711,654,-6,A,"La Crosse, WI",212,212,218,218,3.358490566037736,12.990566037735851,10.0,96.0,"Sat, Sep  8, 2007","Mon, Sep 10, 2007"
6958,Greenbrier Valley Airport,Lewisburg,United States,LWB,KLWB,37.858333,-80.399444,2302,-5,U,"Lewisburg, WV",30,30,30,30,3.7333333333333334,10.166666666666666,7.0,26.0,"Sun, Sep  2, 2007","Fri, Sep 14, 2007"
3945,Lewiston Nez Perce County,Lewiston,United States,LWS,KLWS,46.3745,-117.015389,1442,-8,A,"Lewiston, ID",59,59,59,59,5.135593220338982,10.508474576271189,16.0,21.0,"Tue, Sep 18, 2007","Sat, Sep 29, 2007"
5753,Lynchburg Regional-Preston Glenn Field,Lynchburg,United States,LYH,KLYH,37.3267,-79.2004,938,-5,A,"Lynchburg, VA",55,55,55,55,4.127272727272727,10.981818181818182,10.0,23.0,"Wed, Sep 12, 2007","Mon, Sep 17, 2007"
3652,Midland International,Midland,United States,MAF,KMAF,31.942528,-102.201914,2871,-6,A,"Midland/Odessa, TX",591,593,599,598,2.763113367174281,8.752107925800999,27.0,25.0,"Mon, Sep 10, 2007","Wed, Sep 12, 2007"
4128,MBS International,Saginaw,United States,MBS,KMBS,43.532913,-84.079647,668,-5,A,"Saginaw/Bay City/Midland, MI",279,301,281,303,4.32974910394265,13.504983388704318,16.0,63.0,"Mon, Sep 10, 2007","Fri, Sep  7, 2007"
3458,Kansas City International,Kansas City,United States,MCI,KMCI,39.297606,-94.713905,1026,-6,A,"Kansas City, MO",5701,5691,5738,5739,5.167339063322225,12.014935863644368,126.0,119.0,"Fri, Sep 21, 2007","Mon, Sep 10, 2007"
3754,Middle Georgia Regional,Macon,United States,MCN,KMCN,32.69285,-83.649211,354,-5,A,"Macon, GA",53,53,56,56,2.9622641509433962,10.679245283018869,7.0,25.0,"Tue, Sep 11, 2007","Fri, Sep  7, 2007"
3878,Orlando International,Orlando,United States,MCO,KMCO,28.429394,-81.308994,96,-5,A,"Orlando, FL",9831,9836,9918,9909,6.450411962160528,13.794835298901969,88.0,162.0,"Sun, Sep 23, 2007","Tue, Sep 11, 2007"
3542,Harrisburg International,Harrisburg,United States,MDT,KMDT,40.193494,-76.763403,310,-5,A,"Harrisburg, PA",619,621,623,625,4.844911147011309,14.046698872785836,24.0,75.0,"Tue, Sep 18, 2007","Wed, Sep 19, 2007"
3747,Chicago Midway International,Chicago,United States,MDW,KMDW,41.785972,-87.752417,620,-6,A,"Chicago, IL",7684,7699,7744,7740,4.993232691306632,12.033121184569433,40.0,132.0,"Wed, Sep 26, 2007","Tue, Sep 25, 2007"
4335,Key Field,Meridian,United States,MEI,KMEI,32.332624,-88.751868,297,-6,A,"Meridian, MS",59,58,59,59,4.423728813559322,10.70689655172414,9.0,22.0,"Tue, Sep  4, 2007","Wed, Sep 12, 2007"
3473,Memphis International,Memphis,United States,MEM,KMEM,35.042417,-89.976667,341,-6,A,"Memphis, TN",6821,6856,6946,6948,7.077994428969359,17.917736289381583,56.0,221.0,"Sun, Sep 30, 2007","Mon, Sep 10, 2007"
3826,McAllen Miller International,Mcallen,United States,MFE,KMFE,26.175833,-98.238611,107,-6,A,"Mission/McAllen/Edinburg, TX",389,389,393,394,4.629820051413875,11.42159383033419,9.0,65.0,"Sat, Sep 22, 2007","Fri, Sep 14, 2007"
4101,Rogue Valley International Medford,Medford,United States,MFR,KMFR,42.374228,-122.8735,1335,-8,A,"Medford, OR",502,471,508,482,4.02191235059761,10.05520169851378,17.0,70.0,"Sat, Sep  1, 2007","Tue, Sep 11, 2007"
4115,Montgomery Regional Airport ,MONTGOMERY,United States,MGM,KMGM,32.3006389,-86.3939722,221,-6,A,"Montgomery, AL",302,299,311,309,3.3079470198675502,12.086956521739129,17.0,54.0,"Mon, Sep 17, 2007","Tue, Sep 11, 2007"
4011,Manchester Regional Airport,Manchester NH,United States,MHT,KMHT,42.932556,-71.435667,266,-5,A,"Manchester, NH",1757,1757,1766,1768,4.252134319863386,13.080819578827544,20.0,218.0,"Thu, Sep 20, 2007","Tue, Sep 11, 2007"
3576,Miami International,Miami,United States,MIA,KMIA,25.79325,-80.290556,8,-5,A,"Miami, FL",4890,4904,4951,4959,7.2286298568507155,16.203711256117444,77.0,125.0,"Tue, Sep  4, 2007","Thu, Sep 27, 2007"
3717,General Mitchell International,Milwaukee,United States,MKE,KMKE,42.947222,-87.896583,723,-6,A,"Milwaukee, WI",2578,2592,2619,2622,5.477889837083016,14.752314814814815,41.0,107.0,"Sun, Sep 16, 2007","Thu, Sep 27, 2007"
3671,Melbourne International,Melbourne,United States,MLB,KMLB,28.102753,-80.645258,33,-5,A,"Melbourne, FL",137,137,138,139,4.0,10.591240875912408,32.0,29.0,"Tue, Sep 11, 2007","Thu, Sep 13, 2007"
4072,Quad City International,Moline,United States,MLI,KMLI,41.448528,-90.507539,590,-6,A,"Moline, IL",810,805,831,832,4.274074074074067,12.163975155279498,17.0,75.0,"Sun, Sep  9, 2007","Mon, Sep 10, 2007"
3732,Monroe Regional,Monroe,United States,MLU,KMLU,32.510864,-92.037689,79,-6,A,"Monroe, LA",232,231,243,243,4.405172413793103,9.190476190476186,12.0,65.0,"Wed, Sep 26, 2007","Tue, Sep  4, 2007"
3782,Mobile Regional,Mobile,United States,MOB,KMOB,30.691231,-88.242814,219,-6,A,"Mobile, AL",485,486,496,496,3.82680412371134,10.380658436213999,25.0,69.0,"Thu, Sep 20, 2007","Sun, Sep  9, 2007"
3816,Modesto City County Harry Sham,Modesto,United States,MOD,KMOD,37.625817,-120.954422,97,-8,A,"Modesto, CA",230,231,237,237,3.195652173913044,11.298701298701296,10.0,84.0,"Tue, Sep  4, 2007","Wed, Sep 12, 2007"
3498,Minot International,Minot,United States,MOT,KMOT,48.259378,-101.280333,1716,-6,A,"Minot, ND",89,89,89,89,5.550561797752809,14.314606741573037,10.0,93.0,"Sat, Sep 29, 2007","Thu, Sep 20, 2007"
6838,Sawyer International Airport,Marquette,United States,MQT,KMQT,46.353611,-87.395278,1221,-5,A,"Marquette, MI",84,82,84,83,4.357142857142856,9.51219512195122,19.0,34.0,"Fri, Sep 21, 2007","Wed, Sep  5, 2007"
3948,Monterey Peninsula,Monterey,United States,MRY,KMRY,36.587,-121.842944,257,-8,A,"Monterey, CA",736,739,745,744,3.745923913043478,10.113667117726648,89.0,104.0,"Mon, Sep 17, 2007","Fri, Sep 14, 2007"
3459,Dane County Regional-Truax Field,Madison,United States,MSN,KMSN,43.139858,-89.337514,887,-6,A,"Madison, WI",1061,1056,1080,1073,4.355325164938739,15.058712121212121,27.0,181.0,"Thu, Sep 27, 2007","Tue, Sep 25, 2007"
4216,Missoula International,Missoula,United States,MSO,KMSO,46.916306,-114.090556,3205,-7,A,"Missoula, MT",228,228,228,229,4.881578947368424,10.868421052631579,9.0,28.0,"Sat, Sep 15, 2007","Sun, Sep 23, 2007"
3858,Minneapolis St. Paul International,Minneapolis,United States,MSP,KMSP,44.881956,-93.221767,841,-6,A,"Minneapolis, MN",11982,12065,12271,12266,9.672341846102407,22.049647741400708,108.0,153.0,"Tue, Sep 25, 2007","Tue, Sep 25, 2007"
3861,Louis Armstrong New Orleans International,New Orleans,United States,MSY,KMSY,29.993389,-90.258028,4,-6,A,"New Orleans, LA",3037,3034,3056,3056,4.086269344748105,10.8233355306526,27.0,93.0,"Tue, Sep 18, 2007","Fri, Sep 14, 2007"
6880,Montrose Regional Airport,Montrose CO,United States,MTJ,KMTJ,38.509794,-107.894242,5759,-7,A,"Montrose/Delta, CO",185,184,186,186,3.913513513513514,11.277173913043486,17.0,39.0,"Tue, Sep 25, 2007","Wed, Sep  5, 2007"
3515,Myrtle Beach International,Myrtle Beach,United States,MYR,KMYR,33.67975,-78.928333,25,-5,A,"Myrtle Beach, SC",579,578,590,590,4.234887737478412,12.13148788927336,38.0,144.0,"Sun, Sep 30, 2007","Mon, Sep 10, 2007"
4386,Albert J. Ellis,Jacksonville NC,United States,OAJ,KOAJ,34.829164,-77.612139,94,-5,A,"Jacksonville/Camp Lejeune, NC",102,102,106,106,3.107843137254902,9.225490196078425,6.0,49.0,"Tue, Sep 11, 2007","Sun, Sep 16, 2007"
3453,Metropolitan Oakland International,Oakland,United States,OAK,KOAK,37.721278,-122.220722,9,-8,A,"Oakland, CA",6195,6201,6265,6267,6.447134786117832,11.422835026608603,54.0,81.0,"Thu, Sep  6, 2007","Thu, Sep  6, 2007"
3456,Kahului,Kahului,United States,OGG,PHOG,20.89865,-156.430458,54,-10,N,"Kahului, HI",1986,1982,2006,2002,4.7880161127895216,7.1962663975782,22.0,47.0,"Mon, Sep 24, 2007","Sat, Sep  8, 2007"
3863,Will Rogers World,Oklahoma City,United States,OKC,KOKC,35.393089,-97.600733,1295,-6,A,"Oklahoma City, OK",2264,2253,2276,2275,5.064045936395757,11.43497558810474,48.0,115.0,"Fri, Sep 21, 2007","Thu, Sep 20, 2007"
3454,Eppley Airfield,Omaha,United States,OMA,KOMA,41.303167,-95.894069,984,-6,A,"Omaha, NE",2244,2244,2266,2267,3.937165775401077,11.974153297682715,27.0,130.0,"Tue, Sep  4, 2007","Tue, Sep 25, 2007"
3615,Nome,Nome,United States,OME,PAOM,64.512203,-165.445247,37,-9,A,"Nome, AK",88,89,90,90,3.284090909090909,5.808988764044945,7.0,32.0,"Sat, Sep 29, 2007","Wed, Sep 19, 2007"
3734,Ontario International,Ontario,United States,ONT,KONT,34.056,-117.601194,944,-8,A,"Ontario, CA",3580,3578,3609,3611,4.451675977653626,10.812185578535495,41.0,82.0,"Sat, Sep  1, 2007","Sun, Sep  9, 2007"
3830,Chicago O'Hare International,Chicago,United States,ORD,KORD,41.978603,-87.904842,668,-6,A,"Chicago, IL",29843,29926,30436,30384,8.398083302617007,19.045445432065677,75.0,195.0,"Wed, Sep  5, 2007","Tue, Sep 11, 2007"
3611,Norfolk International,Norfolk,United States,ORF,KORF,36.894611,-76.201222,26,-5,A,"Norfolk, VA",1661,1664,1672,1673,4.2155328115592985,12.33834134615385,16.0,177.0,"Thu, Sep 27, 2007","Sun, Sep 23, 2007"
3693,Ralph WienMemorial,Kotzebue,United States,OTZ,PAOT,66.884678,-162.59855,11,-9,A,"Kotzebue, AK",88,88,90,90,4.772727272727274,6.136363636363635,8.0,21.0,"Fri, Sep 28, 2007","Sat, Sep 15, 2007"
6961,Oxnard - Ventura County,Oxnard,United States,OXR,KOXR,34.200833,-119.207222,15,-8,A,"Oxnard/Ventura, CA",112,112,113,113,3.9821428571428554,11.062499999999996,16.0,50.0,"Wed, Sep  5, 2007","Fri, Sep 14, 2007"
3722,Palm Beach International,West Palm Beach,United States,PBI,KPBI,26.683161,-80.095589,19,-5,A,"West Palm Beach/Palm Beach, FL",1848,1870,1854,1880,4.556277056277066,12.097326203208556,81.0,72.0,"Thu, Sep 27, 2007","Fri, Sep 14, 2007"
3720,Portland International,Portland,United States,PDX,KPDX,45.588722,-122.5975,30,-8,A,"Portland, OR",4880,4888,4911,4910,4.188114754098372,12.20274140752863,32.0,64.0,"Wed, Sep 12, 2007","Sun, Sep 30, 2007"
4073,Panama City Bay County International,Panama City,United States,PFN,KPFN,30.212083,-85.682806,20,-6,A,"Panama City, FL",280,279,288,288,3.4535714285714287,9.853046594982084,7.0,31.0,"Tue, Sep 11, 2007","Mon, Sep  3, 2007"
3633,Newport News Williamsburg International,Newport News,United States,PHF,KPHF,37.131894,-76.492989,43,-5,A,"Newport News/Williamsburg, VA",455,455,461,460,5.5648351648351655,10.03736263736264,20.0,70.0,"Fri, Sep 21, 2007","Tue, Sep 11, 2007"
3752,Philadelphia International,Philadelphia,United States,PHL,KPHL,39.871944,-75.241139,36,-5,A,"Philadelphia, PA",8195,8196,8283,8282,7.259792556436849,25.632747681795994,72.0,239.0,"Fri, Sep 14, 2007","Thu, Sep 27, 2007"
3462,Phoenix Sky Harbor International,Phoenix,United States,PHX,KPHX,33.434278,-112.011583,1135,-7,N,"Phoenix, AZ",16695,16756,16884,16887,7.078945792153358,15.080150393888742,68.0,138.0,"Wed, Sep  5, 2007","Mon, Sep 10, 2007"
4046,Peoria Regional,Peoria,United States,PIA,KPIA,40.664203,-89.693258,660,-6,A,"Peoria, IL",458,457,471,470,4.294759825327508,13.844638949671772,12.0,127.0,"Fri, Sep  7, 2007","Fri, Sep 14, 2007"
5760,Pocatello Regional Airport,Pocatello,United States,PIH,KPIH,42.9098,-112.596,4452,-7,A,"Pocatello, ID",150,150,154,150,3.58,9.446666666666669,10.0,86.0,"Tue, Sep 11, 2007","Tue, Sep  4, 2007"
3570,Pittsburgh International,Pittsburgh (pennsylva),United States,PIT,KPIT,40.491467,-80.232872,1204,-5,A,"Pittsburgh, PA",3923,3920,3955,3953,5.851134335967372,13.944642857142863,70.0,148.0,"Mon, Sep 10, 2007","Tue, Sep 11, 2007"
5762,Pellston Regional Airport of Emmet County Airport,Pellston,United States,PLN,KPLN,45.5709,-84.7967,720,-5,A,"Pellston, MI",52,51,55,55,4.5576923076923075,12.725490196078429,8.0,26.0,"Mon, Sep  3, 2007","Mon, Sep 17, 2007"
3756,Palmdale Regional Usaf Plt 42,Palmdale,United States,PMD,KPMD,34.629391,-118.08456,2543,-8,A,"Palmdale, CA",55,54,55,54,4.472727272727271,13.796296296296296,11.0,54.0,"Tue, Sep 25, 2007","Sat, Sep  8, 2007"
3564,Pensacola Regional,Pensacola,United States,PNS,KPNS,30.473425,-87.186611,121,-6,A,"Pensacola, FL",795,797,806,809,4.659119496855355,9.824341279799254,22.0,87.0,"Fri, Sep 14, 2007","Fri, Sep  7, 2007"
6133,Tri Cities Airport,Pasco,United States,PSC,PSC,46.2647,-119.119,410,-8,A,"Pasco/Kennewick/Richland, WA",218,217,219,219,4.527522935779813,11.27649769585253,8.0,32.0,"Thu, Sep 27, 2007","Thu, Sep 13, 2007"
4147,Petersburg James A. Johnson,Petersburg,United States,PSG,PAPG,56.801667,-132.945278,105,-9,A,"Petersburg, AK",57,58,60,60,3.736842105263158,9.241379310344824,6.0,24.0,"Sat, Sep  8, 2007","Tue, Sep  4, 2007"
3839,Palm Springs International,Palm Springs,United States,PSP,KPSP,33.829667,-116.506694,477,-8,A,"Palm Springs, CA",851,823,853,827,4.586368977673322,11.047387606318347,23.0,57.0,"Tue, Sep 25, 2007","Thu, Sep  6, 2007"
3641,Theodore Francis Green State,Providence,United States,PVD,KPVD,41.732581,-71.420383,55,-5,A,"Providence, RI",2135,2135,2156,2157,4.652459016393444,12.566276346604218,67.0,116.0,"Sun, Sep 23, 2007","Wed, Sep 12, 2007"
3862,Portland International Jetport,Portland,United States,PWM,KPWM,43.646161,-70.309281,77,-5,A,"Portland, ME",775,779,785,790,4.264516129032257,14.655969191270858,24.0,148.0,"Sun, Sep  2, 2007","Sat, Sep  8, 2007"
4087,Rapid City Regional Airport,Rapid City,United States,RAP,KRAP,44.045278,-103.057222,3204,-7,A,"Rapid City, SD",401,396,402,403,4.598503740648378,12.184343434343443,19.0,143.0,"Fri, Sep 14, 2007","Thu, Sep 20, 2007"
4098,Redding Municipal,Redding,United States,RDD,KRDD,40.509,-122.293389,504,-8,A,"Redding, CA",142,142,143,143,4.492957746478875,13.161971830985914,13.0,40.0,"Wed, Sep 19, 2007","Thu, Sep 13, 2007"
4103,Roberts Field,Redmond-Bend,United States,RDM,KRDM,44.254066,-121.149964,3077,-8,A,"Bend/Redmond, OR",284,281,284,284,3.788732394366197,11.658362989323843,8.0,34.0,"Thu, Sep  6, 2007","Sun, Sep 16, 2007"
3626,Raleigh Durham International,Raleigh-durham,United States,RDU,KRDU,35.877639,-78.787472,435,-5,A,"Raleigh/Durham, NC",5571,5574,5621,5621,4.903069466882055,13.19285970577681,86.0,112.0,"Fri, Sep 21, 2007","Tue, Sep 11, 2007"
4028,Chicago Rockford International Airport ,Rockford,United States,RFD,KRFD,42.1953611,-89.0972222,742,-6,A,"Rockford, IL",55,55,56,55,3.7636363636363637,13.290909090909091,6.0,35.0,"Wed, Sep  5, 2007","Sat, Sep 15, 2007"
5765,Rhinelander Oneida County Airport,Rhinelander,United States,RHI,KRHI,45.6312,-89.4675,1624,-6,A,"Rhinelander, WI",19,19,25,25,4.052631578947368,12.052631578947368,6.0,39.0,"Tue, Sep 25, 2007","Wed, Sep 26, 2007"
3608,Richmond International,Richmond,United States,RIC,KRIC,37.505167,-77.319667,167,-5,A,"Richmond, VA",1624,1618,1632,1632,5.27339901477832,14.223733003708292,35.0,155.0,"Sun, Sep 23, 2007","Wed, Sep 12, 2007"
3807,Reno Tahoe International,Reno,United States,RNO,KRNO,39.499108,-119.768108,4415,-8,A,"Reno, NV",2162,2166,2171,2173,4.567067530064758,11.279778393351782,21.0,94.0,"Sat, Sep 15, 2007","Wed, Sep 19, 2007"
4016,Roanoke Regional,Roanoke VA,United States,ROA,KROA,37.325472,-79.975417,1175,-5,A,"Roanoke, VA",276,275,278,278,5.623188405797105,13.850909090909095,12.0,86.0,"Tue, Sep 25, 2007","Tue, Sep 25, 2007"
3622,Greater Rochester International,Rochester,United States,ROC,KROC,43.118866,-77.672389,559,-5,A,"Rochester, NY",1283,1279,1299,1300,5.8020265003897125,13.113369820172007,30.0,138.0,"Sat, Sep  8, 2007","Thu, Sep  6, 2007"
3736,Roswell International Air Center,Roswell,United States,ROW,KROW,33.301556,-104.530556,3671,-7,A,"Roswell, NM",52,51,52,51,4.249999999999999,10.764705882352942,14.0,132.0,"Thu, Sep 20, 2007","Mon, Sep 10, 2007"
4048,Rochester,Rochester,United States,RST,KRST,43.908283,-92.500014,1317,-6,A,"Rochester, MN",326,326,336,336,4.380368098159509,11.331288343558281,36.0,80.0,"Wed, Sep 19, 2007","Fri, Sep 21, 2007"
3793,Southwest Florida International,Fort Myers,United States,RSW,KRSW,26.536167,-81.755167,30,-5,A,"Fort Myers, FL",1502,1505,1511,1511,4.753661784287622,11.345514950166123,37.0,86.0,"Sat, Sep 22, 2007","Tue, Sep 25, 2007"
3731,San Diego International,San Diego,United States,SAN,KSAN,32.733556,-117.189667,17,-8,A,"San Diego, CA",8296,8290,8389,8389,3.8847637415622027,14.10844390832328,63.0,133.0,"Sat, Sep  1, 2007","Tue, Sep 25, 2007"
3621,San Antonio International,San Antonio,United States,SAT,KSAT,29.533694,-98.469778,809,-6,A,"San Antonio, TX",4051,4050,4088,4083,3.727968402863494,10.930864197530857,48.0,189.0,"Wed, Sep 12, 2007","Mon, Sep 10, 2007"
3613,Savannah Hilton Head International,Savannah,United States,SAV,KSAV,32.127583,-81.202139,51,-5,A,"Savannah, GA",1179,1177,1193,1194,5.960135708227308,13.076465590484286,36.0,90.0,"Fri, Sep  7, 2007","Mon, Sep 10, 2007"
3949,Santa Barbara Municipal,Santa Barbara,United States,SBA,KSBA,34.426211,-119.840372,10,-8,A,"Santa Barbara, CA",1118,1118,1134,1135,4.313953488372092,10.69856887298747,31.0,164.0,"Thu, Sep 20, 2007","Mon, Sep 17, 2007"
4359,South Bend Regional,South Bend,United States,SBN,KSBN,41.708661,-86.31725,799,-5,A,"South Bend, IN",463,462,470,469,4.095032397408209,12.606060606060602,18.0,79.0,"Mon, Sep 10, 2007","Sun, Sep  9, 2007"
5768,San Luis County Regional Airport,San Luis Obispo,United States,SBP,KSBP,35.2368,-120.642,212,-8,A,"San Luis Obispo, CA",588,589,597,601,3.802721088435374,11.621392190152799,24.0,42.0,"Tue, Sep 25, 2007","Fri, Sep 28, 2007"
3620,Deadhorse,Deadhorse,United States,SCC,PASC,70.19475,-148.465167,64,-9,A,"Deadhorse, AK",59,57,60,60,3.0,6.947368421052632,5.0,22.0,"Sun, Sep  9, 2007","Wed, Sep 12, 2007"
4318,University Park Airport,State College Pennsylvania,United States,SCE,KUNV,40.849278,-77.848694,1239,-5,A,"State College, PA",59,59,60,60,5.7288135593220355,14.983050847457626,10.0,41.0,"Fri, Sep  7, 2007","Mon, Sep 17, 2007"
4014,Louisville International Airport,Louisville,United States,SDF,KSDF,38.1740858,-85.7364989,501,-5,A,"Louisville, KY",1872,1868,1888,1889,5.719017094017095,11.878479657387574,32.0,103.0,"Sun, Sep  9, 2007","Fri, Sep 21, 2007"
3577,Seattle Tacoma International,Seattle,United States,SEA,KSEA,47.449,-122.309306,433,-8,A,"Seattle, WA",9191,9218,9282,9277,6.818300511369804,17.209047515730138,53.0,86.0,"Mon, Sep 10, 2007","Sun, Sep 30, 2007"
3469,San Francisco International,San Francisco,United States,SFO,KSFO,37.618972,-122.374889,13,-8,A,"San Francisco, CA",11402,11472,11567,11627,5.958340641992643,17.701970013947058,57.0,104.0,"Sun, Sep 16, 2007","Tue, Sep 25, 2007"
4348,Springfield Branson National,Springfield,United States,SGF,KSGF,37.245667,-93.388639,1268,-6,A,"Springfield, MO",889,888,905,904,4.539932508436446,12.119369369369377,122.0,115.0,"Mon, Sep 24, 2007","Tue, Sep 11, 2007"
4064,St. George Municipal,Saint George,United States,SGU,KSGU,37.090583,-113.593056,2941,-7,A,"St. George, UT",297,297,300,300,4.148148148148145,10.434343434343425,16.0,35.0,"Sat, Sep 29, 2007","Sat, Sep 22, 2007"
3609,Shreveport Regional,Shreveport,United States,SHV,KSHV,32.446629,-93.8256,258,-6,A,"Shreveport, LA",711,710,722,721,5.237693389592126,9.012676056338027,39.0,41.0,"Fri, Sep 21, 2007","Sat, Sep  8, 2007"
3856,Sitka Rocky Gutierrez,Sitka,United States,SIT,PASI,57.047138,-135.361611,21,-9,A,"Sitka, AK",116,118,120,120,4.008620689655171,10.635593220338986,9.0,26.0,"Tue, Sep 11, 2007","Sat, Sep 15, 2007"
3748,Norman Y. Mineta San Jose International,San Jose,United States,SJC,KSJC,37.3626,-121.929022,62,-8,A,"San Jose, CA",5103,5092,5154,5142,4.010777973740934,12.184799685781643,35.0,92.0,"Sun, Sep 16, 2007","Tue, Sep 25, 2007"
3708,San Angelo Regional-Mathis Field,San Angelo,United States,SJT,KSJT,31.35775,-100.496306,1919,-6,A,"San Angelo, TX",146,144,150,150,3.342465753424657,7.333333333333333,10.0,26.0,"Sat, Sep 29, 2007","Tue, Sep  4, 2007"
3536,Salt Lake City International,Salt Lake City,United States,SLC,KSLC,40.788389,-111.977772,4227,-7,A,"Salt Lake City, UT",11908,11958,12015,12030,6.42282499160229,18.994229804315157,60.0,153.0,"Thu, Sep 27, 2007","Fri, Sep  7, 2007"
7826,McNary Field,Salem,United States,SLE,KSLE,44.9095,-123.003,214,-7,A,"Salem, OR",55,55,55,55,4.563636363636365,13.218181818181819,15.0,37.0,"Wed, Sep  5, 2007","Thu, Sep 13, 2007"
3817,Sacramento International,Sacramento,United States,SMF,KSMF,38.695417,-121.590778,27,-8,A,"Sacramento, CA",4871,4869,4901,4898,4.789570929993845,10.904087081536233,87.0,83.0,"Tue, Sep 18, 2007","Fri, Sep 21, 2007"
5772,Santa Maria Public-Captain G. Allan Hancock Airport,Santa Maria,United States,SMX,KSMX,34.8989,-120.457,261,-8,A,"Santa Maria, CA",138,137,138,141,4.123188405797103,12.839416058394159,15.0,32.0,"Tue, Sep  4, 2007","Tue, Sep 11, 2007"
3867,John Wayne Airport Orange County,Santa Ana,United States,SNA,KSNA,33.675667,-117.868222,56,-8,A,"Santa Ana, CA",4247,4243,4285,4285,6.4179420767600615,13.141409380155558,65.0,99.0,"Wed, Sep 12, 2007","Tue, Sep  4, 2007"
4336,Abraham Lincoln Capital,Springfield,United States,SPI,KSPI,39.8441,-89.677889,597,-6,A,"Springfield, IL",140,140,142,142,4.535714285714287,13.450000000000001,20.0,122.0,"Sun, Sep  2, 2007","Thu, Sep  6, 2007"
3680,Sheppard AFB Wichita Falls Municipal,Wichita Falls,United States,SPS,KSPS,33.988797,-98.491894,1019,-6,A,"Wichita Falls, TX",190,191,197,197,6.09473684210526,10.722513089005236,15.0,44.0,"Mon, Sep 10, 2007","Wed, Sep 12, 2007"
4067,Sarasota Bradenton International,Sarasota,United States,SRQ,KSRQ,27.395444,-82.554389,30,-5,A,"Sarasota/Bradenton, FL",434,435,435,435,4.200460829493092,10.772413793103452,11.0,70.0,"Sat, Sep 15, 2007","Tue, Sep 11, 2007"
3678,Lambert St. Louis International,St. Louis,United States,STL,KSTL,38.748697,-90.370028,618,-6,A,"St. Louis, MO",5194,5190,5242,5241,4.812475933769739,11.843545279383438,37.0,178.0,"Tue, Sep 25, 2007","Thu, Sep 20, 2007"
6494,Friedman Memorial,Hailey,United States,SUN,KSUN,43.504444,-114.296194,5320,-7,A,"Sun Valley/Hailey/Ketchum, ID",309,312,324,330,3.466019417475729,8.535256410256418,68.0,79.0,"Wed, Sep 26, 2007","Tue, Sep  4, 2007"
3753,Sioux Gateway-Colonel Bud Day Field,Sioux City,United States,SUX,KSUX,42.402603,-96.384367,1098,-6,A,"Sioux City, IA",50,50,55,55,3.1,12.7,6.0,53.0,"Mon, Sep  3, 2007","Wed, Sep  5, 2007"
3661,Stewart International,Newburgh,United States,SWF,KSWF,41.504094,-74.104839,491,-5,A,"Newburgh/Poughkeepsie, NY",437,437,442,443,5.814645308924483,13.318077803203659,19.0,77.0,"Tue, Sep 25, 2007","Tue, Sep 18, 2007"
3745,Syracuse Hancock International,Syracuse,United States,SYR,KSYR,43.111187,-76.106311,421,-5,A,"Syracuse, NY",1036,1035,1039,1041,4.669884169884171,15.509178743961353,31.0,243.0,"Sun, Sep  9, 2007","Fri, Sep 14, 2007"
3698,Tallahassee Regional,Tallahassee,United States,TLH,KTLH,30.396528,-84.350333,81,-5,A,"Tallahassee, FL",333,334,340,340,4.186186186186184,10.742514970059892,18.0,90.0,"Sun, Sep  2, 2007","Fri, Sep 14, 2007"
4040,Toledo,Toledo,United States,TOL,KTOL,41.586806,-83.807833,684,-5,A,"Toledo, OH",167,166,167,167,3.3233532934131738,13.957831325301205,11.0,110.0,"Sat, Sep 29, 2007","Tue, Sep 11, 2007"
3646,Tampa International,Tampa,United States,TPA,KTPA,27.975472,-82.53325,26,-5,A,"Tampa, FL",5942,5949,5986,5987,4.5669808145405675,11.689695747184425,44.0,105.0,"Sun, Sep 16, 2007","Fri, Sep 14, 2007"
4116,Tri-Cities Regional Airport,BRISTOL,United States,TRI,KTRI,36.4752222,-82.4074167,1519,-5,A,"Bristol/Johnson City/Kingsport, TN",84,84,88,88,3.869047619047619,8.642857142857142,13.0,21.0,"Mon, Sep 24, 2007","Thu, Sep 13, 2007"
3447,Trenton Mercer,Trenton,United States,TTN,KTTN,40.276692,-74.813469,213,-5,A,"Trenton, NJ",30,33,31,33,6.066666666666666,14.333333333333334,11.0,42.0,"Fri, Sep  7, 2007","Thu, Sep  6, 2007"
3855,Tulsa International,Tulsa,United States,TUL,KTUL,36.198389,-95.888111,677,-6,A,"Tulsa, OK",2137,2136,2160,2161,4.177819372952748,11.652153558052435,31.0,69.0,"Wed, Sep  5, 2007","Tue, Sep 25, 2007"
5773,Tupelo Regional Airport,Tupelo,United States,TUP,KTUP,34.2681,-88.7699,346,-6,A,"Tupelo, MS",40,39,44,44,3.225,7.333333333333333,8.0,17.0,"Sat, Sep 22, 2007","Thu, Sep 13, 2007"
3636,Tucson International,Tucson,United States,TUS,KTUS,32.116083,-110.941028,2643,-7,N,"Tucson, AZ",2316,2313,2329,2329,6.707253886010367,12.127107652399472,30.0,78.0,"Tue, Sep  4, 2007","Thu, Sep 13, 2007"
4023,Cherry Capital Airport,Traverse City,United States,TVC,KTVC,44.741445,-85.582235,624,-5,A,"Traverse City, MI",332,332,335,336,4.283132530120484,12.087349397590359,18.0,72.0,"Sat, Sep  8, 2007","Fri, Sep  7, 2007"
4263,Magic Valley Regional Airport,Twin Falls,United States,TWF,KTWF,42.481803,-114.487733,4151,-7,A,"Twin Falls, ID",171,172,176,174,3.6783625730994154,9.406976744186048,14.0,75.0,"Thu, Sep 27, 2007","Tue, Sep  4, 2007"
3770,Texarkana Regional-Webb Field,Texarkana,United States,TXK,KTXK,33.453722,-93.991028,390,-6,A,"Texarkana, AR",112,111,116,116,3.8839285714285703,8.243243243243237,12.0,17.0,"Thu, Sep 20, 2007","Sat, Sep  8, 2007"
3848,Tyler Pounds Regional,Tyler,United States,TYR,KTYR,32.354139,-95.402386,544,-6,A,"Tyler, TX",143,145,148,148,4.335664335664336,8.848275862068963,22.0,30.0,"Wed, Sep 26, 2007","Wed, Sep  5, 2007"
3676,McGhee Tyson,Knoxville,United States,TYS,KTYS,35.810972,-83.994028,981,-5,A,"Knoxville, TN",1151,1151,1161,1162,4.882710686359685,12.815812337098174,34.0,156.0,"Fri, Sep 28, 2007","Thu, Sep  6, 2007"
5776,Valdosta Regional Airport,Valdosta,United States,VLD,KVLD,30.7825,-83.2767,203,-5,A,"Valdosta, GA",78,80,80,80,4.423076923076922,9.5125,15.0,31.0,"Sun, Sep 30, 2007","Thu, Sep 13, 2007"
3873,Eglin AFB,Valparaiso,United States,VPS,KVPS,30.48325,-86.5254,87,-6,A,"Valparaiso, FL",529,527,535,536,7.831758034026465,12.250474383301704,24.0,123.0,"Wed, Sep  5, 2007","Tue, Sep 25, 2007"
5969,Wrangell Airport,Wrangell,United States,WRG,PAWG,56.4843,-132.37,44,-9,A,"Wrangell, AK",57,58,60,60,3.9473684210526314,10.241379310344827,13.0,31.0,"Fri, Sep 28, 2007","Wed, Sep 19, 2007"
7072,Yellowstone Airport,West Yellowstone,United States,WYS,KWYS,44.688333,-111.1175,6644,-7,A,"West Yellowstone, MT",69,69,70,70,4.115942028985509,10.173913043478262,11.0,26.0,"Wed, Sep  5, 2007","Sat, Sep 29, 2007"
4356,NW Arkansas Regional,Bentonville,United States,XNA,KXNA,36.2818694,-94.3068111,1287,-6,A,"Fayetteville, AR",1134,1138,1178,1182,4.470017636684303,14.12829525483304,37.0,221.0,"Wed, Sep  5, 2007","Thu, Sep 27, 2007"
6803,Yakutat,Yakutat,United States,YAK,PAYA,59.3012,-139.3937,33,-9,A,"Yakutat, AK",59,60,60,60,3.7966101694915255,7.35,8.0,22.0,"Fri, Sep 28, 2007","Thu, Sep 20, 2007"
5779,Yakima Air Terminal-McAllister Field,Yakima,United States,YKM,KYKM,46.5682,-120.544,1095,-8,A,"Yakima, WA",59,59,59,59,4.5593220338983045,10.949152542372886,15.0,25.0,"Mon, Sep  3, 2007","Tue, Sep 25, 2007"
3596,Yuma MCAS Yuma International,Yuma,United States,YUM,KYUM,32.656578,-114.60598,216,-7,N,"Yuma, AZ",268,268,269,269,4.861940298507465,11.910447761194026,15.0,41.0,"Mon, Sep 17, 2007","Thu, Sep  6, 2007"
