airport_id,name,city,country,iata_faa,iaco,latitude,longitude,altitude,zone,dst,city_state,avg_able_landings,avg_able_takeoffs,total_landings,total_takeoffs,avg_taxi_in,avg_taxi_out,longest_taxi_in,longest_taxi_out,lng_tx_in_date,lng_tx_out_date
4355,Lehigh Valley International,Allentown,United States,ABE,KABE,40.652083,-75.440806,393,-5,A,"Allentown/Bethlehem/Easton, PA",306,305,310,310,3.8856209150326797,12.475409836065577,16.0,39.0,"Mon, Mar  8, 2010","Sun, Mar 28, 2010"
3718,Abilene Regional,Abilene,United States,ABI,KABI,32.411319,-99.681897,1791,-6,A,"Abilene, TX",208,208,213,213,4.163461538461532,9.605769230769223,14.0,42.0,"Mon, Mar 22, 2010","Sat, Mar 20, 2010"
4019,Albuquerque International Sunport,Albuquerque,United States,ABQ,KABQ,35.0402222,-106.6091944,5355,-7,A,"Albuquerque, NM",2806,2801,2819,2819,5.223806129722025,10.619064619778655,80.0,111.0,"Thu, Mar  4, 2010","Sat, Mar 27, 2010"
5715,Southwest Georgia Regional Airport,Albany,United States,ABY,KABY,31.5355,-84.1945,197,-5,A,"Albany, GA",87,87,89,89,3.4942528735632186,10.655172413793101,10.0,32.0,"Sun, Mar  7, 2010","Mon, Mar 22, 2010"
4384,Arcata,Arcata CA,United States,ACV,KACV,40.978111,-124.108611,221,-8,A,"Arcata/Eureka, CA",261,260,263,263,3.8659003831417627,8.715384615384608,8.0,33.0,"Sun, Mar  7, 2010","Sun, Mar  7, 2010"
3524,Atlantic City International,Atlantic City,United States,ACY,KACY,39.457583,-74.577167,75,-5,A,"Atlantic City, NJ",91,92,93,93,5.087912087912088,13.456521739130435,18.0,167.0,"Mon, Mar  1, 2010","Sun, Mar 21, 2010"
5959,Adak Airport,Adak Island,United States,ADK,PADK,51.878,-176.646,18,-10,A,"Adak Island, AK",6,6,8,8,4.5,6.166666666666667,7.0,8.0,"Thu, Mar 18, 2010","Sun, Mar 21, 2010"
3531,Kodiak,Kodiak,United States,ADQ,PADQ,57.749967,-152.493856,78,-9,A,"Kodiak, AK",52,52,58,58,3.5576923076923075,6.134615384615385,7.0,27.0,"Thu, Mar 25, 2010","Fri, Mar 12, 2010"
3852,Alexandria International,Alexandria,United States,AEX,KAEX,31.3274,-92.549833,89,-6,A,"Alexandria, LA",289,288,296,296,3.667820069204153,11.996527777777779,13.0,56.0,"Mon, Mar 29, 2010","Sat, Mar 27, 2010"
3658,Augusta Regional At Bush Field,Bush Field,United States,AGS,KAGS,33.369944,-81.9645,144,-5,A,"Augusta, GA",283,282,294,295,3.1236749116607774,19.932624113475185,19.0,70.0,"Fri, Mar 26, 2010","Mon, Mar 29, 2010"
3864,Albany International,Albany,United States,ALB,KALB,42.748267,-73.801692,285,-5,A,"Albany, NY",1038,1035,1055,1055,4.46435452793835,12.653140096618353,41.0,108.0,"Sat, Mar 13, 2010","Sun, Mar 28, 2010"
5718,Waterloo Regional Airport,Waterloo,United States,ALO,KALO,42.5571,-92.4003,873,-6,A,"Waterloo, IA",29,29,31,31,3.7241379310344818,12.793103448275861,12.0,23.0,"Sun, Mar  7, 2010","Thu, Mar 11, 2010"
3840,Rick Husband Amarillo International,Amarillo,United States,AMA,KAMA,35.219369,-101.705931,3607,-6,A,"Amarillo, TX",565,562,574,573,4.591150442477875,9.384341637010671,13.0,67.0,"Sun, Mar 21, 2010","Thu, Mar  4, 2010"
3774,Ted Stevens Anchorage International,Anchorage,United States,ANC,PANC,61.174361,-149.996361,152,-9,A,"Anchorage, AK",1258,1269,1275,1276,4.261526232114463,13.935382190701336,23.0,75.0,"Wed, Mar 24, 2010","Tue, Mar  9, 2010"
7001,Aspen/Pitkin County-Sardy Field,Aspen,United States,ASE,KASE,39.2232,-106.869,7820,-7,A,"Aspen, CO",601,603,665,665,3.6539101497504154,12.149253731343284,31.0,127.0,"Sun, Mar 14, 2010","Sun, Mar  7, 2010"
3682,Hartsfield Jackson Atlanta International,Atlanta,United States,ATL,KATL,33.636719,-84.428067,1026,-5,A,"Atlanta, GA",34271,34402,35186,35188,11.400046686702993,21.657548979710395,94.0,200.0,"Sat, Mar 13, 2010","Tue, Mar  2, 2010"
4047,Appleton,Appleton,United States,ATW,KATW,44.257526,-88.507576,680,-6,A,"Appleton, WI",321,321,356,356,3.7383177570093458,10.8006230529595,12.0,65.0,"Sun, Mar  7, 2010","Tue, Mar  9, 2010"
3673,Austin Bergstrom International,Austin,United States,AUS,KAUS,30.194528,-97.669889,542,-6,A,"Austin, TX",3572,3562,3590,3588,4.8496640537513995,11.749017405951705,30.0,159.0,"Sat, Mar  6, 2010","Wed, Mar 24, 2010"
4007,Asheville Regional Airport,Asheville,United States,AVL,KAVL,35.436194,-82.541806,2165,-5,A,"Asheville, NC",453,453,473,473,3.3377483443708624,17.56953642384105,17.0,69.0,"Thu, Mar  4, 2010","Fri, Mar 26, 2010"
4286,Wilkes Barre Scranton International,Scranton,United States,AVP,KAVP,41.338478,-75.723403,962,-5,A,"Scranton/Wilkes-Barre, PA",150,149,151,151,3.66,14.409395973154362,8.0,86.0,"Sat, Mar 20, 2010","Tue, Mar 30, 2010"
4039,Kalamazoo,Kalamazoo,United States,AZO,KAZO,42.234875,-85.552058,874,-5,A,"Kalamazoo, MI",370,370,373,373,3.5999999999999988,13.937837837837838,21.0,85.0,"Fri, Mar  5, 2010","Thu, Mar 25, 2010"
3825,Bradley International,Windsor Locks,United States,BDL,KBDL,41.938889,-72.683222,173,-5,A,"Hartford, CT",1978,1973,1996,1995,5.59302325581395,13.108464267612774,46.0,98.0,"Sun, Mar 14, 2010","Tue, Mar  9, 2010"
3599,Bethel,Bethel,United States,BET,PABE,60.779778,-161.838,121,-9,A,"Bethel, AK",87,87,87,87,3.3448275862068964,6.091954022988506,6.0,17.0,"Fri, Mar 19, 2010","Thu, Mar 11, 2010"
3558,Meadows Field,Bakersfield,United States,BFL,KBFL,35.433598,-119.05677,507,-8,A,"Bakersfield, CA",298,298,302,302,4.050335570469798,10.244966442953016,10.0,30.0,"Sat, Mar  6, 2010","Tue, Mar 23, 2010"
4129,Greater Binghamton-Edwin A. Link Field,Binghamton,United States,BGM,KBGM,42.208689,-75.979839,1636,-5,A,"Binghamton, NY",55,54,58,58,5.036363636363636,14.537037037037033,10.0,78.0,"Sun, Mar 14, 2010","Fri, Mar 26, 2010"
3463,Bangor International,Bangor,United States,BGR,KBGR,44.807444,-68.828139,192,-5,A,"Bangor, ME",119,121,124,124,6.226890756302521,18.140495867768593,15.0,66.0,"Wed, Mar 17, 2010","Mon, Mar 15, 2010"
3811,Birmingham International,Birmingham,United States,BHM,KBHM,33.562942,-86.75355,644,-6,A,"Birmingham, AL",1793,1787,1807,1808,3.923591745677634,13.791270285394532,50.0,148.0,"Thu, Mar 11, 2010","Wed, Mar 10, 2010"
4021,Billings Logan International Airport,Billings,United States,BIL,KBIL,45.80921,-108.537654,3652,-7,A,"Billings, MT",244,242,248,248,3.540983606557377,11.466942148760328,6.0,75.0,"Sun, Mar 14, 2010","Tue, Mar 23, 2010"
4083,Bismarck Municipal Airport,Bismarck,United States,BIS,KBIS,46.775842,-100.757931,1661,-6,A,"Bismarck/Mandan, ND",284,282,294,294,3.9049295774647894,12.677304964539006,10.0,54.0,"Sat, Mar 13, 2010","Thu, Mar 11, 2010"
6962,Branson LLC,Branson,United States,BKG,KBBG,36.531994,-93.200556,1302,-6,A,"Branson, MO",35,35,35,35,4.485714285714287,10.885714285714288,6.0,38.0,"Fri, Mar  5, 2010","Sun, Mar 21, 2010"
3777,Bellingham International,Bellingham,United States,BLI,KBLI,48.792694,-122.537528,170,-8,A,"Bellingham, WA",12,12,12,12,5.583333333333333,12.416666666666666,8.0,25.0,"Sun, Mar 14, 2010","Thu, Mar 11, 2010"
4037,Central Illinois Regional,Bloomington,United States,BMI,KBMI,40.477111,-88.915917,871,-6,A,"Bloomington/Normal, IL",339,338,343,343,3.4424778761061945,10.831360946745566,25.0,88.0,"Mon, Mar  8, 2010","Sat, Mar 13, 2010"
3690,Nashville International,Nashville,United States,BNA,KBNA,36.124472,-86.678194,599,-6,A,"Nashville, TN",4458,4452,4514,4513,5.99573799910274,12.066037735849044,38.0,106.0,"Sun, Mar 21, 2010","Sun, Mar 14, 2010"
3495,Boise Air Terminal,Boise,United States,BOI,KBOI,43.564361,-116.222861,2871,-7,A,"Boise, ID",1161,1157,1169,1168,3.571920757967268,10.291270527225583,17.0,83.0,"Sat, Mar  6, 2010","Tue, Mar 23, 2010"
3448,General Edward Lawrence Logan International,Boston,United States,BOS,KBOS,42.364347,-71.005181,19,-5,A,"Boston, MA",9380,9393,9637,9637,6.960980810234556,18.486213137442824,65.0,132.0,"Mon, Mar  1, 2010","Wed, Mar  3, 2010"
5725,Brunswick Golden Isles Airport,Brunswick,United States,BQK,KBQK,31.2588,-81.4665,26,-5,A,"Brunswick, GA",79,79,84,84,3.088607594936709,18.063291139240516,6.0,40.0,"Sun, Mar 28, 2010","Thu, Mar 18, 2010"
3738,Brownsville South Padre Island International,Brownsville,United States,BRO,KBRO,25.906833,-97.425861,22,-6,A,"Brownsville, TX",204,205,207,207,4.220588235294115,10.717073170731707,8.0,55.0,"Fri, Mar 19, 2010","Sun, Mar 21, 2010"
3571,Wiley Post Will Rogers Memorial,Barrow,United States,BRW,PABR,71.285446,-156.766003,44,-9,A,"Barrow, AK",69,69,70,70,4.043478260869565,4.536231884057972,20.0,11.0,"Thu, Mar 25, 2010","Thu, Mar 11, 2010"
4022,Bert Mooney Airport,Butte,United States,BTM,KBTM,45.954806,-112.497472,5550,-7,A,"Butte, MT",61,61,62,62,4.098360655737705,14.524590163934429,6.0,43.0,"Sat, Mar 27, 2010","Wed, Mar 17, 2010"
3846,Baton Rouge Metro-Ryan Field,Baton Rouge,United States,BTR,KBTR,30.533167,-91.149639,70,-6,A,"Baton Rouge, LA",725,720,738,740,4.110344827586208,12.011111111111111,27.0,97.0,"Mon, Mar 15, 2010","Thu, Mar 11, 2010"
3711,Burlington International,Burlington,United States,BTV,KBTV,44.471861,-73.153278,335,-5,A,"Burlington, VT",451,448,473,473,4.964523281596452,17.944196428571423,32.0,109.0,"Fri, Mar 12, 2010","Mon, Mar 22, 2010"
3820,Buffalo Niagara International,Buffalo,United States,BUF,KBUF,42.940525,-78.732167,724,-5,A,"Buffalo, NY",2227,2224,2259,2259,4.609339919173784,13.103866906474819,44.0,132.0,"Fri, Mar 12, 2010","Mon, Mar 22, 2010"
3644,Bob Hope,Burbank,United States,BUR,KBUR,34.200667,-118.358667,778,-8,A,"Burbank, CA",2274,2274,2323,2324,3.1517150395778386,10.808267370272644,48.0,114.0,"Sun, Mar 21, 2010","Thu, Mar 18, 2010"
3849,Baltimore Washington International,Baltimore,United States,BWI,KBWI,39.175361,-76.668333,146,-5,A,"Baltimore, MD",8579,8585,8655,8655,5.48117496211679,12.448456610366922,60.0,117.0,"Sat, Mar 13, 2010","Sun, Mar 14, 2010"
4020,Gallatin Field,Bozeman,United States,BZN,KBZN,45.777643,-111.160151,4500,-7,A,"Bozeman, MT",403,404,406,407,5.481389578163772,14.25,55.0,74.0,"Sat, Mar 20, 2010","Sat, Mar 20, 2010"
3561,Columbia Metropolitan,Colombia,United States,CAE,KCAE,33.938833,-81.119528,236,-5,A,"Columbia, SC",731,730,741,742,3.6675786593707267,15.653424657534256,16.0,76.0,"Thu, Mar 11, 2010","Tue, Mar  2, 2010"
4112,Akron Canton Regional Airport,Akron,United States,CAK,KCAK,40.9160833,-81.4421944,1228,-5,A,"Akron, OH",765,763,772,772,4.335947712418307,13.960681520314553,19.0,112.0,"Sun, Mar  7, 2010","Fri, Mar 26, 2010"
3824,Cedar City Regional,Cedar City,United States,CDC,KCDC,37.700967,-113.098847,5622,-7,A,"Cedar City, UT",53,53,54,54,2.8867924528301887,10.71698113207547,5.0,32.0,"Wed, Mar 10, 2010","Wed, Mar 31, 2010"
3610,Merle K. Mudhole Smith,Cordova,United States,CDV,PACV,60.491778,-145.477556,48,-9,A,"Cordova, AK",59,59,62,62,3.1016949152542375,9.338983050847462,5.0,64.0,"Fri, Mar 12, 2010","Tue, Mar  9, 2010"
5727,Del Norte County Airport,Crescent City,United States,CEC,KCEC,41.7802,-124.237,57,-8,A,"Crescent City, CA",83,83,85,85,3.566265060240964,11.795180722891565,6.0,50.0,"Thu, Mar 25, 2010","Sun, Mar  7, 2010"
3578,Lovell Field,Chattanooga,United States,CHA,KCHA,35.035278,-85.203808,683,-5,A,"Chattanooga, TN",422,420,437,437,4.31990521327014,17.814285714285703,29.0,83.0,"Fri, Mar 12, 2010","Fri, Mar 12, 2010"
4015,Charlottesville-Albemarle,Charlottesville VA,United States,CHO,KCHO,38.138639,-78.452861,639,-5,A,"Charlottesville, VA",118,117,120,120,3.4152542372881345,11.700854700854702,8.0,50.0,"Sat, Mar 13, 2010","Sat, Mar 13, 2010"
3806,Charleston AFB International,Charleston,United States,CHS,KCHS,32.898647,-80.040528,45,-5,A,"Charleston, SC",971,969,993,992,6.062821833161691,14.344685242518064,29.0,98.0,"Sat, Mar 13, 2010","Fri, Mar 12, 2010"
3710,Chico Municipal,Chico,United States,CIC,KCIC,39.795383,-121.858422,238,-8,A,"Chico, CA",118,118,120,120,3.26271186440678,10.423728813559322,6.0,44.0,"Wed, Mar 24, 2010","Wed, Mar 10, 2010"
4043,Cedar Rapids,Cedar Rapids,United States,CID,KCID,41.884694,-91.710806,869,-6,A,"Cedar Rapids/Iowa City, IA",641,640,650,649,4.43525741029641,11.090625,31.0,86.0,"Fri, Mar 19, 2010","Thu, Mar 25, 2010"
4088,McClellan-Palomar Airport,Carlsbad,United States,CLD,KCRQ,33.0742,-117.1648,328,-8,A,"Carlsbad, CA",170,169,170,170,3.6,8.899408284023668,6.0,42.0,"Fri, Mar  5, 2010","Sun, Mar 28, 2010"
3486,Cleveland Hopkins International,Cleveland,United States,CLE,KCLE,41.411689,-81.849794,791,-5,A,"Cleveland, OH",4652,4659,4707,4709,5.68529664660361,14.000858553337636,32.0,105.0,"Fri, Mar 19, 2010","Mon, Mar 22, 2010"
3715,Easterwood Field,College Station,United States,CLL,KCLL,30.588583,-96.363833,321,-6,A,"College Station/Bryan, TX",90,90,93,93,3.6333333333333333,8.144444444444447,6.0,23.0,"Fri, Mar 19, 2010","Wed, Mar  3, 2010"
3876,Charlotte Douglas International,Charlotte,United States,CLT,KCLT,35.214,-80.943139,748,-5,A,"Charlotte, NC",9780,9792,9933,9926,7.571779141104293,19.29585375816994,118.0,145.0,"Sun, Mar 28, 2010","Sun, Mar 28, 2010"
3759,Port Columbus International,Columbus,United States,CMH,KCMH,39.997972,-82.891889,815,-5,A,"Columbus, OH",2543,2540,2564,2565,4.357845064883999,13.03188976377951,23.0,91.0,"Mon, Mar 22, 2010","Fri, Mar 26, 2010"
4049,Champaign,Champaign,United States,CMI,KCMI,40.03925,-88.278056,754,-6,A,"Champaign/Urbana, IL",200,223,204,228,4.220000000000002,12.757847533632287,12.0,72.0,"Mon, Mar  8, 2010","Wed, Mar 10, 2010"
5732,Houghton County Memorial Airport,Hancock,United States,CMX,KCMX,47.1684,-88.4891,1095,-5,A,"Hancock/Houghton, MI",59,59,62,62,4.033898305084746,10.64406779661017,6.0,27.0,"Thu, Mar 11, 2010","Sat, Mar 13, 2010"
4344,Yellowstone Regional,Cody,United States,COD,KCOD,44.520194,-109.023806,5102,-7,A,"Cody, WY",93,92,93,93,2.935483870967742,10.891304347826088,8.0,27.0,"Thu, Mar 18, 2010","Thu, Mar  4, 2010"
3819,City Of Colorado Springs Municipal,Colorado Springs,United States,COS,KCOS,38.805805,-104.700778,6187,-7,A,"Colorado Springs, CO",1026,1033,1044,1045,5.792397660818714,15.907066795740548,30.0,121.0,"Tue, Mar 16, 2010","Sun, Mar  7, 2010"
3719,Columbia Regional,Columbia,United States,COU,KCOU,38.818094,-92.219631,889,-6,A,"Columbia, MO",29,29,31,31,7.724137931034483,13.931034482758621,13.0,35.0,"Fri, Mar  5, 2010","Fri, Mar 12, 2010"
3872,Natrona County International,Casper,United States,CPR,KCPR,42.908,-106.464417,5347,-7,A,"Casper, WY",178,177,182,182,3.6292134831460676,11.22598870056497,10.0,49.0,"Mon, Mar 22, 2010","Sat, Mar  6, 2010"
3744,Corpus Christi International,Corpus Christi,United States,CRP,KCRP,27.770361,-97.501222,44,-6,A,"Corpus Christi, TX",675,673,680,680,4.1022222222222195,10.114413075780096,35.0,92.0,"Sun, Mar 21, 2010","Sat, Mar 27, 2010"
4285,Yeager,Charleston,United States,CRW,KCRW,38.373147,-81.593189,981,-5,A,"Charleston/Dunbar, WV",271,270,276,276,3.199261992619926,13.785185185185185,12.0,46.0,"Tue, Mar  2, 2010","Wed, Mar 24, 2010"
4255,Columbus Metropolitan Airport,Columbus,United States,CSG,KCSG,32.5163333,-84.9388611,397,-5,A,"Columbus, GA",114,114,119,119,2.736842105263157,14.771929824561404,5.0,91.0,"Mon, Mar 15, 2010","Mon, Mar 22, 2010"
3488,Cincinnati Northern Kentucky International,Cincinnati,United States,CVG,KCVG,39.048836,-84.667822,896,-5,A,"Cincinnati, OH",4008,4025,4065,4063,6.006237524950105,15.699378881987574,43.0,99.0,"Thu, Mar 11, 2010","Tue, Mar  9, 2010"
4045,Central Wisconsin,Wassau,United States,CWA,KCWA,44.772726,-89.646635,840,-6,A,"Mosinee, WI",279,278,293,294,3.817204301075269,9.24460431654677,10.0,39.0,"Sun, Mar 21, 2010","Sun, Mar 28, 2010"
3950,Daytona Beach International,Daytona Beach,United States,DAB,KDAB,29.179917,-81.058056,34,-5,A,"Daytona Beach, FL",275,273,283,283,4.258181818181819,16.66666666666669,14.0,61.0,"Sat, Mar 20, 2010","Wed, Mar 31, 2010"
3502,Dallas Love Field,Dallas,United States,DAL,KDAL,32.847111,-96.851778,487,-6,A,"Dallas, TX",3969,3982,4053,4054,3.7724867724867726,9.378201908588686,40.0,73.0,"Wed, Mar 24, 2010","Wed, Mar 24, 2010"
3627,James M. Cox Dayton International,Dayton,United States,DAY,KDAY,39.902375,-84.219375,1009,-5,A,"Dayton, OH",1078,1077,1098,1098,4.915584415584412,14.388115134633239,25.0,133.0,"Fri, Mar 26, 2010","Fri, Mar 26, 2010"
4388,Dubuque Regional,Dubuque IA,United States,DBQ,KDBQ,42.402,-90.709472,1076,-6,A,"Dubuque, IA",85,84,89,89,3.4705882352941178,11.428571428571425,6.0,101.0,"Thu, Mar  4, 2010","Sat, Mar 13, 2010"
3520,Ronald Reagan Washington National,Washington,United States,DCA,KDCA,38.852083,-77.037722,15,-5,A,"Washington, DC",6597,6598,6746,6745,4.895255419129913,17.444073961806637,63.0,138.0,"Fri, Mar 12, 2010","Mon, Mar 22, 2010"
3751,Denver International,Denver,United States,DEN,KDEN,39.861656,-104.673178,5431,-7,A,"Denver, CO",19795,19841,20229,20228,8.722606718868338,15.613779547401894,193.0,272.0,"Tue, Mar 23, 2010","Tue, Mar 23, 2010"
3670,Dallas Fort Worth International,Dallas-fort Worth,United States,DFW,KDFW,32.896828,-97.037997,607,-6,A,"Dallas/Fort Worth, TX",22649,22670,22975,22975,9.590092277804768,15.575606528451699,76.0,190.0,"Sun, Mar 21, 2010","Sat, Mar 20, 2010"
3739,Dothan Regional,Dothan,United States,DHN,KDHN,31.321339,-85.449628,401,-6,A,"Dothan, AL",114,114,120,120,3.2719298245614037,15.675438596491228,7.0,55.0,"Wed, Mar 10, 2010","Mon, Mar 22, 2010"
3598,Duluth International,Duluth,United States,DLH,KDLH,46.842091,-92.193649,1428,-6,A,"Duluth, MN",237,236,242,242,5.2320675105485215,13.466101694915254,20.0,125.0,"Wed, Mar 24, 2010","Thu, Mar 25, 2010"
3713,Durango La Plata County,Durango,United States,DRO,KDRO,37.151516,-107.75377,6685,-7,A,"Durango, CO",268,267,270,270,5.007462686567164,11.685393258426963,10.0,37.0,"Wed, Mar  3, 2010","Mon, Mar 15, 2010"
3729,Des Moines International,Des Moines,United States,DSM,KDSM,41.533972,-93.663083,958,-6,A,"Des Moines, IA",1165,1166,1194,1194,4.4678111587982805,12.307032590051458,31.0,124.0,"Sun, Mar  7, 2010","Sat, Mar 13, 2010"
3645,Detroit Metro Wayne County,Detroit,United States,DTW,KDTW,42.212444,-83.353389,645,-5,A,"Detroit, MI",13038,13073,13210,13212,10.746050007669856,18.60820010709093,69.0,134.0,"Mon, Mar  1, 2010","Fri, Mar 12, 2010"
5735,Chippewa Valley Regional Airport,Eau Claire,United States,EAU,KEAU,44.8658,-91.4843,913,-6,A,"Eau Claire, WI",86,88,90,89,3.941860465116279,12.93181818181818,15.0,37.0,"Tue, Mar  9, 2010","Mon, Mar  8, 2010"
4250,Eagle County Regional,Vail,United States,EGE,KEGE,39.642556,-106.917694,6540,-7,A,"Eagle, CO",457,457,474,474,4.708971553610508,16.142231947483573,34.0,102.0,"Mon, Mar  1, 2010","Fri, Mar 19, 2010"
5736,Elko Regional Airport,Elko,United States,EKO,KEKO,40.8249,-115.792,5140,-8,A,"Elko, NV",119,119,120,120,4.226890756302518,13.285714285714281,10.0,35.0,"Wed, Mar 17, 2010","Tue, Mar  9, 2010"
3946,Elmira Corning Regional,Elmira,United States,ELM,KELM,42.159889,-76.891611,954,-5,A,"Elmira/Corning, NY",112,112,112,112,5.044642857142859,14.705357142857142,14.0,37.0,"Mon, Mar 22, 2010","Mon, Mar 15, 2010"
3559,El Paso International,El Paso,United States,ELP,KELP,31.80725,-106.377583,3958,-7,A,"El Paso, TX",1809,1807,1823,1823,3.933665008291879,10.801881571665753,28.0,72.0,"Wed, Mar 17, 2010","Sat, Mar 20, 2010"
4276,Erie International-Tom Ridge Field,Erie,United States,ERI,KERI,42.082022,-80.176217,733,-5,A,"Erie, PA",115,115,120,120,5.373913043478261,16.08695652173914,11.0,48.0,"Thu, Mar  4, 2010","Wed, Mar 10, 2010"
4099,Mahlon Sweet Field,Eugene,United States,EUG,KEUG,44.124583,-123.211972,374,-8,A,"Eugene, OR",405,405,409,409,3.414814814814815,10.629629629629624,9.0,65.0,"Sat, Mar 20, 2010","Fri, Mar 12, 2010"
4018,Evansville Regional,Evansville,United States,EVV,KEVV,38.036997,-87.532364,418,-6,A,"Evansville, IN",315,314,321,321,3.9174603174603173,12.22292993630573,10.0,62.0,"Wed, Mar 24, 2010","Fri, Mar 12, 2010"
3730,Craven County Regional,New Bern,United States,EWN,KEWN,35.072972,-77.042944,18,-5,A,"New Bern/Morehead/Beaufort, NC",57,57,58,58,2.2807017543859636,9.192982456140353,6.0,26.0,"Sat, Mar 13, 2010","Wed, Mar  3, 2010"
3494,Newark Liberty International,Newark,United States,EWR,KEWR,40.6925,-74.168667,18,-5,A,"Newark, NJ",9596,9605,9891,9890,8.894330971237988,20.963248308172872,76.0,109.0,"Sat, Mar 13, 2010","Thu, Mar 25, 2010"
3875,Key West International,Key West,United States,EYW,KEYW,24.556111,-81.759556,3,-5,A,"Key West, FL",119,119,122,122,4.260504201680672,9.521008403361348,11.0,24.0,"Sat, Mar 13, 2010","Tue, Mar 30, 2010"
3832,Fairbanks International,Fairbanks,United States,FAI,PAFA,64.815114,-147.856267,434,-9,A,"Fairbanks, AK",337,337,337,337,3.1810089020771515,11.884272997032635,12.0,35.0,"Sat, Mar 27, 2010","Mon, Mar 15, 2010"
4292,Hector International Airport,Fargo,United States,FAR,KFAR,46.92065,-96.8157639,902,-6,A,"Fargo, ND",429,427,430,430,4.687645687645684,14.360655737704919,9.0,82.0,"Wed, Mar  3, 2010","Sat, Mar 20, 2010"
3687,Fresno Yosemite International,Fresno,United States,FAT,KFAT,36.776194,-119.71814,336,-8,A,"Fresno, CA",1056,1056,1065,1065,4.373106060606062,10.649621212121216,17.0,37.0,"Tue, Mar 16, 2010","Sat, Mar 20, 2010"
5738,Fayetteville Regional-Grannis Field,Fayetteville,United States,FAY,KFAY,34.9912,-78.8803,189,-5,A,"Fayetteville, NC",292,294,300,300,4.3184931506849304,12.18027210884354,14.0,83.0,"Wed, Mar 17, 2010","Thu, Mar 11, 2010"
4127,Glacier Park International,Kalispell,United States,FCA,KFCA,48.310472,-114.256,2977,-7,A,"Kalispell, MT",124,124,124,124,3.870967741935484,12.10483870967742,8.0,34.0,"Sun, Mar 14, 2010","Wed, Mar 31, 2010"
4261,Flagstaff Pulliam Airport,Flagstaff,United States,FLG,KFLG,35.140318,-111.6692392,7015,-7,N,"Flagstaff, AZ",121,120,128,128,6.454545454545454,17.133333333333333,33.0,54.0,"Fri, Mar 12, 2010","Sun, Mar  7, 2010"
3533,Fort Lauderdale Hollywood International,Fort Lauderdale,United States,FLL,KFLL,26.072583,-80.15275,9,-5,A,"Fort Lauderdale, FL",6106,6098,6163,6159,5.52833278742221,17.555919973761885,94.0,128.0,"Fri, Mar 12, 2010","Thu, Mar 11, 2010"
3879,Florence Regional,Florence,United States,FLO,KFLO,34.185361,-79.723889,146,-5,A,"Florence, SC",3,4,3,4,5.666666666666667,23.75,7.0,37.0,"Mon, Mar  1, 2010","Mon, Mar  1, 2010"
4089,Bishop International,Flint,United States,FNT,KFNT,42.965424,-83.743629,782,-5,A,"Flint, MI",644,643,648,648,3.7562111801242235,12.710730948678076,18.0,118.0,"Tue, Mar  2, 2010","Tue, Mar  2, 2010"
4009,Sioux Falls,Sioux Falls,United States,FSD,KFSD,43.582014,-96.741914,1429,-6,A,"Sioux Falls, SD",369,372,387,388,4.514905149051492,13.862903225806454,24.0,53.0,"Wed, Mar 24, 2010","Fri, Mar  5, 2010"
3437,Fort Smith Regional,Fort Smith,United States,FSM,KFSM,35.336583,-94.367444,469,-6,A,"Fort Smith, AR",89,89,93,93,3.9887640449438204,8.617977528089888,10.0,60.0,"Mon, Mar  1, 2010","Wed, Mar 10, 2010"
4041,Fort Wayne,Fort Wayne,United States,FWA,KFWA,40.978472,-85.195139,815,-5,A,"Fort Wayne, IN",447,445,452,452,4.281879194630876,13.573033707865164,22.0,80.0,"Mon, Mar 15, 2010","Fri, Mar 12, 2010"
4296,Gillette-Campbell County Airport,Gillette,United States,GCC,KGCC,44.3489167,-105.5393611,4365,-7,A,"Gillette, WY",121,119,124,124,4.2975206611570265,12.109243697478995,17.0,40.0,"Sun, Mar 14, 2010","Thu, Mar  4, 2010"
3467,Spokane International,Spokane,United States,GEG,KGEG,47.619861,-117.533833,2376,-8,A,"Spokane, WA",1116,1117,1128,1128,4.083333333333334,11.084153983885406,27.0,89.0,"Fri, Mar  5, 2010","Mon, Mar  1, 2010"
3442,Grand Forks International,Grand Forks,United States,GFK,KGFK,47.949256,-97.176111,845,-6,A,"Grand Forks, ND",58,58,62,62,3.9482758620689653,15.844827586206895,8.0,117.0,"Tue, Mar 30, 2010","Sat, Mar  6, 2010"
3465,East Texas Regional,Longview,United States,GGG,KGGG,32.384014,-94.711486,365,-6,A,"Longview, TX",60,61,62,62,5.1499999999999995,9.065573770491806,12.0,68.0,"Mon, Mar  8, 2010","Mon, Mar  8, 2010"
4063,Grand Junction Regional,Grand Junction,United States,GJT,KGJT,39.122413,-108.526735,4858,-7,A,"Grand Junction, CO",436,434,443,444,3.3279816513761467,10.39861751152074,17.0,36.0,"Sat, Mar  6, 2010","Sat, Mar 20, 2010"
3472,Gainesville Regional,Gainesville,United States,GNV,KGNV,29.690056,-82.271778,152,-5,A,"Gainesville, FL",201,201,205,205,2.8159203980099514,12.65671641791045,7.0,48.0,"Thu, Mar  4, 2010","Thu, Mar 11, 2010"
4038,Gulfport-Biloxi,Gulfport,United States,GPT,KGPT,30.407278,-89.070111,28,-6,A,"Gulfport/Biloxi, MS",612,610,624,624,4.300653594771237,12.877049180327855,20.0,106.0,"Sun, Mar 14, 2010","Fri, Mar 12, 2010"
3653,Austin Straubel International,Green Bay,United States,GRB,KGRB,44.485072,-88.129589,695,-6,A,"Green Bay, WI",483,482,510,510,3.6811594202898563,10.678423236514526,32.0,98.0,"Sun, Mar 21, 2010","Wed, Mar 10, 2010"
3775,Robert Gray AAF,Killeen,United States,GRK,KGRK,31.06725,-97.828917,1015,-6,A,"Killeen, TX",294,294,298,298,3.772108843537415,8.867346938775505,23.0,79.0,"Sun, Mar  7, 2010","Sat, Mar 20, 2010"
3685,Gerald R. Ford International,Grand Rapids,United States,GRR,KGRR,42.880833,-85.522806,794,-5,A,"Grand Rapids, MI",1194,1190,1209,1208,4.4112227805695134,13.221848739495801,31.0,119.0,"Tue, Mar  2, 2010","Wed, Mar 10, 2010"
4008,Piedmont Triad,Greensboro,United States,GSO,KGSO,36.09775,-79.937306,925,-5,A,"Greensboro/High Point, NC",702,703,726,726,4.062678062678068,17.325746799431005,13.0,83.0,"Thu, Mar 11, 2010","Wed, Mar  3, 2010"
4034,Greenville-Spartanburg International,Greenville,United States,GSP,KGSP,34.895556,-82.218889,964,-5,A,"Greer, SC",875,872,894,893,3.3771428571428577,14.673165137614676,17.0,100.0,"Thu, Mar  4, 2010","Thu, Mar 11, 2010"
3880,Great Falls International,Great Falls,United States,GTF,KGTF,47.482,-111.370689,3677,-7,A,"Great Falls, MT",146,146,146,146,4.219178082191782,10.328767123287669,8.0,30.0,"Mon, Mar  1, 2010","Wed, Mar 17, 2010"
4273,Golden Triangle Regional Airport,Columbus Mississippi,United States,GTR,KGTR,33.450333,-88.591361,264,-6,A,"Columbus, MS",55,55,58,58,3.4545454545454546,18.927272727272726,10.0,43.0,"Mon, Mar  8, 2010","Sun, Mar 21, 2010"
7051,Gunnison - Crested Butte,Gunnison,United States,GUC,KGUC,38.533889,-106.933056,7678,-7,A,"Gunnison, CO",147,147,153,152,2.360544217687075,11.551020408163268,13.0,124.0,"Mon, Mar  8, 2010","Sun, Mar  7, 2010"
4339,Yampa Valley,Hayden,United States,HDN,KHDN,40.481181,-107.21766,6602,-7,A,"Hayden, CO",308,307,316,316,4.461038961038963,14.452768729641697,53.0,79.0,"Sat, Mar 20, 2010","Tue, Mar 23, 2010"
3504,Helena Regional,Helena,United States,HLN,KHLN,46.606806,-111.98275,3877,-7,A,"Helena, MT",121,121,124,124,3.4297520661157024,11.900826446280993,6.0,26.0,"Fri, Mar 12, 2010","Wed, Mar 31, 2010"
3728,Honolulu International,Honolulu,United States,HNL,PHNL,21.318681,-157.922428,13,-10,N,"Honolulu, HI",4429,4430,4438,4438,6.227590878302101,13.61309255079007,40.0,70.0,"Mon, Mar  1, 2010","Thu, Mar  4, 2010"
3566,William P. Hobby,Houston,United States,HOU,KHOU,29.645419,-95.278889,46,-6,A,"Houston, TX",4395,4398,4505,4504,5.585437997724694,9.621873578899491,44.0,90.0,"Fri, Mar 26, 2010","Fri, Mar 12, 2010"
3589,Westchester County,White Plains,United States,HPN,KHPN,41.066959,-73.707575,439,-5,A,"White Plains, NY",942,937,971,971,5.468152866242033,14.09498399146212,74.0,148.0,"Thu, Mar 25, 2010","Fri, Mar 12, 2010"
3560,Valley International,Harlingen,United States,HRL,KHRL,26.2285,-97.654389,36,-6,A,"Harlingen/San Benito, TX",450,452,466,466,3.037777777777779,8.570796460176997,8.0,72.0,"Tue, Mar 16, 2010","Thu, Mar 11, 2010"
4113,Huntsville International Airport-Carl T. Jones Field,Huntsville,United States,HSV,KHSV,34.6371944,-86.7750556,629,-6,A,"Huntsville, AL",855,853,871,871,4.885380116959064,15.86752637749122,16.0,163.0,"Mon, Mar  1, 2010","Tue, Mar  2, 2010"
3714,Washington Dulles International,Washington,United States,IAD,KIAD,38.944533,-77.455811,313,-5,A,"Washington, DC",6175,6173,6248,6245,7.187368421052627,17.69820184675192,54.0,165.0,"Mon, Mar 29, 2010","Mon, Mar 22, 2010"
3550,George Bush Intercontinental Houston,Houston,United States,IAH,KIAH,29.984433,-95.341442,97,-6,A,"Houston, TX",15532,15539,15640,15637,7.661151171774401,16.45936031919687,65.0,148.0,"Fri, Mar 12, 2010","Fri, Mar 12, 2010"
3457,Wichita Mid Continent,Wichita,United States,ICT,KICT,37.649944,-97.433056,1333,-6,A,"Wichita, KS",1017,1013,1038,1038,4.777777777777777,12.359328726554791,22.0,83.0,"Wed, Mar 17, 2010","Sat, Mar 20, 2010"
4100,Idaho Falls Regional,Idaho Falls,United States,IDA,KIDA,43.514556,-112.07075,4744,-7,A,"Idaho Falls, ID",185,183,186,186,3.8,14.825136612021858,7.0,43.0,"Sun, Mar  7, 2010","Tue, Mar 23, 2010"
3845,Wilmington International,Wilmington,United States,ILM,KILM,34.270615,-77.902569,32,-5,A,"Wilmington, NC",289,288,298,298,3.944636678200692,11.284722222222221,26.0,35.0,"Mon, Mar 15, 2010","Sun, Mar 28, 2010"
3585,Indianapolis International,Indianapolis,United States,IND,KIND,39.717331,-86.294383,797,-5,A,"Indianapolis, IN",3491,3494,3528,3530,5.58350042967631,13.750429307384088,57.0,118.0,"Sun, Mar 21, 2010","Sat, Mar 20, 2010"
3689,Imperial County,Imperial,United States,IPL,KIPL,32.834219,-115.578744,-54,-8,A,"El Centro, CA",62,62,62,62,2.935483870967742,11.290322580645162,6.0,49.0,"Mon, Mar 22, 2010","Wed, Mar 10, 2010"
3857,Long Island MacArthur,Islip,United States,ISP,KISP,40.79525,-73.100222,99,-5,A,"Islip, NY",717,724,732,731,4.278940027894001,9.031767955801106,16.0,70.0,"Wed, Mar  3, 2010","Wed, Mar  3, 2010"
3947,Ithaca Tompkins Regional,Ithaca,United States,ITH,KITH,42.491028,-76.458444,1099,-5,A,"Ithaca/Cortland, NY",61,61,62,62,6.885245901639344,19.934426229508198,11.0,49.0,"Sat, Mar 13, 2010","Mon, Mar  1, 2010"
3415,Hilo International,Hilo,United States,ITO,PHTO,19.721375,-155.048469,38,-10,N,"Hilo, HI",607,607,607,607,5.296540362438221,8.502471169686975,13.0,21.0,"Sat, Mar  6, 2010","Mon, Mar 22, 2010"
7120,Inyokern Airport,Inyokern,United States,IYK,KIYK,35.658889,-117.829444,2455,-8,A,"Inyokern, CA",88,86,89,89,3.727272727272727,9.523255813953488,7.0,19.0,"Fri, Mar  5, 2010","Fri, Mar 26, 2010"
4027,Jackson Hole Airport,Jacksn Hole,United States,JAC,KJAC,43.60733333,-110.73775,6451,-7,A,"Jackson, WY",302,302,307,307,3.6754966887417218,17.831125827814592,10.0,101.0,"Thu, Mar  4, 2010","Sat, Mar 20, 2010"
3580,Jackson Evers International,Jackson,United States,JAN,KJAN,32.311167,-90.075889,346,-6,A,"Jackson/Vicksburg, MS",1054,1053,1078,1078,3.936432637571156,11.998100664767339,40.0,76.0,"Mon, Mar 22, 2010","Fri, Mar 26, 2010"
3712,Jacksonville International,Jacksonville,United States,JAX,KJAX,30.494056,-81.687861,30,-5,A,"Jacksonville, FL",2364,2361,2394,2394,4.944585448392558,13.17873782295638,54.0,116.0,"Thu, Mar 11, 2010","Sun, Mar 14, 2010"
3797,John F. Kennedy International,New York,United States,JFK,KJFK,40.639751,-73.778925,13,-5,A,"New York, NY",9607,9634,10080,10075,10.965337774539396,31.685696491592296,123.0,176.0,"Tue, Mar  9, 2010","Fri, Mar 12, 2010"
3492,Juneau International,Juneau,United States,JNU,PAJN,58.354972,-134.576278,21,-9,A,"Juneau, AK",295,298,306,306,3.922033898305085,15.053691275167786,12.0,78.0,"Fri, Mar  5, 2010","Tue, Mar 23, 2010"
3514,Kona International At Keahole,Kona,United States,KOA,PHKO,19.738767,-156.045631,47,-10,N,"Kona, HI",983,982,985,985,4.4720244150559525,9.59775967413444,19.0,33.0,"Fri, Mar 12, 2010","Mon, Mar 29, 2010"
3808,Ketchikan International,Ketchikan,United States,KTN,PAKT,55.355556,-131.71375,88,-9,A,"Ketchikan, AK",182,183,186,186,4.291208791208787,13.683060109289617,12.0,65.0,"Thu, Mar 11, 2010","Wed, Mar 24, 2010"
3544,Capital City,Lansing,United States,LAN,KLAN,42.7787,-84.587357,861,-5,A,"Lansing, MI",363,363,371,371,3.236914600550964,13.137741046831955,14.0,61.0,"Sun, Mar 21, 2010","Mon, Mar 22, 2010"
3877,McCarran International,Las Vegas,United States,LAS,KLAS,36.080056,-115.15225,2141,-8,A,"Las Vegas, NV",12124,12119,12189,12188,6.583305839656864,14.19589075006189,56.0,87.0,"Thu, Mar 18, 2010","Mon, Mar  1, 2010"
3484,Los Angeles International,Los Angeles,United States,LAX,KLAX,33.942536,-118.408075,126,-8,A,"Los Angeles, CA",16648,16663,16842,16844,8.754204709274417,13.993038468463055,66.0,138.0,"Sun, Mar 28, 2010","Mon, Mar  1, 2010"
3829,Lubbock Preston Smith International,Lubbock,United States,LBB,KLBB,33.663639,-101.822778,3282,-6,A,"Lubbock, TX",720,720,732,732,3.762499999999999,9.818055555555564,16.0,77.0,"Mon, Mar 15, 2010","Sun, Mar 21, 2010"
3513,Lake Charles Regional,Lake Charles,United States,LCH,KLCH,30.126112,-93.223335,15,-6,A,"Lake Charles, LA",100,101,103,104,3.86,10.762376237623764,7.0,54.0,"Wed, Mar 10, 2010","Fri, Mar 12, 2010"
4017,Blue Grass,Lexington KY,United States,LEX,KLEX,38.0365,-84.605889,979,-5,A,"Lexington, KY",763,767,781,780,4.465268676277843,14.851368970013043,15.0,81.0,"Thu, Mar 11, 2010","Wed, Mar 17, 2010"
3493,Lafayette Regional,Lafayette,United States,LFT,KLFT,30.205278,-91.987611,43,-6,A,"Lafayette, LA",496,496,507,507,4.487903225806458,12.64516129032258,12.0,87.0,"Tue, Mar 23, 2010","Thu, Mar 11, 2010"
3697,LaGuardia Airport,New York,United States,LGA,KLGA,40.777245,-73.872608,22,-5,A,"New York, NY",8146,8143,8434,8433,7.829364105082238,24.63649760530517,58.0,126.0,"Mon, Mar 15, 2010","Sat, Mar 13, 2010"
3582,Long Beach,Long Beach,United States,LGB,KLGB,33.817722,-118.151611,60,-8,A,"Long Beach, CA",1145,1145,1157,1156,6.24279475982533,15.229694323144106,58.0,89.0,"Sun, Mar  7, 2010","Sat, Mar 20, 2010"
3602,Lihue,Lihue,United States,LIH,PHLI,21.975983,-159.338958,153,-10,N,"Lihue, HI",955,952,958,958,5.424083769633509,8.013655462184875,16.0,91.0,"Wed, Mar 31, 2010","Fri, Mar 19, 2010"
3660,Adams Field,Little Rock,United States,LIT,KLIT,34.729444,-92.224306,262,-6,A,"Little Rock, AR",1672,1668,1696,1697,4.94318181818182,11.142685851318944,45.0,117.0,"Thu, Mar 11, 2010","Sun, Mar 21, 2010"
5750,Klamath Falls Airport,Klamath Falls,United States,LMT,KLMT,42.1561,-121.733,4095,-8,A,"Klamath Falls, OR",122,123,124,124,3.2950819672131146,10.682926829268297,8.0,51.0,"Wed, Mar 17, 2010","Tue, Mar 30, 2010"
3543,Lincoln,Lincoln,United States,LNK,KLNK,40.850971,-96.75925,1219,-6,A,"Lincoln, NE",237,237,240,240,4.569620253164557,10.679324894514766,30.0,47.0,"Fri, Mar 12, 2010","Fri, Mar 19, 2010"
3691,Laredo International,Laredo,United States,LRD,KLRD,27.54375,-99.461556,508,-6,A,"Laredo, TX",220,219,222,222,3.4045454545454557,10.47488584474886,11.0,131.0,"Sun, Mar 14, 2010","Wed, Mar 24, 2010"
4044,LaCrosse Municipal,LaCrosse,United States,LSE,KLSE,43.878986,-91.256711,654,-6,A,"La Crosse, WI",268,268,275,275,3.5858208955223874,11.399253731343284,11.0,132.0,"Sun, Mar 14, 2010","Wed, Mar 10, 2010"
3945,Lewiston Nez Perce County,Lewiston,United States,LWS,KLWS,46.3745,-117.015389,1442,-8,A,"Lewiston, ID",53,53,53,53,4.69811320754717,11.24528301886792,17.0,23.0,"Fri, Mar  5, 2010","Sat, Mar  6, 2010"
5753,Lynchburg Regional-Preston Glenn Field,Lynchburg,United States,LYH,KLYH,37.3267,-79.2004,938,-5,A,"Lynchburg, VA",76,76,79,79,2.8684210526315788,10.5,7.0,34.0,"Sat, Mar 20, 2010","Thu, Mar 11, 2010"
3652,Midland International,Midland,United States,MAF,KMAF,31.942528,-102.201914,2871,-6,A,"Midland/Odessa, TX",582,583,588,588,3.823024054982818,9.17838765008576,11.0,52.0,"Mon, Mar  8, 2010","Sun, Mar 21, 2010"
4128,MBS International,Saginaw,United States,MBS,KMBS,43.532913,-84.079647,668,-5,A,"Saginaw/Bay City/Midland, MI",324,323,329,329,3.9691358024691357,13.126934984520124,13.0,70.0,"Sat, Mar  6, 2010","Mon, Mar  8, 2010"
3458,Kansas City International,Kansas City,United States,MCI,KMCI,39.297606,-94.713905,1026,-6,A,"Kansas City, MO",4224,4226,4263,4265,5.442708333333332,12.118078561287273,46.0,117.0,"Sat, Mar 20, 2010","Sat, Mar 20, 2010"
3878,Orlando International,Orlando,United States,MCO,KMCO,28.429394,-81.308994,96,-5,A,"Orlando, FL",11030,11017,11092,11093,8.395920217588422,14.645910865026803,79.0,167.0,"Sun, Mar 28, 2010","Mon, Mar 22, 2010"
3542,Harrisburg International,Harrisburg,United States,MDT,KMDT,40.193494,-76.763403,310,-5,A,"Harrisburg, PA",339,339,345,346,4.737463126843659,13.28613569321534,18.0,61.0,"Mon, Mar 15, 2010","Wed, Mar 10, 2010"
3747,Chicago Midway International,Chicago,United States,MDW,KMDW,41.785972,-87.752417,620,-6,A,"Chicago, IL",7041,7049,7118,7118,4.673341854850173,11.286849198467872,51.0,71.0,"Sat, Mar 20, 2010","Thu, Mar 11, 2010"
4335,Key Field,Meridian,United States,MEI,KMEI,32.332624,-88.751868,297,-6,A,"Meridian, MS",56,56,58,58,3.482142857142857,14.785714285714286,6.0,61.0,"Thu, Mar 18, 2010","Sat, Mar 27, 2010"
3473,Memphis International,Memphis,United States,MEM,KMEM,35.042417,-89.976667,341,-6,A,"Memphis, TN",6149,6178,6273,6273,7.804358432265391,18.05827128520561,80.0,118.0,"Sat, Mar 13, 2010","Thu, Mar 11, 2010"
3826,McAllen Miller International,Mcallen,United States,MFE,KMFE,26.175833,-98.238611,107,-6,A,"Mission/McAllen/Edinburg, TX",373,372,376,376,4.005361930294907,12.575268817204297,10.0,132.0,"Thu, Mar  4, 2010","Mon, Mar  8, 2010"
4101,Rogue Valley International Medford,Medford,United States,MFR,KMFR,42.374228,-122.8735,1335,-8,A,"Medford, OR",359,360,364,364,3.537604456824512,11.197222222222223,19.0,90.0,"Wed, Mar 31, 2010","Mon, Mar  1, 2010"
4115,Montgomery Regional Airport ,MONTGOMERY,United States,MGM,KMGM,32.3006389,-86.3939722,221,-6,A,"Montgomery, AL",353,353,360,360,3.4220963172804533,15.662889518413598,20.0,119.0,"Thu, Mar 11, 2010","Thu, Mar 11, 2010"
4050,Manhattan Regional,Manhattan,United States,MHK,KMHK,39.140972,-96.670833,1057,-6,A,"Manhattan/Ft. Riley, KS",62,62,62,62,3.887096774193548,12.08064516129032,8.0,56.0,"Fri, Mar 19, 2010","Fri, Mar 12, 2010"
4011,Manchester Regional Airport,Manchester NH,United States,MHT,KMHT,42.932556,-71.435667,266,-5,A,"Manchester, NH",1123,1121,1128,1128,4.56990204808548,11.644067796610168,14.0,135.0,"Tue, Mar  9, 2010","Sun, Mar 14, 2010"
3576,Miami International,Miami,United States,MIA,KMIA,25.79325,-80.290556,8,-5,A,"Miami, FL",5815,5815,5882,5881,9.149785038693054,16.981599312123816,120.0,173.0,"Fri, Mar 12, 2010","Fri, Mar 12, 2010"
3717,General Mitchell International,Milwaukee,United States,MKE,KMKE,42.947222,-87.896583,723,-6,A,"Milwaukee, WI",3832,3816,3876,3852,5.3118475991649365,13.211740041928717,51.0,120.0,"Mon, Mar  8, 2010","Wed, Mar 10, 2010"
5754,Muskegon County Airport,Muskegon,United States,MKG,KMKG,43.1695,-86.2382,628,-5,A,"Muskegon, MI",64,63,68,67,4.078125,10.80952380952381,7.0,36.0,"Fri, Mar 12, 2010","Fri, Mar 12, 2010"
3671,Melbourne International,Melbourne,United States,MLB,KMLB,28.102753,-80.645258,33,-5,A,"Melbourne, FL",215,215,221,222,4.460465116279074,13.651162790697674,10.0,88.0,"Mon, Mar  1, 2010","Sun, Mar 28, 2010"
4072,Quad City International,Moline,United States,MLI,KMLI,41.448528,-90.507539,590,-6,A,"Moline, IL",585,586,594,594,3.9128205128205145,12.138225255972694,14.0,154.0,"Fri, Mar 26, 2010","Sun, Mar 21, 2010"
3732,Monroe Regional,Monroe,United States,MLU,KMLU,32.510864,-92.037689,79,-6,A,"Monroe, LA",254,251,259,259,4.086614173228346,10.936254980079681,11.0,39.0,"Tue, Mar 23, 2010","Fri, Mar 12, 2010"
3782,Mobile Regional,Mobile,United States,MOB,KMOB,30.691231,-88.242814,219,-6,A,"Mobile, AL",586,580,593,593,4.04778156996587,10.736206896551721,21.0,85.0,"Fri, Mar 26, 2010","Wed, Mar 10, 2010"
3816,Modesto City County Harry Sham,Modesto,United States,MOD,KMOD,37.625817,-120.954422,97,-8,A,"Modesto, CA",138,135,143,143,2.818840579710145,9.666666666666666,11.0,44.0,"Fri, Mar 19, 2010","Sun, Mar 21, 2010"
6838,Sawyer International Airport,Marquette,United States,MQT,KMQT,46.353611,-87.395278,1221,-5,A,"Marquette, MI",55,57,59,59,4.527272727272728,8.789473684210524,12.0,17.0,"Mon, Mar  1, 2010","Tue, Mar 23, 2010"
3948,Monterey Peninsula,Monterey,United States,MRY,KMRY,36.587,-121.842944,257,-8,A,"Monterey, CA",487,486,496,496,3.394250513347023,10.300411522633745,15.0,41.0,"Mon, Mar 22, 2010","Mon, Mar  1, 2010"
3459,Dane County Regional-Truax Field,Madison,United States,MSN,KMSN,43.139858,-89.337514,887,-6,A,"Madison, WI",939,939,970,970,4.099041533546318,13.563365282215122,23.0,93.0,"Wed, Mar 10, 2010","Sun, Mar 28, 2010"
4216,Missoula International,Missoula,United States,MSO,KMSO,46.916306,-114.090556,3205,-7,A,"Missoula, MT",212,210,217,217,4.594339622641509,12.128571428571425,9.0,42.0,"Tue, Mar  2, 2010","Wed, Mar 31, 2010"
3858,Minneapolis St. Paul International,Minneapolis,United States,MSP,KMSP,44.881956,-93.221767,841,-6,A,"Minneapolis, MN",10246,10262,10348,10350,7.883954714034775,16.48577275384905,53.0,112.0,"Sun, Mar  7, 2010","Sat, Mar 13, 2010"
3861,Louis Armstrong New Orleans International,New Orleans,United States,MSY,KMSY,29.993389,-90.258028,4,-6,A,"New Orleans, LA",3151,3147,3175,3174,5.095525230085681,10.904353352399124,101.0,122.0,"Mon, Mar  1, 2010","Tue, Mar 30, 2010"
6880,Montrose Regional Airport,Montrose CO,United States,MTJ,KMTJ,38.509794,-107.894242,5759,-7,A,"Montrose/Delta, CO",303,302,309,310,4.673267326732672,12.675496688741726,38.0,57.0,"Sat, Mar 27, 2010","Thu, Mar 25, 2010"
3605,Grant County International,Grant County Airport,United States,MWH,KMWH,47.207708,-119.32019,1185,-8,A,"Moses Lake, WA",54,54,54,54,4.2777777777777795,11.74074074074074,9.0,29.0,"Mon, Mar 15, 2010","Sat, Mar 20, 2010"
3515,Myrtle Beach International,Myrtle Beach,United States,MYR,KMYR,33.67975,-78.928333,25,-5,A,"Myrtle Beach, SC",333,331,349,349,3.648648648648649,15.67371601208459,16.0,138.0,"Sat, Mar 13, 2010","Tue, Mar  2, 2010"
4386,Albert J. Ellis,Jacksonville NC,United States,OAJ,KOAJ,34.829164,-77.612139,94,-5,A,"Jacksonville/Camp Lejeune, NC",86,86,90,90,2.4767441860465116,9.127906976744185,4.0,22.0,"Thu, Mar  4, 2010","Tue, Mar  9, 2010"
3453,Metropolitan Oakland International,Oakland,United States,OAK,KOAK,37.721278,-122.220722,9,-8,A,"Oakland, CA",3971,3970,4035,4035,5.389322588768581,9.191939546599496,35.0,42.0,"Sun, Mar 28, 2010","Mon, Mar  8, 2010"
3456,Kahului,Kahului,United States,OGG,PHOG,20.89865,-156.430458,54,-10,N,"Kahului, HI",1701,1694,1705,1701,5.442092886537322,8.756788665879618,40.0,30.0,"Sat, Mar 13, 2010","Sat, Mar 20, 2010"
3863,Will Rogers World,Oklahoma City,United States,OKC,KOKC,35.393089,-97.600733,1295,-6,A,"Oklahoma City, OK",1783,1776,1809,1810,4.591699383062247,12.414414414414418,59.0,183.0,"Sat, Mar 20, 2010","Sat, Mar 20, 2010"
3454,Eppley Airfield,Omaha,United States,OMA,KOMA,41.303167,-95.894069,984,-6,A,"Omaha, NE",2081,2077,2097,2098,4.13022585295531,13.00529610014444,30.0,128.0,"Fri, Mar 19, 2010","Fri, Mar 19, 2010"
3615,Nome,Nome,United States,OME,PAOM,64.512203,-165.445247,37,-9,A,"Nome, AK",92,92,93,93,4.141304347826086,5.076086956521736,16.0,19.0,"Mon, Mar  1, 2010","Thu, Mar  4, 2010"
3734,Ontario International,Ontario,United States,ONT,KONT,34.056,-117.601194,944,-8,A,"Ontario, CA",2107,2100,2128,2127,4.289511153298532,9.763809523809524,18.0,59.0,"Thu, Mar 18, 2010","Thu, Mar 25, 2010"
3830,Chicago O'Hare International,Chicago,United States,ORD,KORD,41.978603,-87.904842,668,-6,A,"Chicago, IL",26575,26655,27054,27051,10.340997177798762,16.20266366535359,125.0,150.0,"Sat, Mar 13, 2010","Mon, Mar 22, 2010"
3611,Norfolk International,Norfolk,United States,ORF,KORF,36.894611,-76.201222,26,-5,A,"Norfolk, VA",1295,1289,1319,1319,4.442471042471045,13.240496508921659,21.0,110.0,"Wed, Mar 31, 2010","Wed, Mar  3, 2010"
5757,Southwest Oregon Regional Airport,North Bend,United States,OTH,KOTH,43.4171,-124.246,17,-8,A,"North Bend/Coos Bay, OR",93,91,93,93,2.860215053763441,8.450549450549449,5.0,51.0,"Wed, Mar 17, 2010","Thu, Mar 25, 2010"
3693,Ralph WienMemorial,Kotzebue,United States,OTZ,PAOT,66.884678,-162.59855,11,-9,A,"Kotzebue, AK",92,92,92,92,4.608695652173912,4.880434782608695,7.0,13.0,"Tue, Mar  2, 2010","Sun, Mar 28, 2010"
6961,Oxnard - Ventura County,Oxnard,United States,OXR,KOXR,34.200833,-119.207222,15,-8,A,"Oxnard/Ventura, CA",89,89,89,89,3.0,8.662921348314605,9.0,22.0,"Thu, Mar 25, 2010","Sat, Mar  6, 2010"
4117,Barkley Regional Airport,PADUCAH,United States,PAH,KPAH,37.0602875,-88.7729583,410,-6,A,"Paducah, KY",61,59,62,62,4.9672131147541,12.525423728813557,21.0,97.0,"Sat, Mar 20, 2010","Thu, Mar 25, 2010"
3722,Palm Beach International,West Palm Beach,United States,PBI,KPBI,26.683161,-80.095589,19,-5,A,"West Palm Beach/Palm Beach, FL",2821,2822,2872,2874,4.793335696561512,13.750885896527283,58.0,86.0,"Sun, Mar 28, 2010","Mon, Mar 29, 2010"
3720,Portland International,Portland,United States,PDX,KPDX,45.588722,-122.5975,30,-8,A,"Portland, OR",4304,4308,4327,4327,4.048791821561335,10.347260909934997,27.0,63.0,"Sun, Mar 21, 2010","Mon, Mar  1, 2010"
4073,Panama City Bay County International,Panama City,United States,PFN,KPFN,30.212083,-85.682806,20,-6,A,"Panama City, FL",354,351,362,362,3.223163841807911,13.467236467236473,13.0,62.0,"Tue, Mar 30, 2010","Wed, Mar 10, 2010"
3633,Newport News Williamsburg International,Newport News,United States,PHF,KPHF,37.131894,-76.492989,43,-5,A,"Newport News/Williamsburg, VA",424,423,435,436,4.797169811320756,12.709219858156033,10.0,169.0,"Thu, Mar 11, 2010","Wed, Mar  3, 2010"
3752,Philadelphia International,Philadelphia,United States,PHL,KPHL,39.871944,-75.241139,36,-5,A,"Philadelphia, PA",7438,7452,7556,7561,6.969212153804792,19.6250670960815,54.0,123.0,"Mon, Mar 15, 2010","Fri, Mar 12, 2010"
3462,Phoenix Sky Harbor International,Phoenix,United States,PHX,KPHX,33.434278,-112.011583,1135,-7,N,"Phoenix, AZ",15617,15662,15742,15743,7.550425818018829,15.101136508747345,81.0,136.0,"Mon, Mar 15, 2010","Sat, Mar 27, 2010"
4046,Peoria Regional,Peoria,United States,PIA,KPIA,40.664203,-89.693258,660,-6,A,"Peoria, IL",332,330,337,337,3.6656626506024104,11.566666666666672,10.0,71.0,"Wed, Mar  3, 2010","Thu, Mar 25, 2010"
5760,Pocatello Regional Airport,Pocatello,United States,PIH,KPIH,42.9098,-112.596,4452,-7,A,"Pocatello, ID",115,114,116,116,3.2869565217391306,11.605263157894736,6.0,34.0,"Wed, Mar  3, 2010","Mon, Mar 15, 2010"
3570,Pittsburgh International,Pittsburgh (pennsylva),United States,PIT,KPIT,40.491467,-80.232872,1204,-5,A,"Pittsburgh, PA",3112,3103,3158,3159,5.8788560411311055,14.236867547534649,59.0,105.0,"Sun, Mar 14, 2010","Mon, Mar 22, 2010"
5762,Pellston Regional Airport of Emmet County Airport,Pellston,United States,PLN,KPLN,45.5709,-84.7967,720,-5,A,"Pellston, MI",31,31,31,31,4.483870967741935,12.290322580645162,8.0,20.0,"Fri, Mar 12, 2010","Sat, Mar 27, 2010"
3564,Pensacola Regional,Pensacola,United States,PNS,KPNS,30.473425,-87.186611,121,-6,A,"Pensacola, FL",880,880,892,892,4.140909090909091,12.361363636363636,22.0,79.0,"Thu, Mar 11, 2010","Wed, Mar 10, 2010"
6133,Tri Cities Airport,Pasco,United States,PSC,PSC,46.2647,-119.119,410,-8,A,"Pasco/Kennewick/Richland, WA",298,293,298,298,4.453020134228193,11.293515358361772,16.0,38.0,"Thu, Mar 25, 2010","Sun, Mar  7, 2010"
4147,Petersburg James A. Johnson,Petersburg,United States,PSG,PAPG,56.801667,-132.945278,105,-9,A,"Petersburg, AK",59,60,62,62,3.5254237288135593,11.683333333333334,8.0,29.0,"Tue, Mar  9, 2010","Fri, Mar  5, 2010"
3839,Palm Springs International,Palm Springs,United States,PSP,KPSP,33.829667,-116.506694,477,-8,A,"Palm Springs, CA",1238,1236,1243,1242,4.725363489499192,13.123786407766987,17.0,87.0,"Sun, Mar 21, 2010","Mon, Mar  8, 2010"
3641,Theodore Francis Green State,Providence,United States,PVD,KPVD,41.732581,-71.420383,55,-5,A,"Providence, RI",1447,1444,1470,1469,4.279198341396005,13.364958448753455,25.0,95.0,"Sat, Mar 13, 2010","Tue, Mar  9, 2010"
3862,Portland International Jetport,Portland,United States,PWM,KPWM,43.646161,-70.309281,77,-5,A,"Portland, ME",523,522,538,538,3.8183556405353727,15.622605363984666,15.0,111.0,"Tue, Mar 23, 2010","Sun, Mar  7, 2010"
4087,Rapid City Regional Airport,Rapid City,United States,RAP,KRAP,44.045278,-103.057222,3204,-7,A,"Rapid City, SD",336,336,356,356,4.235119047619044,11.696428571428575,22.0,58.0,"Sun, Mar  7, 2010","Tue, Mar  9, 2010"
4098,Redding Municipal,Redding,United States,RDD,KRDD,40.509,-122.293389,504,-8,A,"Redding, CA",123,121,124,124,3.7398373983739837,10.115702479338843,7.0,26.0,"Mon, Mar  1, 2010","Sat, Mar 13, 2010"
4103,Roberts Field,Redmond-Bend,United States,RDM,KRDM,44.254066,-121.149964,3077,-8,A,"Bend/Redmond, OR",275,274,275,275,3.363636363636364,11.116788321167883,12.0,48.0,"Wed, Mar 24, 2010","Fri, Mar 26, 2010"
3626,Raleigh Durham International,Raleigh-durham,United States,RDU,KRDU,35.877639,-78.787472,435,-5,A,"Raleigh/Durham, NC",4276,4282,4335,4335,4.910898035547248,15.480382998598854,55.0,125.0,"Sun, Mar 21, 2010","Fri, Mar 12, 2010"
3608,Richmond International,Richmond,United States,RIC,KRIC,37.505167,-77.319667,167,-5,A,"Richmond, VA",1335,1335,1364,1364,5.528089887640458,15.598501872659176,29.0,103.0,"Thu, Mar 11, 2010","Mon, Mar 22, 2010"
5766,Rock Springs Sweetwater County Airport,Rock Springs,United States,RKS,KRKS,41.5942,-109.065,6760,-7,A,"Rock Springs, WY",148,147,155,155,3.2364864864864864,11.312925170068029,6.0,62.0,"Sat, Mar 20, 2010","Wed, Mar 31, 2010"
3807,Reno Tahoe International,Reno,United States,RNO,KRNO,39.499108,-119.768108,4415,-8,A,"Reno, NV",1704,1704,1715,1716,4.337441314553991,10.487089201877946,15.0,66.0,"Wed, Mar 10, 2010","Mon, Mar  8, 2010"
4016,Roanoke Regional,Roanoke VA,United States,ROA,KROA,37.325472,-79.975417,1175,-5,A,"Roanoke, VA",283,282,287,287,4.72791519434629,15.443262411347511,12.0,96.0,"Sat, Mar 20, 2010","Fri, Mar 12, 2010"
3622,Greater Rochester International,Rochester,United States,ROC,KROC,43.118866,-77.672389,559,-5,A,"Rochester, NY",1029,1031,1053,1053,5.14965986394558,14.830261881668283,28.0,105.0,"Fri, Mar 26, 2010","Fri, Mar 12, 2010"
3736,Roswell International Air Center,Roswell,United States,ROW,KROW,33.301556,-104.530556,3671,-7,A,"Roswell, NM",88,87,89,89,4.011363636363635,10.620689655172415,8.0,39.0,"Wed, Mar 10, 2010","Mon, Mar 29, 2010"
4048,Rochester,Rochester,United States,RST,KRST,43.908283,-92.500014,1317,-6,A,"Rochester, MN",283,283,302,302,3.558303886925795,10.901060070671377,18.0,59.0,"Thu, Mar 11, 2010","Sat, Mar 20, 2010"
3793,Southwest Florida International,Fort Myers,United States,RSW,KRSW,26.536167,-81.755167,30,-5,A,"Fort Myers, FL",3264,3263,3290,3290,4.951286764705887,14.288691388292978,41.0,152.0,"Thu, Mar 18, 2010","Sun, Mar 21, 2010"
3784,Santa Fe Municipal,Santa Fe,United States,SAF,KSAF,35.617108,-106.089422,6348,-7,A,"Santa Fe, NM",121,121,124,124,4.892561983471073,10.975206611570249,21.0,49.0,"Mon, Mar 15, 2010","Fri, Mar 19, 2010"
3731,San Diego International,San Diego,United States,SAN,KSAN,32.733556,-117.189667,17,-8,A,"San Diego, CA",6559,6560,6615,6614,3.565025156273824,12.39085365853659,40.0,100.0,"Sat, Mar 27, 2010","Sat, Mar 13, 2010"
3621,San Antonio International,San Antonio,United States,SAT,KSAT,29.533694,-98.469778,809,-6,A,"San Antonio, TX",3135,3129,3163,3162,4.241467304625201,10.367529562160422,42.0,102.0,"Thu, Mar 11, 2010","Sun, Mar 21, 2010"
3613,Savannah Hilton Head International,Savannah,United States,SAV,KSAV,32.127583,-81.202139,51,-5,A,"Savannah, GA",862,858,877,877,5.242459396751738,15.544289044289027,29.0,150.0,"Sun, Mar 21, 2010","Tue, Mar  2, 2010"
3949,Santa Barbara Municipal,Santa Barbara,United States,SBA,KSBA,34.426211,-119.840372,10,-8,A,"Santa Barbara, CA",1049,1050,1057,1058,4.0076263107721655,9.141904761904756,15.0,44.0,"Thu, Mar 11, 2010","Tue, Mar  2, 2010"
4359,South Bend Regional,South Bend,United States,SBN,KSBN,41.708661,-86.31725,799,-5,A,"South Bend, IN",353,353,364,364,3.3257790368271953,11.175637393767705,31.0,84.0,"Thu, Mar 25, 2010","Wed, Mar 10, 2010"
5768,San Luis County Regional Airport,San Luis Obispo,United States,SBP,KSBP,35.2368,-120.642,212,-8,A,"San Luis Obispo, CA",377,377,381,381,3.3607427055702908,9.734748010610089,20.0,75.0,"Fri, Mar 12, 2010","Sun, Mar 21, 2010"
3620,Deadhorse,Deadhorse,United States,SCC,PASC,70.19475,-148.465167,64,-9,A,"Deadhorse, AK",58,58,58,58,4.189655172413792,5.517241379310345,6.0,30.0,"Mon, Mar  1, 2010","Fri, Mar 12, 2010"
4318,University Park Airport,State College Pennsylvania,United States,SCE,KUNV,40.849278,-77.848694,1239,-5,A,"State College, PA",91,91,93,93,6.999999999999997,12.461538461538463,13.0,39.0,"Sat, Mar 13, 2010","Wed, Mar  3, 2010"
4014,Louisville International Airport,Louisville,United States,SDF,KSDF,38.1740858,-85.7364989,501,-5,A,"Louisville, KY",1552,1549,1580,1581,5.567010309278357,12.86701097482246,47.0,90.0,"Sun, Mar 21, 2010","Mon, Mar 15, 2010"
3577,Seattle Tacoma International,Seattle,United States,SEA,KSEA,47.449,-122.309306,433,-8,A,"Seattle, WA",7645,7643,7671,7668,5.401177240026159,14.101530812508173,34.0,99.0,"Mon, Mar  1, 2010","Tue, Mar  2, 2010"
3469,San Francisco International,San Francisco,United States,SFO,KSFO,37.618972,-122.374889,13,-8,A,"San Francisco, CA",11345,11365,11534,11531,6.056236227412947,15.871359436867557,70.0,86.0,"Tue, Mar  9, 2010","Sun, Mar 21, 2010"
4348,Springfield Branson National,Springfield,United States,SGF,KSGF,37.245667,-93.388639,1268,-6,A,"Springfield, MO",583,582,602,602,4.564322469982852,14.465635738831615,32.0,120.0,"Sat, Mar 27, 2010","Sun, Mar 21, 2010"
4064,St. George Municipal,Saint George,United States,SGU,KSGU,37.090583,-113.593056,2941,-7,A,"St. George, UT",201,201,201,201,3.557213930348259,8.03482587064677,6.0,25.0,"Mon, Mar 29, 2010","Thu, Mar  4, 2010"
3609,Shreveport Regional,Shreveport,United States,SHV,KSHV,32.446629,-93.8256,258,-6,A,"Shreveport, LA",468,466,482,481,4.53205128205128,10.403433476394849,14.0,73.0,"Thu, Mar  4, 2010","Sun, Mar 21, 2010"
3856,Sitka Rocky Gutierrez,Sitka,United States,SIT,PASI,57.047138,-135.361611,21,-9,A,"Sitka, AK",89,91,93,93,4.696629213483146,13.527472527472527,9.0,49.0,"Wed, Mar 17, 2010","Fri, Mar 12, 2010"
3748,Norman Y. Mineta San Jose International,San Jose,United States,SJC,KSJC,37.3626,-121.929022,62,-8,A,"San Jose, CA",3678,3675,3710,3711,3.8409461663947826,10.332244897959182,29.0,100.0,"Sun, Mar 28, 2010","Mon, Mar  8, 2010"
3708,San Angelo Regional-Mathis Field,San Angelo,United States,SJT,KSJT,31.35775,-100.496306,1919,-6,A,"San Angelo, TX",57,57,58,58,2.508771929824561,7.12280701754386,5.0,13.0,"Mon, Mar  1, 2010","Thu, Mar 18, 2010"
3536,Salt Lake City International,Salt Lake City,United States,SLC,KSLC,40.788389,-111.977772,4227,-7,A,"Salt Lake City, UT",10503,10550,10594,10593,6.493001999428728,18.25071090047397,57.0,114.0,"Fri, Mar  5, 2010","Sat, Mar 13, 2010"
3817,Sacramento International,Sacramento,United States,SMF,KSMF,38.695417,-121.590778,27,-8,A,"Sacramento, CA",3799,3803,3824,3829,4.243748354830233,9.509597686037358,31.0,68.0,"Wed, Mar 17, 2010","Thu, Mar 25, 2010"
5772,Santa Maria Public-Captain G. Allan Hancock Airport,Santa Maria,United States,SMX,KSMX,34.8989,-120.457,261,-8,A,"Santa Maria, CA",119,119,120,120,3.907563025210084,9.19327731092437,7.0,29.0,"Thu, Mar  4, 2010","Wed, Mar 31, 2010"
3867,John Wayne Airport Orange County,Santa Ana,United States,SNA,KSNA,33.675667,-117.868222,56,-8,A,"Santa Ana, CA",3495,3499,3533,3534,6.222317596566528,12.179194055444425,41.0,98.0,"Sat, Mar 13, 2010","Mon, Mar  8, 2010"
4336,Abraham Lincoln Capital,Springfield,United States,SPI,KSPI,39.8441,-89.677889,597,-6,A,"Springfield, IL",170,170,174,174,3.6823529411764704,10.641176470588238,8.0,84.0,"Wed, Mar 17, 2010","Sat, Mar 13, 2010"
3680,Sheppard AFB Wichita Falls Municipal,Wichita Falls,United States,SPS,KSPS,33.988797,-98.491894,1019,-6,A,"Wichita Falls, TX",54,54,58,58,8.111111111111107,9.833333333333334,17.0,23.0,"Sun, Mar 14, 2010","Sun, Mar  7, 2010"
4067,Sarasota Bradenton International,Sarasota,United States,SRQ,KSRQ,27.395444,-82.554389,30,-5,A,"Sarasota/Bradenton, FL",709,706,717,717,4.847672778561349,11.838526912181292,31.0,109.0,"Mon, Mar 22, 2010","Fri, Mar 12, 2010"
3678,Lambert St. Louis International,St. Louis,United States,STL,KSTL,38.748697,-90.370028,618,-6,A,"St. Louis, MO",4707,4714,4745,4746,5.003399192691734,11.136826474331798,50.0,91.0,"Fri, Mar 12, 2010","Tue, Mar 23, 2010"
6494,Friedman Memorial,Hailey,United States,SUN,KSUN,43.504444,-114.296194,5320,-7,A,"Sun Valley/Hailey/Ketchum, ID",199,199,217,217,2.7688442211055264,8.266331658291456,5.0,25.0,"Thu, Mar 18, 2010","Thu, Mar  4, 2010"
3661,Stewart International,Newburgh,United States,SWF,KSWF,41.504094,-74.104839,491,-5,A,"Newburgh/Poughkeepsie, NY",180,181,182,183,4.822222222222222,16.099447513812162,11.0,49.0,"Mon, Mar  1, 2010","Wed, Mar  3, 2010"
3745,Syracuse Hancock International,Syracuse,United States,SYR,KSYR,43.111187,-76.106311,421,-5,A,"Syracuse, NY",979,976,999,998,4.891726251276803,15.200819672131148,64.0,122.0,"Thu, Mar 25, 2010","Thu, Mar  4, 2010"
4084,Telluride,Telluride,United States,TEX,KTEX,37.953759,-107.90848,9078,-7,A,"Telluride, CO",45,44,50,50,5.444444444444444,14.613636363636363,10.0,32.0,"Thu, Mar  4, 2010","Thu, Mar 11, 2010"
3698,Tallahassee Regional,Tallahassee,United States,TLH,KTLH,30.396528,-84.350333,81,-5,A,"Tallahassee, FL",629,628,639,639,3.475357710651827,13.769108280254772,28.0,60.0,"Sun, Mar 14, 2010","Mon, Mar 29, 2010"
4040,Toledo,Toledo,United States,TOL,KTOL,41.586806,-83.807833,684,-5,A,"Toledo, OH",89,89,89,89,2.7191011235955043,10.528089887640451,7.0,40.0,"Wed, Mar 24, 2010","Sat, Mar 20, 2010"
3646,Tampa International,Tampa,United States,TPA,KTPA,27.975472,-82.53325,26,-5,A,"Tampa, FL",6432,6428,6474,6475,5.202269900497491,14.598942128189174,57.0,124.0,"Thu, Mar 11, 2010","Thu, Mar 11, 2010"
4116,Tri-Cities Regional Airport,BRISTOL,United States,TRI,KTRI,36.4752222,-82.4074167,1519,-5,A,"Bristol/Johnson City/Kingsport, TN",231,230,234,234,3.536796536796536,17.299999999999986,10.0,93.0,"Thu, Mar  4, 2010","Mon, Mar 22, 2010"
3855,Tulsa International,Tulsa,United States,TUL,KTUL,36.198389,-95.888111,677,-6,A,"Tulsa, OK",1656,1656,1678,1680,4.361111111111105,12.018719806763281,30.0,135.0,"Sat, Mar 20, 2010","Sat, Mar 20, 2010"
3636,Tucson International,Tucson,United States,TUS,KTUS,32.116083,-110.941028,2643,-7,N,"Tucson, AZ",2048,2048,2054,2056,4.419921874999998,10.8251953125,35.0,108.0,"Tue, Mar  2, 2010","Sat, Mar 27, 2010"
4023,Cherry Capital Airport,Traverse City,United States,TVC,KTVC,44.741445,-85.582235,624,-5,A,"Traverse City, MI",338,335,341,341,3.56508875739645,13.919402985074626,13.0,76.0,"Wed, Mar 17, 2010","Thu, Mar 25, 2010"
4263,Magic Valley Regional Airport,Twin Falls,United States,TWF,KTWF,42.481803,-114.487733,4151,-7,A,"Twin Falls, ID",123,124,124,124,3.2926829268292677,10.387096774193546,6.0,35.0,"Sun, Mar  7, 2010","Tue, Mar  9, 2010"
3770,Texarkana Regional-Webb Field,Texarkana,United States,TXK,KTXK,33.453722,-93.991028,390,-6,A,"Texarkana, AR",118,117,124,124,2.694915254237288,8.076923076923078,8.0,45.0,"Wed, Mar 24, 2010","Sat, Mar 27, 2010"
3848,Tyler Pounds Regional,Tyler,United States,TYR,KTYR,32.354139,-95.402386,544,-6,A,"Tyler, TX",61,61,62,62,4.065573770491804,9.14754098360656,8.0,56.0,"Mon, Mar  1, 2010","Sat, Mar 27, 2010"
3676,McGhee Tyson,Knoxville,United States,TYS,KTYS,35.810972,-83.994028,981,-5,A,"Knoxville, TN",1275,1267,1290,1290,4.127058823529411,15.191002367797976,76.0,118.0,"Fri, Mar 12, 2010","Sun, Mar 14, 2010"
5776,Valdosta Regional Airport,Valdosta,United States,VLD,KVLD,30.7825,-83.2767,203,-5,A,"Valdosta, GA",86,86,89,89,3.6511627906976742,13.604651162790695,11.0,52.0,"Sat, Mar  6, 2010","Mon, Mar 15, 2010"
3873,Eglin AFB,Valparaiso,United States,VPS,KVPS,30.48325,-86.5254,87,-6,A,"Valparaiso, FL",650,646,660,660,5.898461538461538,13.792569659442725,21.0,50.0,"Fri, Mar 26, 2010","Thu, Mar  4, 2010"
5969,Wrangell Airport,Wrangell,United States,WRG,PAWG,56.4843,-132.37,44,-9,A,"Wrangell, AK",61,62,62,62,3.9672131147540983,9.387096774193548,6.0,24.0,"Sat, Mar 13, 2010","Mon, Mar  1, 2010"
4356,NW Arkansas Regional,Bentonville,United States,XNA,KXNA,36.2818694,-94.3068111,1287,-6,A,"Fayetteville, AR",1129,1130,1148,1148,4.639503985828165,13.246902654867256,52.0,136.0,"Sun, Mar 21, 2010","Sun, Mar 21, 2010"
6803,Yakutat,Yakutat,United States,YAK,PAYA,59.3012,-139.3937,33,-9,A,"Yakutat, AK",61,61,62,62,4.000000000000002,9.737704918032787,7.0,32.0,"Mon, Mar  8, 2010","Wed, Mar  3, 2010"
3596,Yuma MCAS Yuma International,Yuma,United States,YUM,KYUM,32.656578,-114.60598,216,-7,N,"Yuma, AZ",363,364,364,364,4.787878787878786,11.980769230769226,37.0,55.0,"Sat, Mar 13, 2010","Tue, Mar 23, 2010"
