airport_id,name,city,country,iata_faa,iaco,latitude,longitude,altitude,zone,dst,city_state,avg_able_landings,avg_able_takeoffs,total_landings,total_takeoffs,avg_taxi_in,avg_taxi_out,longest_taxi_in,longest_taxi_out,lng_tx_in_date,lng_tx_out_date
4355,Lehigh Valley International,Allentown,United States,ABE,KABE,40.652083,-75.440806,393,-5,A,"Allentown/Bethlehem/Easton, PA",266,267,268,269,3.9511278195488724,11.625468164794007,11.0,68.0,"Mon, Sep  5, 2011","Tue, Sep 27, 2011"
3718,Abilene Regional,Abilene,United States,ABI,KABI,32.411319,-99.681897,1791,-6,A,"Abilene, TX",200,201,201,201,3.8649999999999993,7.999999999999993,55.0,26.0,"Fri, Sep 16, 2011","Mon, Sep 26, 2011"
4019,Albuquerque International Sunport,Albuquerque,United States,ABQ,KABQ,35.0402222,-106.6091944,5355,-7,A,"Albuquerque, NM",2868,2857,2879,2877,5.167364016736394,10.1823591179559,30.0,69.0,"Sun, Sep  4, 2011","Tue, Sep 13, 2011"
5715,Southwest Georgia Regional Airport,Albany,United States,ABY,KABY,31.5355,-84.1945,197,-5,A,"Albany, GA",83,83,84,84,3.674698795180723,12.265060240963857,8.0,31.0,"Fri, Sep 16, 2011","Thu, Sep 15, 2011"
3517,Nantucket Memorial,Nantucket,United States,ACK,KACK,41.253053,-70.060181,48,-5,A,"Nantucket, MA",46,46,46,46,3.608695652173913,16.891304347826086,11.0,65.0,"Fri, Sep 23, 2011","Sun, Sep 18, 2011"
3700,Waco Regional,Waco,United States,ACT,KACT,31.611289,-97.230519,516,-6,A,"Waco, TX",30,30,30,30,4.499999999999999,9.5,8.0,27.0,"Mon, Sep  5, 2011","Sun, Sep 18, 2011"
4384,Arcata,Arcata CA,United States,ACV,KACV,40.978111,-124.108611,221,-8,A,"Arcata/Eureka, CA",260,263,280,281,3.9384615384615387,9.155893536121672,7.0,34.0,"Fri, Sep 23, 2011","Thu, Sep 15, 2011"
3524,Atlantic City International,Atlantic City,United States,ACY,KACY,39.457583,-74.577167,75,-5,A,"Atlantic City, NJ",60,60,60,60,3.35,11.216666666666667,6.0,41.0,"Thu, Sep  8, 2011","Thu, Sep 22, 2011"
5959,Adak Airport,Adak Island,United States,ADK,PADK,51.878,-176.646,18,-10,A,"Adak Island, AK",9,9,9,9,4.444444444444445,6.777777777777778,7.0,17.0,"Sun, Sep 18, 2011","Sun, Sep 25, 2011"
3531,Kodiak,Kodiak,United States,ADQ,PADQ,57.749967,-152.493856,78,-9,A,"Kodiak, AK",49,49,56,56,3.3469387755102042,5.6938775510204085,12.0,12.0,"Sat, Sep  3, 2011","Fri, Sep 23, 2011"
3852,Alexandria International,Alexandria,United States,AEX,KAEX,31.3274,-92.549833,89,-6,A,"Alexandria, LA",248,249,254,254,2.9838709677419364,10.851405622489956,8.0,57.0,"Wed, Sep 21, 2011","Thu, Sep 22, 2011"
3658,Augusta Regional At Bush Field,Bush Field,United States,AGS,KAGS,33.369944,-81.9645,144,-5,A,"Augusta, GA",300,300,301,301,4.763333333333331,17.68,12.0,54.0,"Thu, Sep 22, 2011","Thu, Sep 22, 2011"
3864,Albany International,Albany,United States,ALB,KALB,42.748267,-73.801692,285,-5,A,"Albany, NY",781,783,788,789,3.8796414852752883,11.573435504469995,26.0,46.0,"Fri, Sep  9, 2011","Sun, Sep 11, 2011"
3840,Rick Husband Amarillo International,Amarillo,United States,AMA,KAMA,35.219369,-101.705931,3607,-6,A,"Amarillo, TX",592,591,601,601,4.182432432432432,9.346869712351944,12.0,77.0,"Thu, Sep 15, 2011","Sun, Sep 18, 2011"
3774,Ted Stevens Anchorage International,Anchorage,United States,ANC,PANC,61.174361,-149.996361,152,-9,A,"Anchorage, AK",1489,1502,1503,1507,4.5950302216252545,12.615179760319583,26.0,53.0,"Fri, Sep 30, 2011","Sun, Sep 18, 2011"
7001,Aspen/Pitkin County-Sardy Field,Aspen,United States,ASE,KASE,39.2232,-106.869,7820,-7,A,"Aspen, CO",185,184,203,203,3.2378378378378376,9.119565217391305,9.0,29.0,"Fri, Sep  2, 2011","Mon, Sep  5, 2011"
3682,Hartsfield Jackson Atlanta International,Atlanta,United States,ATL,KATL,33.636719,-84.428067,1026,-5,A,"Atlanta, GA",31572,31619,31729,31723,10.801026225769718,19.763749644201344,77.0,120.0,"Thu, Sep  1, 2011","Thu, Sep 22, 2011"
4047,Appleton,Appleton,United States,ATW,KATW,44.257526,-88.507576,680,-6,A,"Appleton, WI",272,273,277,277,3.966911764705884,10.699633699633702,37.0,59.0,"Sun, Sep 18, 2011","Fri, Sep  2, 2011"
3673,Austin Bergstrom International,Austin,United States,AUS,KAUS,30.194528,-97.669889,542,-6,A,"Austin, TX",3444,3440,3452,3454,5.263937282229965,11.972093023255818,45.0,62.0,"Sun, Sep 18, 2011","Tue, Sep 20, 2011"
4007,Asheville Regional Airport,Asheville,United States,AVL,KAVL,35.436194,-82.541806,2165,-5,A,"Asheville, NC",411,411,419,419,3.579075425790754,16.28710462287107,17.0,61.0,"Fri, Sep 23, 2011","Sun, Sep  4, 2011"
4286,Wilkes Barre Scranton International,Scranton,United States,AVP,KAVP,41.338478,-75.723403,962,-5,A,"Scranton/Wilkes-Barre, PA",125,125,128,128,3.296,11.760000000000003,11.0,51.0,"Tue, Sep 13, 2011","Tue, Sep 27, 2011"
4039,Kalamazoo,Kalamazoo,United States,AZO,KAZO,42.234875,-85.552058,874,-5,A,"Kalamazoo, MI",57,57,57,57,2.947368421052631,11.421052631578947,6.0,29.0,"Wed, Sep 14, 2011","Wed, Sep  7, 2011"
3825,Bradley International,Windsor Locks,United States,BDL,KBDL,41.938889,-72.683222,173,-5,A,"Hartford, CT",1781,1778,1792,1792,5.011229646266137,13.73847019122609,27.0,102.0,"Fri, Sep  9, 2011","Mon, Sep 12, 2011"
3599,Bethel,Bethel,United States,BET,PABE,60.779778,-161.838,121,-9,A,"Bethel, AK",86,86,86,86,3.5930232558139537,6.9186046511627906,6.0,24.0,"Sat, Sep 17, 2011","Sat, Sep 24, 2011"
3558,Meadows Field,Bakersfield,United States,BFL,KBFL,35.433598,-119.05677,507,-8,A,"Bakersfield, CA",309,308,309,309,3.957928802588995,11.246753246753249,9.0,55.0,"Fri, Sep  9, 2011","Thu, Sep 22, 2011"
3463,Bangor International,Bangor,United States,BGR,KBGR,44.807444,-68.828139,192,-5,A,"Bangor, ME",72,72,72,72,3.763888888888889,12.972222222222221,13.0,50.0,"Fri, Sep 23, 2011","Fri, Sep  2, 2011"
3811,Birmingham International,Birmingham,United States,BHM,KBHM,33.562942,-86.75355,644,-6,A,"Birmingham, AL",1423,1422,1429,1428,3.6170063246661996,12.183544303797468,32.0,84.0,"Tue, Sep 13, 2011","Thu, Sep 22, 2011"
4021,Billings Logan International Airport,Billings,United States,BIL,KBIL,45.80921,-108.537654,3652,-7,A,"Billings, MT",285,284,286,285,4.014035087719302,11.08802816901408,34.0,30.0,"Mon, Sep 26, 2011","Tue, Sep  6, 2011"
4083,Bismarck Municipal Airport,Bismarck,United States,BIS,KBIS,46.775842,-100.757931,1661,-6,A,"Bismarck/Mandan, ND",268,265,268,268,4.6268656716417915,10.683018867924526,95.0,30.0,"Mon, Sep  5, 2011","Mon, Sep 26, 2011"
6962,Branson LLC,Branson,United States,BKG,KBBG,36.531994,-93.200556,1302,-6,A,"Branson, MO",132,132,132,132,4.068181818181816,10.984848484848488,7.0,52.0,"Thu, Sep  1, 2011","Sat, Sep 10, 2011"
3777,Bellingham International,Bellingham,United States,BLI,KBLI,48.792694,-122.537528,170,-8,A,"Bellingham, WA",60,60,60,60,4.116666666666667,12.666666666666666,10.0,34.0,"Sat, Sep 17, 2011","Mon, Sep 19, 2011"
4037,Central Illinois Regional,Bloomington,United States,BMI,KBMI,40.477111,-88.915917,871,-6,A,"Bloomington/Normal, IL",270,269,271,271,3.4185185185185185,8.275092936802977,7.0,61.0,"Tue, Sep  6, 2011","Fri, Sep  2, 2011"
3690,Nashville International,Nashville,United States,BNA,KBNA,36.124472,-86.678194,599,-6,A,"Nashville, TN",4242,4241,4270,4271,5.696605374823192,11.853572270690883,62.0,91.0,"Sun, Sep 11, 2011","Fri, Sep 16, 2011"
3495,Boise Air Terminal,Boise,United States,BOI,KBOI,43.564361,-116.222861,2871,-7,A,"Boise, ID",1152,1154,1156,1157,3.857638888888889,10.380415944540736,31.0,38.0,"Wed, Sep 21, 2011","Mon, Sep 19, 2011"
3448,General Edward Lawrence Logan International,Boston,United States,BOS,KBOS,42.364347,-71.005181,19,-5,A,"Boston, MA",8709,8725,8845,8856,7.230910552302213,18.044355300859625,51.0,131.0,"Wed, Sep 28, 2011","Wed, Sep  7, 2011"
5725,Brunswick Golden Isles Airport,Brunswick,United States,BQK,KBQK,31.2588,-81.4665,26,-5,A,"Brunswick, GA",77,77,77,77,3.324675324675325,15.441558441558442,7.0,59.0,"Mon, Sep 12, 2011","Fri, Sep 16, 2011"
3738,Brownsville South Padre Island International,Brownsville,United States,BRO,KBRO,25.906833,-97.425861,22,-6,A,"Brownsville, TX",195,196,198,198,4.292307692307695,10.117346938775503,10.0,96.0,"Sun, Sep 18, 2011","Fri, Sep 16, 2011"
3571,Wiley Post Will Rogers Memorial,Barrow,United States,BRW,PABR,71.285446,-156.766003,44,-9,A,"Barrow, AK",67,68,69,69,4.149253731343282,6.0882352941176485,23.0,21.0,"Sat, Sep 10, 2011","Sun, Sep 25, 2011"
4022,Bert Mooney Airport,Butte,United States,BTM,KBTM,45.954806,-112.497472,5550,-7,A,"Butte, MT",59,58,59,59,4.084745762711866,10.051724137931036,7.0,48.0,"Mon, Sep 26, 2011","Wed, Sep 14, 2011"
3846,Baton Rouge Metro-Ryan Field,Baton Rouge,United States,BTR,KBTR,30.533167,-91.149639,70,-6,A,"Baton Rouge, LA",597,595,615,615,5.020100502512565,12.174789915966384,67.0,83.0,"Thu, Sep 15, 2011","Sat, Sep  3, 2011"
3711,Burlington International,Burlington,United States,BTV,KBTV,44.471861,-73.153278,335,-5,A,"Burlington, VT",359,358,367,367,4.155988857938717,13.88268156424581,32.0,69.0,"Thu, Sep 29, 2011","Sun, Sep 18, 2011"
3820,Buffalo Niagara International,Buffalo,United States,BUF,KBUF,42.940525,-78.732167,724,-5,A,"Buffalo, NY",1761,1761,1770,1771,3.863145939806927,11.678591709256112,41.0,88.0,"Fri, Sep  9, 2011","Mon, Sep  5, 2011"
3644,Bob Hope,Burbank,United States,BUR,KBUR,34.200667,-118.358667,778,-8,A,"Burbank, CA",2233,2231,2264,2264,2.907747424988806,11.482294935006722,44.0,64.0,"Wed, Sep  7, 2011","Sun, Sep  4, 2011"
3849,Baltimore Washington International,Baltimore,United States,BWI,KBWI,39.175361,-76.668333,146,-5,A,"Baltimore, MD",8341,8345,8421,8422,5.883227430763679,13.548112642300762,65.0,154.0,"Wed, Sep  7, 2011","Wed, Sep  7, 2011"
4020,Gallatin Field,Bozeman,United States,BZN,KBZN,45.777643,-111.160151,4500,-7,A,"Bozeman, MT",268,269,269,270,4.410447761194029,12.23791821561338,15.0,51.0,"Mon, Sep 26, 2011","Fri, Sep  2, 2011"
3561,Columbia Metropolitan,Colombia,United States,CAE,KCAE,33.938833,-81.119528,236,-5,A,"Columbia, SC",573,577,581,581,3.979057591623039,14.01213171577122,26.0,56.0,"Sun, Sep  4, 2011","Wed, Sep 21, 2011"
4112,Akron Canton Regional Airport,Akron,United States,CAK,KCAK,40.9160833,-81.4421944,1228,-5,A,"Akron, OH",628,630,634,635,5.143312101910823,10.92857142857142,29.0,44.0,"Mon, Sep 26, 2011","Wed, Sep 21, 2011"
3824,Cedar City Regional,Cedar City,United States,CDC,KCDC,37.700967,-113.098847,5622,-7,A,"Cedar City, UT",55,55,56,56,2.8727272727272726,8.236363636363636,5.0,18.0,"Thu, Sep 22, 2011","Mon, Sep 12, 2011"
3610,Merle K. Mudhole Smith,Cordova,United States,CDV,PACV,60.491778,-145.477556,48,-9,A,"Cordova, AK",60,60,60,60,3.2,7.283333333333333,5.0,20.0,"Sat, Sep  3, 2011","Tue, Sep 20, 2011"
5727,Del Norte County Airport,Crescent City,United States,CEC,KCEC,41.7802,-124.237,57,-8,A,"Crescent City, CA",74,74,83,82,3.3513513513513513,12.202702702702704,5.0,29.0,"Tue, Sep  6, 2011","Fri, Sep 30, 2011"
3578,Lovell Field,Chattanooga,United States,CHA,KCHA,35.035278,-85.203808,683,-5,A,"Chattanooga, TN",351,350,355,355,3.5868945868945863,15.35714285714286,13.0,55.0,"Wed, Sep  7, 2011","Wed, Sep 28, 2011"
4015,Charlottesville-Albemarle,Charlottesville VA,United States,CHO,KCHO,38.138639,-78.452861,639,-5,A,"Charlottesville, VA",142,142,146,145,3.056338028169014,11.204225352112672,7.0,74.0,"Tue, Sep 20, 2011","Thu, Sep 22, 2011"
3806,Charleston AFB International,Charleston,United States,CHS,KCHS,32.898647,-80.040528,45,-5,A,"Charleston, SC",1027,1022,1037,1034,5.489776046738072,14.451076320939334,44.0,123.0,"Sat, Sep 10, 2011","Thu, Sep 22, 2011"
3710,Chico Municipal,Chico,United States,CIC,KCIC,39.795383,-121.858422,238,-8,A,"Chico, CA",115,114,116,117,3.1130434782608694,10.956140350877186,7.0,42.0,"Wed, Sep  7, 2011","Tue, Sep  6, 2011"
4043,Cedar Rapids,Cedar Rapids,United States,CID,KCID,41.884694,-91.710806,869,-6,A,"Cedar Rapids/Iowa City, IA",538,538,545,545,4.565055762081786,9.59293680297398,22.0,72.0,"Wed, Sep 14, 2011","Wed, Sep 28, 2011"
4088,McClellan-Palomar Airport,Carlsbad,United States,CLD,KCRQ,33.0742,-117.1648,328,-8,A,"Carlsbad, CA",176,176,181,181,3.4715909090909083,10.926136363636365,7.0,35.0,"Fri, Sep 16, 2011","Mon, Sep  5, 2011"
3486,Cleveland Hopkins International,Cleveland,United States,CLE,KCLE,41.411689,-81.849794,791,-5,A,"Cleveland, OH",3654,3659,3691,3693,5.7123700054734545,12.936594698004912,33.0,94.0,"Wed, Sep 21, 2011","Thu, Sep  8, 2011"
3715,Easterwood Field,College Station,United States,CLL,KCLL,30.588583,-96.363833,321,-6,A,"College Station/Bryan, TX",26,26,26,26,3.8076923076923075,7.884615384615385,6.0,13.0,"Wed, Sep 14, 2011","Fri, Sep 23, 2011"
3876,Charlotte Douglas International,Charlotte,United States,CLT,KCLT,35.214,-80.943139,748,-5,A,"Charlotte, NC",10107,10146,10221,10225,8.306322350845978,22.01005322294509,64.0,158.0,"Mon, Sep 19, 2011","Fri, Sep  2, 2011"
3759,Port Columbus International,Columbus,United States,CMH,KCMH,39.997972,-82.891889,815,-5,A,"Columbus, OH",2223,2226,2244,2245,5.0638776428250125,11.888589398023356,68.0,129.0,"Sun, Sep 11, 2011","Sun, Sep 18, 2011"
4049,Champaign,Champaign,United States,CMI,KCMI,40.03925,-88.278056,754,-6,A,"Champaign/Urbana, IL",196,195,197,197,4.18877551020408,11.307692307692303,10.0,108.0,"Sat, Sep 17, 2011","Sat, Sep  3, 2011"
5732,Houghton County Memorial Airport,Hancock,United States,CMX,KCMX,47.1684,-88.4891,1095,-5,A,"Hancock/Houghton, MI",59,59,62,62,3.847457627118644,8.677966101694922,7.0,16.0,"Mon, Sep 26, 2011","Tue, Sep 20, 2011"
4344,Yellowstone Regional,Cody,United States,COD,KCOD,44.520194,-109.023806,5102,-7,A,"Cody, WY",90,91,91,92,3.8444444444444446,12.285714285714286,7.0,39.0,"Wed, Sep 21, 2011","Mon, Sep 26, 2011"
3819,City Of Colorado Springs Municipal,Colorado Springs,United States,COS,KCOS,38.805805,-104.700778,6187,-7,A,"Colorado Springs, CO",967,966,973,972,6.013443640124098,14.778467908902691,48.0,90.0,"Fri, Sep  2, 2011","Fri, Sep 16, 2011"
3872,Natrona County International,Casper,United States,CPR,KCPR,42.908,-106.464417,5347,-7,A,"Casper, WY",165,165,165,165,4.090909090909093,10.745454545454544,7.0,35.0,"Tue, Sep  6, 2011","Mon, Sep  5, 2011"
3744,Corpus Christi International,Corpus Christi,United States,CRP,KCRP,27.770361,-97.501222,44,-6,A,"Corpus Christi, TX",603,602,613,612,4.0845771144278595,9.72757475083058,18.0,39.0,"Sat, Sep 17, 2011","Mon, Sep  5, 2011"
4285,Yeager,Charleston,United States,CRW,KCRW,38.373147,-81.593189,981,-5,A,"Charleston/Dunbar, WV",281,281,285,285,4.572953736654803,11.932384341637011,33.0,78.0,"Sun, Sep 18, 2011","Wed, Sep 14, 2011"
4255,Columbus Metropolitan Airport,Columbus,United States,CSG,KCSG,32.5163333,-84.9388611,397,-5,A,"Columbus, GA",181,180,182,181,3.7569060773480665,10.794444444444448,11.0,50.0,"Mon, Sep  5, 2011","Thu, Sep 22, 2011"
3488,Cincinnati Northern Kentucky International,Cincinnati,United States,CVG,KCVG,39.048836,-84.667822,896,-5,A,"Cincinnati, OH",2021,2017,2039,2039,6.3453735774369155,14.339613287059983,36.0,78.0,"Sun, Sep  4, 2011","Tue, Sep 27, 2011"
4045,Central Wisconsin,Wassau,United States,CWA,KCWA,44.772726,-89.646635,840,-6,A,"Mosinee, WI",129,129,133,133,3.511627906976744,9.085271317829458,8.0,47.0,"Mon, Sep 19, 2011","Mon, Sep 26, 2011"
3804,Cheyenne Regional-Jerry Olson Field,Cheyenne,United States,CYS,KCYS,41.155722,-104.811839,6156,-7,A,"Cheyenne, WY",30,29,30,30,3.033333333333333,8.551724137931034,8.0,20.0,"Sun, Sep  4, 2011","Sat, Sep 10, 2011"
3950,Daytona Beach International,Daytona Beach,United States,DAB,KDAB,29.179917,-81.058056,34,-5,A,"Daytona Beach, FL",123,124,123,124,4.024390243902442,18.250000000000007,10.0,41.0,"Sat, Sep 24, 2011","Wed, Sep  7, 2011"
3502,Dallas Love Field,Dallas,United States,DAL,KDAL,32.847111,-96.851778,487,-6,A,"Dallas, TX",3621,3619,3649,3648,3.928748964374482,9.626416137054456,31.0,91.0,"Thu, Sep 29, 2011","Thu, Sep 29, 2011"
3627,James M. Cox Dayton International,Dayton,United States,DAY,KDAY,39.902375,-84.219375,1009,-5,A,"Dayton, OH",907,906,924,924,5.125689084895258,12.50331125827815,24.0,68.0,"Sat, Sep  3, 2011","Thu, Sep 29, 2011"
4388,Dubuque Regional,Dubuque IA,United States,DBQ,KDBQ,42.402,-90.709472,1076,-6,A,"Dubuque, IA",50,49,51,51,3.78,11.489795918367347,5.0,31.0,"Sun, Sep  4, 2011","Sun, Sep 18, 2011"
3520,Ronald Reagan Washington National,Washington,United States,DCA,KDCA,38.852083,-77.037722,15,-5,A,"Washington, DC",5621,5626,5717,5718,5.242305639565922,18.595094205474624,78.0,148.0,"Wed, Sep  7, 2011","Thu, Sep 29, 2011"
3751,Denver International,Denver,United States,DEN,KDEN,39.861656,-104.673178,5431,-7,A,"Denver, CO",19701,19711,19819,19789,7.790822800873052,13.423519862005957,89.0,119.0,"Fri, Sep  2, 2011","Fri, Sep  2, 2011"
3670,Dallas Fort Worth International,Dallas-fort Worth,United States,DFW,KDFW,32.896828,-97.037997,607,-6,A,"Dallas/Fort Worth, TX",21180,21207,21350,21345,8.740132200188881,14.630122129485542,96.0,115.0,"Thu, Sep 29, 2011","Sun, Sep 18, 2011"
3739,Dothan Regional,Dothan,United States,DHN,KDHN,31.321339,-85.449628,401,-6,A,"Dothan, AL",103,103,103,103,3.1359223300970873,15.60194174757281,7.0,116.0,"Tue, Sep 13, 2011","Thu, Sep 22, 2011"
3598,Duluth International,Duluth,United States,DLH,KDLH,46.842091,-92.193649,1428,-6,A,"Duluth, MN",115,115,115,115,4.860869565217393,10.913043478260873,9.0,37.0,"Mon, Sep 12, 2011","Sat, Sep  3, 2011"
3713,Durango La Plata County,Durango,United States,DRO,KDRO,37.151516,-107.75377,6685,-7,A,"Durango, CO",267,264,270,270,4.92883895131086,10.166666666666666,13.0,39.0,"Sat, Sep  3, 2011","Thu, Sep  1, 2011"
3729,Des Moines International,Des Moines,United States,DSM,KDSM,41.533972,-93.663083,958,-6,A,"Des Moines, IA",1017,1010,1026,1025,4.058997050147498,10.737623762376241,17.0,49.0,"Tue, Sep 20, 2011","Fri, Sep 30, 2011"
3645,Detroit Metro Wayne County,Detroit,United States,DTW,KDTW,42.212444,-83.353389,645,-5,A,"Detroit, MI",7307,7296,7353,7333,8.749965786232384,17.25918311403502,49.0,130.0,"Sun, Sep 11, 2011","Mon, Sep 26, 2011"
5735,Chippewa Valley Regional Airport,Eau Claire,United States,EAU,KEAU,44.8658,-91.4843,913,-6,A,"Eau Claire, WI",58,58,58,58,3.5344827586206895,11.086206896551726,6.0,25.0,"Tue, Sep  6, 2011","Mon, Sep 12, 2011"
7669,Northwest Florida Beaches International,Panama City,United States,ECP,KECP,30.3417,-85.7973,69,-6,A,"Panama City, FL",503,506,507,508,3.355864811133202,11.037549407114623,26.0,53.0,"Wed, Sep 28, 2011","Thu, Sep 22, 2011"
4250,Eagle County Regional,Vail,United States,EGE,KEGE,39.642556,-106.917694,6540,-7,A,"Eagle, CO",120,122,121,123,3.7916666666666665,8.31967213114754,13.0,27.0,"Wed, Sep 21, 2011","Sun, Sep  4, 2011"
5736,Elko Regional Airport,Elko,United States,EKO,KEKO,40.8249,-115.792,5140,-8,A,"Elko, NV",120,120,120,120,4.533333333333332,9.783333333333331,23.0,33.0,"Fri, Sep  2, 2011","Thu, Sep  1, 2011"
3946,Elmira Corning Regional,Elmira,United States,ELM,KELM,42.159889,-76.891611,954,-5,A,"Elmira/Corning, NY",61,61,61,61,3.6557377049180326,10.59016393442623,28.0,43.0,"Sun, Sep 11, 2011","Sun, Sep  4, 2011"
3559,El Paso International,El Paso,United States,ELP,KELP,31.80725,-106.377583,3958,-7,A,"El Paso, TX",1757,1755,1774,1774,4.099032441661916,10.643874643874645,41.0,49.0,"Fri, Sep 30, 2011","Mon, Sep 26, 2011"
4099,Mahlon Sweet Field,Eugene,United States,EUG,KEUG,44.124583,-123.211972,374,-8,A,"Eugene, OR",423,422,426,426,3.709219858156026,10.67298578199053,21.0,41.0,"Thu, Sep 15, 2011","Wed, Sep 14, 2011"
4018,Evansville Regional,Evansville,United States,EVV,KEVV,38.036997,-87.532364,418,-6,A,"Evansville, IN",172,171,172,173,3.6744186046511627,11.11111111111111,12.0,32.0,"Tue, Sep  6, 2011","Mon, Sep 26, 2011"
3730,Craven County Regional,New Bern,United States,EWN,KEWN,35.072972,-77.042944,18,-5,A,"New Bern/Morehead/Beaufort, NC",74,74,74,74,2.7702702702702706,8.364864864864861,7.0,19.0,"Sun, Sep 25, 2011","Thu, Sep 22, 2011"
3494,Newark Liberty International,Newark,United States,EWR,KEWR,40.6925,-74.168667,18,-5,A,"Newark, NJ",8715,8716,8901,8901,9.08594377510042,21.596603946764546,73.0,130.0,"Fri, Sep 30, 2011","Thu, Sep 29, 2011"
3875,Key West International,Key West,United States,EYW,KEYW,24.556111,-81.759556,3,-5,A,"Key West, FL",126,125,129,129,3.626984126984127,8.184000000000001,9.0,23.0,"Tue, Sep  6, 2011","Thu, Sep 22, 2011"
3832,Fairbanks International,Fairbanks,United States,FAI,PAFA,64.815114,-147.856267,434,-9,A,"Fairbanks, AK",381,382,381,382,3.3805774278215224,10.397905759162297,13.0,27.0,"Mon, Sep 19, 2011","Sun, Sep 18, 2011"
4292,Hector International Airport,Fargo,United States,FAR,KFAR,46.92065,-96.8157639,902,-6,A,"Fargo, ND",454,454,456,457,4.370044052863433,11.770925110132163,23.0,85.0,"Thu, Sep  1, 2011","Sun, Sep 18, 2011"
3687,Fresno Yosemite International,Fresno,United States,FAT,KFAT,36.776194,-119.71814,336,-8,A,"Fresno, CA",917,916,922,922,4.101417666303154,11.232532751091703,12.0,45.0,"Fri, Sep 23, 2011","Mon, Sep  5, 2011"
5738,Fayetteville Regional-Grannis Field,Fayetteville,United States,FAY,KFAY,34.9912,-78.8803,189,-5,A,"Fayetteville, NC",298,298,300,300,4.201342281879193,12.654362416107384,14.0,120.0,"Fri, Sep 30, 2011","Thu, Sep 22, 2011"
4127,Glacier Park International,Kalispell,United States,FCA,KFCA,48.310472,-114.256,2977,-7,A,"Kalispell, MT",161,163,161,163,4.074534161490685,12.754601226993865,11.0,33.0,"Wed, Sep 14, 2011","Thu, Sep 29, 2011"
4261,Flagstaff Pulliam Airport,Flagstaff,United States,FLG,KFLG,35.140318,-111.6692392,7015,-7,N,"Flagstaff, AZ",202,201,203,203,5.777227722772275,14.0,13.0,36.0,"Sun, Sep 25, 2011","Sun, Sep 25, 2011"
3533,Fort Lauderdale Hollywood International,Fort Lauderdale,United States,FLL,KFLL,26.072583,-80.15275,9,-5,A,"Fort Lauderdale, FL",4457,4461,4482,4486,4.524568095131262,16.407756108495814,75.0,109.0,"Tue, Sep  6, 2011","Thu, Sep 29, 2011"
4089,Bishop International,Flint,United States,FNT,KFNT,42.965424,-83.743629,782,-5,A,"Flint, MI",205,205,205,205,4.273170731707317,10.21951219512195,13.0,149.0,"Mon, Sep 19, 2011","Tue, Sep 20, 2011"
4009,Sioux Falls,Sioux Falls,United States,FSD,KFSD,43.582014,-96.741914,1429,-6,A,"Sioux Falls, SD",409,408,414,414,4.305623471882642,12.039215686274506,37.0,54.0,"Sun, Sep 18, 2011","Tue, Sep 27, 2011"
3437,Fort Smith Regional,Fort Smith,United States,FSM,KFSM,35.336583,-94.367444,469,-6,A,"Fort Smith, AR",60,60,60,60,3.75,9.133333333333331,9.0,38.0,"Thu, Sep  8, 2011","Sat, Sep 24, 2011"
4041,Fort Wayne,Fort Wayne,United States,FWA,KFWA,40.978472,-85.195139,815,-5,A,"Fort Wayne, IN",251,250,253,253,3.3306772908366535,10.644000000000002,10.0,42.0,"Sat, Sep 24, 2011","Fri, Sep 30, 2011"
4296,Gillette-Campbell County Airport,Gillette,United States,GCC,KGCC,44.3489167,-105.5393611,4365,-7,A,"Gillette, WY",119,116,120,120,4.38655462184874,12.181034482758621,30.0,31.0,"Thu, Sep 15, 2011","Wed, Sep 14, 2011"
3467,Spokane International,Spokane,United States,GEG,KGEG,47.619861,-117.533833,2376,-8,A,"Spokane, WA",906,905,907,908,4.53863134657836,10.690607734806626,14.0,45.0,"Sun, Sep 11, 2011","Fri, Sep  9, 2011"
3442,Grand Forks International,Grand Forks,United States,GFK,KGFK,47.949256,-97.176111,845,-6,A,"Grand Forks, ND",61,60,61,61,4.704918032786885,12.116666666666667,12.0,43.0,"Wed, Sep 28, 2011","Thu, Sep 15, 2011"
4063,Grand Junction Regional,Grand Junction,United States,GJT,KGJT,39.122413,-108.526735,4858,-7,A,"Grand Junction, CO",457,456,457,457,3.8512035010940937,12.298245614035082,15.0,33.0,"Fri, Sep 30, 2011","Mon, Sep 26, 2011"
3472,Gainesville Regional,Gainesville,United States,GNV,KGNV,29.690056,-82.271778,152,-5,A,"Gainesville, FL",233,232,233,233,3.3390557939914154,12.831896551724139,28.0,37.0,"Fri, Sep  9, 2011","Sun, Sep 18, 2011"
4038,Gulfport-Biloxi,Gulfport,United States,GPT,KGPT,30.407278,-89.070111,28,-6,A,"Gulfport/Biloxi, MS",383,379,391,391,4.44386422976502,10.831134564643799,12.0,43.0,"Sun, Sep 11, 2011","Thu, Sep 22, 2011"
3653,Austin Straubel International,Green Bay,United States,GRB,KGRB,44.485072,-88.129589,695,-6,A,"Green Bay, WI",317,319,325,327,3.536277602523661,9.319749216300936,17.0,136.0,"Sun, Sep 18, 2011","Sun, Sep 18, 2011"
5740,Central Nebraska Regional Airport,Grand Island,United States,GRI,KGRI,40.9675,-98.3096,1847,-6,A,"Grand Island, NE",56,56,56,56,3.232142857142857,10.732142857142858,11.0,23.0,"Mon, Sep 26, 2011","Sun, Sep 25, 2011"
3775,Robert Gray AAF,Killeen,United States,GRK,KGRK,31.06725,-97.828917,1015,-6,A,"Killeen, TX",56,55,56,56,4.232142857142857,8.436363636363634,17.0,15.0,"Fri, Sep 16, 2011","Mon, Sep 12, 2011"
3685,Gerald R. Ford International,Grand Rapids,United States,GRR,KGRR,42.880833,-85.522806,794,-5,A,"Grand Rapids, MI",879,878,881,881,4.589306029579064,11.817767653758544,32.0,100.0,"Tue, Sep 27, 2011","Tue, Sep 20, 2011"
4008,Piedmont Triad,Greensboro,United States,GSO,KGSO,36.09775,-79.937306,925,-5,A,"Greensboro/High Point, NC",673,671,684,684,4.265973254086186,15.518628912071545,16.0,103.0,"Thu, Sep 29, 2011","Mon, Sep  5, 2011"
4034,Greenville-Spartanburg International,Greenville,United States,GSP,KGSP,34.895556,-82.218889,964,-5,A,"Greer, SC",771,771,780,780,3.5291828793774327,12.182879377431902,27.0,69.0,"Thu, Sep 22, 2011","Tue, Sep 27, 2011"
3880,Great Falls International,Great Falls,United States,GTF,KGTF,47.482,-111.370689,3677,-7,A,"Great Falls, MT",167,168,167,168,4.11377245508982,9.68452380952381,7.0,23.0,"Mon, Sep  5, 2011","Wed, Sep 14, 2011"
4273,Golden Triangle Regional Airport,Columbus Mississippi,United States,GTR,KGTR,33.450333,-88.591361,264,-6,A,"Columbus, MS",85,85,85,85,3.1882352941176473,12.470588235294118,6.0,37.0,"Sun, Sep 11, 2011","Thu, Sep  8, 2011"
7051,Gunnison - Crested Butte,Gunnison,United States,GUC,KGUC,38.533889,-106.933056,7678,-7,A,"Gunnison, CO",30,30,30,30,4.3,10.9,8.0,16.0,"Thu, Sep 15, 2011","Fri, Sep  9, 2011"
4339,Yampa Valley,Hayden,United States,HDN,KHDN,40.481181,-107.21766,6602,-7,A,"Hayden, CO",85,85,86,86,3.835294117647059,12.12941176470588,5.0,27.0,"Sat, Sep 17, 2011","Thu, Sep  8, 2011"
3504,Helena Regional,Helena,United States,HLN,KHLN,46.606806,-111.98275,3877,-7,A,"Helena, MT",133,132,133,133,3.3383458646616546,11.053030303030301,6.0,27.0,"Sat, Sep 10, 2011","Sun, Sep  4, 2011"
3728,Honolulu International,Honolulu,United States,HNL,PHNL,21.318681,-157.922428,13,-10,N,"Honolulu, HI",4053,4056,4069,4069,6.006908462867011,13.053747534516749,31.0,49.0,"Thu, Sep 22, 2011","Mon, Sep  5, 2011"
3749,Lea County Regional,Hobbs,United States,HOB,KHOB,32.687528,-103.217028,3661,-7,A,"Hobbs, NM",48,48,48,48,3.7916666666666665,9.687499999999998,10.0,29.0,"Mon, Sep 19, 2011","Tue, Sep 27, 2011"
3566,William P. Hobby,Houston,United States,HOU,KHOU,29.645419,-95.278889,46,-6,A,"Houston, TX",4157,4166,4185,4186,5.321145056531142,9.263082093134887,42.0,150.0,"Wed, Sep 14, 2011","Thu, Sep 29, 2011"
3589,Westchester County,White Plains,United States,HPN,KHPN,41.066959,-73.707575,439,-5,A,"White Plains, NY",701,699,702,700,6.06847360912981,15.439198855507879,37.0,131.0,"Tue, Sep  6, 2011","Thu, Sep 29, 2011"
3560,Valley International,Harlingen,United States,HRL,KHRL,26.2285,-97.654389,36,-6,A,"Harlingen/San Benito, TX",395,397,404,404,2.860759493670885,8.317380352644832,8.0,42.0,"Sun, Sep 11, 2011","Sun, Sep 18, 2011"
4113,Huntsville International Airport-Carl T. Jones Field,Huntsville,United States,HSV,KHSV,34.6371944,-86.7750556,629,-6,A,"Huntsville, AL",680,678,687,688,5.008823529411769,12.856932153392325,15.0,82.0,"Sun, Sep 11, 2011","Sun, Sep 18, 2011"
3714,Washington Dulles International,Washington,United States,IAD,KIAD,38.944533,-77.455811,313,-5,A,"Washington, DC",5718,5731,5801,5812,7.725253585169638,17.44669342174138,106.0,172.0,"Wed, Sep 14, 2011","Wed, Sep 14, 2011"
3550,George Bush Intercontinental Houston,Houston,United States,IAH,KIAH,29.984433,-95.341442,97,-6,A,"Houston, TX",13772,13788,13876,13879,7.648199244844615,16.228749637365745,60.0,163.0,"Thu, Sep 29, 2011","Thu, Sep 29, 2011"
3457,Wichita Mid Continent,Wichita,United States,ICT,KICT,37.649944,-97.433056,1333,-6,A,"Wichita, KS",882,882,891,891,4.781179138321994,10.892290249433096,131.0,80.0,"Thu, Sep 29, 2011","Sun, Sep 18, 2011"
4100,Idaho Falls Regional,Idaho Falls,United States,IDA,KIDA,43.514556,-112.07075,4744,-7,A,"Idaho Falls, ID",268,267,271,270,3.9813432835820897,10.513108614232209,8.0,29.0,"Fri, Sep 23, 2011","Sat, Sep 10, 2011"
3845,Wilmington International,Wilmington,United States,ILM,KILM,34.270615,-77.902569,32,-5,A,"Wilmington, NC",372,370,372,371,3.349462365591399,13.924324324324322,14.0,64.0,"Thu, Sep 15, 2011","Fri, Sep 30, 2011"
3585,Indianapolis International,Indianapolis,United States,IND,KIND,39.717331,-86.294383,797,-5,A,"Indianapolis, IN",2346,2343,2360,2360,5.359335038363175,12.216389244558268,41.0,101.0,"Mon, Sep 26, 2011","Thu, Sep 22, 2011"
3689,Imperial County,Imperial,United States,IPL,KIPL,32.834219,-115.578744,-54,-8,A,"El Centro, CA",60,59,60,60,2.6999999999999997,12.542372881355933,6.0,23.0,"Sun, Sep 18, 2011","Fri, Sep  9, 2011"
3857,Long Island MacArthur,Islip,United States,ISP,KISP,40.79525,-73.100222,99,-5,A,"Islip, NY",566,568,571,571,4.1360424028268525,8.917253521126764,14.0,69.0,"Wed, Sep  7, 2011","Wed, Sep  7, 2011"
3415,Hilo International,Hilo,United States,ITO,PHTO,19.721375,-155.048469,38,-10,N,"Hilo, HI",562,561,562,562,5.462633451957295,8.520499108734398,16.0,19.0,"Fri, Sep 16, 2011","Thu, Sep 22, 2011"
7120,Inyokern Airport,Inyokern,United States,IYK,KIYK,35.658889,-117.829444,2455,-8,A,"Inyokern, CA",73,73,73,73,4.1506849315068495,11.424657534246576,7.0,25.0,"Thu, Sep 15, 2011","Thu, Sep  8, 2011"
4027,Jackson Hole Airport,Jacksn Hole,United States,JAC,KJAC,43.60733333,-110.73775,6451,-7,A,"Jackson, WY",277,278,277,279,3.4079422382671476,14.856115107913666,7.0,62.0,"Fri, Sep 16, 2011","Fri, Sep 23, 2011"
3580,Jackson Evers International,Jackson,United States,JAN,KJAN,32.311167,-90.075889,346,-6,A,"Jackson/Vicksburg, MS",753,752,757,758,4.462151394422313,12.130319148936168,30.0,70.0,"Sat, Sep 10, 2011","Thu, Sep 22, 2011"
3712,Jacksonville International,Jacksonville,United States,JAX,KJAX,30.494056,-81.687861,30,-5,A,"Jacksonville, FL",2133,2128,2141,2141,4.930614158462264,12.638157894736842,35.0,113.0,"Tue, Sep 20, 2011","Thu, Sep 29, 2011"
3797,John F. Kennedy International,New York,United States,JFK,KJFK,40.639751,-73.778925,13,-5,A,"New York, NY",7622,7630,7677,7686,9.692862765678239,27.811533420707732,80.0,165.0,"Sun, Sep 18, 2011","Tue, Sep 27, 2011"
3492,Juneau International,Juneau,United States,JNU,PAJN,58.354972,-134.576278,21,-9,A,"Juneau, AK",355,357,360,360,3.7859154929577463,11.817927170868353,9.0,32.0,"Thu, Sep 15, 2011","Thu, Sep  8, 2011"
3514,Kona International At Keahole,Kona,United States,KOA,PHKO,19.738767,-156.045631,47,-10,N,"Kona, HI",937,935,942,942,4.6350053361792956,9.594652406417117,10.0,26.0,"Fri, Sep  9, 2011","Sat, Sep 24, 2011"
3808,Ketchikan International,Ketchikan,United States,KTN,PAKT,55.355556,-131.71375,88,-9,A,"Ketchikan, AK",196,199,201,201,3.8469387755102042,10.51758793969849,17.0,32.0,"Thu, Sep  8, 2011","Fri, Sep  2, 2011"
3544,Capital City,Lansing,United States,LAN,KLAN,42.7787,-84.587357,861,-5,A,"Lansing, MI",92,92,99,99,4.0978260869565215,9.663043478260871,30.0,46.0,"Sun, Sep 11, 2011","Sun, Sep 18, 2011"
3877,McCarran International,Las Vegas,United States,LAS,KLAS,36.080056,-115.15225,2141,-8,A,"Las Vegas, NV",12040,12037,12094,12093,6.799750830564783,16.052587854116496,66.0,123.0,"Tue, Sep 13, 2011","Sun, Sep 25, 2011"
3484,Los Angeles International,Los Angeles,United States,LAX,KLAX,33.942536,-118.408075,126,-8,A,"Los Angeles, CA",17207,17216,17349,17345,9.335328645318807,15.777706784386616,84.0,100.0,"Tue, Sep  6, 2011","Fri, Sep 30, 2011"
3829,Lubbock Preston Smith International,Lubbock,United States,LBB,KLBB,33.663639,-101.822778,3282,-6,A,"Lubbock, TX",667,666,671,670,4.080959520239882,8.896396396396383,12.0,67.0,"Tue, Sep 20, 2011","Thu, Sep 29, 2011"
3513,Lake Charles Regional,Lake Charles,United States,LCH,KLCH,30.126112,-93.223335,15,-6,A,"Lake Charles, LA",87,88,89,89,4.39080459770115,9.98863636363636,10.0,17.0,"Thu, Sep 29, 2011","Sun, Sep 18, 2011"
4017,Blue Grass,Lexington KY,United States,LEX,KLEX,38.0365,-84.605889,979,-5,A,"Lexington, KY",608,607,611,611,4.39638157894736,13.833607907742998,32.0,68.0,"Sun, Sep  4, 2011","Thu, Sep 22, 2011"
3493,Lafayette Regional,Lafayette,United States,LFT,KLFT,30.205278,-91.987611,43,-6,A,"Lafayette, LA",424,425,434,434,4.554245283018869,12.571764705882353,26.0,74.0,"Fri, Sep 23, 2011","Sat, Sep  3, 2011"
3697,LaGuardia Airport,New York,United States,LGA,KLGA,40.777245,-73.872608,22,-5,A,"New York, NY",7751,7761,7969,7972,7.853309250419301,28.137353433835862,114.0,153.0,"Thu, Sep 29, 2011","Wed, Sep  7, 2011"
3582,Long Beach,Long Beach,United States,LGB,KLGB,33.817722,-118.151611,60,-8,A,"Long Beach, CA",1237,1235,1245,1243,4.352465642683913,13.705263157894748,41.0,91.0,"Sun, Sep  4, 2011","Thu, Sep 29, 2011"
3602,Lihue,Lihue,United States,LIH,PHLI,21.975983,-159.338958,153,-10,N,"Lihue, HI",901,897,902,902,5.5516093229744685,8.224080267558534,16.0,32.0,"Thu, Sep  8, 2011","Fri, Sep 30, 2011"
3660,Adams Field,Little Rock,United States,LIT,KLIT,34.729444,-92.224306,262,-6,A,"Little Rock, AR",1290,1287,1295,1296,4.320930232558138,10.861693861693864,33.0,85.0,"Thu, Sep  1, 2011","Sun, Sep 18, 2011"
5750,Klamath Falls Airport,Klamath Falls,United States,LMT,KLMT,42.1561,-121.733,4095,-8,A,"Klamath Falls, OR",90,89,90,90,3.577777777777778,9.662921348314605,6.0,19.0,"Thu, Sep 29, 2011","Mon, Sep 12, 2011"
3543,Lincoln,Lincoln,United States,LNK,KLNK,40.850971,-96.75925,1219,-6,A,"Lincoln, NE",185,184,188,188,3.848648648648649,9.494565217391303,33.0,87.0,"Tue, Sep 27, 2011","Sun, Sep 18, 2011"
3691,Laredo International,Laredo,United States,LRD,KLRD,27.54375,-99.461556,508,-6,A,"Laredo, TX",213,213,213,213,3.488262910798122,10.502347417840376,14.0,124.0,"Wed, Sep 21, 2011","Thu, Sep 29, 2011"
4044,LaCrosse Municipal,LaCrosse,United States,LSE,KLSE,43.878986,-91.256711,654,-6,A,"La Crosse, WI",73,73,73,73,4.726027397260274,12.767123287671232,27.0,43.0,"Fri, Sep 16, 2011","Wed, Sep  7, 2011"
6958,Greenbrier Valley Airport,Lewisburg,United States,LWB,KLWB,37.858333,-80.399444,2302,-5,U,"Lewisburg, WV",30,30,30,30,3.3,14.8,6.0,34.0,"Sat, Sep 24, 2011","Mon, Sep  5, 2011"
3945,Lewiston Nez Perce County,Lewiston,United States,LWS,KLWS,46.3745,-117.015389,1442,-8,A,"Lewiston, ID",53,52,53,52,4.603773584905662,9.44230769230769,8.0,18.0,"Sun, Sep  4, 2011","Sat, Sep  3, 2011"
3652,Midland International,Midland,United States,MAF,KMAF,31.942528,-102.201914,2871,-6,A,"Midland/Odessa, TX",542,543,546,545,3.490774907749077,9.189686924493556,29.0,124.0,"Sun, Sep 18, 2011","Thu, Sep 29, 2011"
4128,MBS International,Saginaw,United States,MBS,KMBS,43.532913,-84.079647,668,-5,A,"Saginaw/Bay City/Midland, MI",83,83,85,85,4.2771084337349405,13.072289156626505,7.0,31.0,"Mon, Sep 26, 2011","Fri, Sep 30, 2011"
3458,Kansas City International,Kansas City,United States,MCI,KMCI,39.297606,-94.713905,1026,-6,A,"Kansas City, MO",3985,3984,4003,4003,5.549058971141785,11.559989959839367,39.0,95.0,"Thu, Sep 15, 2011","Tue, Sep 27, 2011"
3878,Orlando International,Orlando,United States,MCO,KMCO,28.429394,-81.308994,96,-5,A,"Orlando, FL",8873,8865,8895,8892,7.45249633720275,13.181613085166376,116.0,140.0,"Fri, Sep 23, 2011","Thu, Sep 29, 2011"
3542,Harrisburg International,Harrisburg,United States,MDT,KMDT,40.193494,-76.763403,310,-5,A,"Harrisburg, PA",413,411,417,418,4.750605326876518,12.815085158150852,56.0,54.0,"Wed, Sep 14, 2011","Fri, Sep 23, 2011"
3747,Chicago Midway International,Chicago,United States,MDW,KMDW,41.785972,-87.752417,620,-6,A,"Chicago, IL",6980,6988,7012,7013,5.186676217765064,10.636090440755623,49.0,63.0,"Sat, Sep 10, 2011","Thu, Sep 29, 2011"
4335,Key Field,Meridian,United States,MEI,KMEI,32.332624,-88.751868,297,-6,A,"Meridian, MS",55,55,56,56,3.709090909090909,12.363636363636363,7.0,37.0,"Fri, Sep  9, 2011","Tue, Sep 20, 2011"
3473,Memphis International,Memphis,United States,MEM,KMEM,35.042417,-89.976667,341,-6,A,"Memphis, TN",3546,3553,3586,3586,5.719684151156226,15.438221221502952,46.0,142.0,"Sun, Sep 25, 2011","Mon, Sep  5, 2011"
3826,McAllen Miller International,Mcallen,United States,MFE,KMFE,26.175833,-98.238611,107,-6,A,"Mission/McAllen/Edinburg, TX",230,231,233,233,4.156521739130433,10.025974025974026,20.0,26.0,"Wed, Sep  7, 2011","Sat, Sep 17, 2011"
4101,Rogue Valley International Medford,Medford,United States,MFR,KMFR,42.374228,-122.8735,1335,-8,A,"Medford, OR",313,315,314,315,3.8242811501597442,10.885714285714288,7.0,46.0,"Sat, Sep 10, 2011","Sat, Sep 17, 2011"
4115,Montgomery Regional Airport ,MONTGOMERY,United States,MGM,KMGM,32.3006389,-86.3939722,221,-6,A,"Montgomery, AL",348,347,351,351,3.2873563218390807,16.213256484149845,14.0,55.0,"Mon, Sep  5, 2011","Thu, Sep 29, 2011"
4050,Manhattan Regional,Manhattan,United States,MHK,KMHK,39.140972,-96.670833,1057,-6,A,"Manhattan/Ft. Riley, KS",118,118,118,118,3.5,10.1864406779661,12.0,78.0,"Mon, Sep 12, 2011","Tue, Sep 27, 2011"
4011,Manchester Regional Airport,Manchester NH,United States,MHT,KMHT,42.932556,-71.435667,266,-5,A,"Manchester, NH",916,916,927,927,4.5251091703056865,12.027292576419214,13.0,103.0,"Sat, Sep 10, 2011","Wed, Sep  7, 2011"
3576,Miami International,Miami,United States,MIA,KMIA,25.79325,-80.290556,8,-5,A,"Miami, FL",5968,5965,6007,6006,7.167057640750664,16.671081307627805,68.0,117.0,"Fri, Sep  9, 2011","Thu, Sep 29, 2011"
3717,General Mitchell International,Milwaukee,United States,MKE,KMKE,42.947222,-87.896583,723,-6,A,"Milwaukee, WI",3307,3307,3325,3325,5.2945267614151845,11.745993347444823,41.0,73.0,"Wed, Sep  7, 2011","Mon, Sep 19, 2011"
5754,Muskegon County Airport,Muskegon,United States,MKG,KMKG,43.1695,-86.2382,628,-5,A,"Muskegon, MI",59,59,60,60,4.084745762711864,9.305084745762711,6.0,21.0,"Fri, Sep  9, 2011","Sun, Sep  4, 2011"
3671,Melbourne International,Melbourne,United States,MLB,KMLB,28.102753,-80.645258,33,-5,A,"Melbourne, FL",119,119,119,119,4.142857142857141,16.4453781512605,9.0,49.0,"Sat, Sep 24, 2011","Fri, Sep  9, 2011"
4072,Quad City International,Moline,United States,MLI,KMLI,41.448528,-90.507539,590,-6,A,"Moline, IL",463,463,474,473,6.170626349892006,11.514038876889854,13.0,96.0,"Mon, Sep 26, 2011","Mon, Sep  5, 2011"
3732,Monroe Regional,Monroe,United States,MLU,KMLU,32.510864,-92.037689,79,-6,A,"Monroe, LA",124,125,125,125,3.870967741935483,9.176,8.0,20.0,"Sat, Sep 10, 2011","Sun, Sep 18, 2011"
3782,Mobile Regional,Mobile,United States,MOB,KMOB,30.691231,-88.242814,219,-6,A,"Mobile, AL",464,464,471,471,3.9633620689655165,11.627155172413794,10.0,108.0,"Fri, Sep  2, 2011","Mon, Sep  5, 2011"
3816,Modesto City County Harry Sham,Modesto,United States,MOD,KMOD,37.625817,-120.954422,97,-8,A,"Modesto, CA",107,107,113,113,2.607476635514019,10.962616822429908,6.0,37.0,"Mon, Sep  5, 2011","Sat, Sep  3, 2011"
3498,Minot International,Minot,United States,MOT,KMOT,48.259378,-101.280333,1716,-6,A,"Minot, ND",169,167,169,169,4.721893491124259,11.628742514970053,8.0,28.0,"Sun, Sep 25, 2011","Sat, Sep  3, 2011"
6838,Sawyer International Airport,Marquette,United States,MQT,KMQT,46.353611,-87.395278,1221,-5,A,"Marquette, MI",26,26,26,26,4.538461538461538,10.346153846153847,7.0,54.0,"Mon, Sep 19, 2011","Tue, Sep 27, 2011"
3948,Monterey Peninsula,Monterey,United States,MRY,KMRY,36.587,-121.842944,257,-8,A,"Monterey, CA",442,442,457,457,3.5588235294117654,13.113122171945697,18.0,58.0,"Sun, Sep 25, 2011","Sat, Sep 17, 2011"
3459,Dane County Regional-Truax Field,Madison,United States,MSN,KMSN,43.139858,-89.337514,887,-6,A,"Madison, WI",623,623,628,628,3.845906902086679,11.50722311396468,35.0,52.0,"Thu, Sep 29, 2011","Sun, Sep 18, 2011"
4216,Missoula International,Missoula,United States,MSO,KMSO,46.916306,-114.090556,3205,-7,A,"Missoula, MT",231,232,231,232,5.203463203463201,10.172413793103445,18.0,31.0,"Mon, Sep 26, 2011","Wed, Sep 28, 2011"
3858,Minneapolis St. Paul International,Minneapolis,United States,MSP,KMSP,44.881956,-93.221767,841,-6,A,"Minneapolis, MN",8895,8900,8928,8926,7.309612141652615,16.01134831460671,47.0,129.0,"Wed, Sep  7, 2011","Fri, Sep 23, 2011"
3861,Louis Armstrong New Orleans International,New Orleans,United States,MSY,KMSY,29.993389,-90.258028,4,-6,A,"New Orleans, LA",2822,2819,2836,2835,4.727498228206954,10.429584959205366,53.0,65.0,"Thu, Sep 15, 2011","Wed, Sep  7, 2011"
6880,Montrose Regional Airport,Montrose CO,United States,MTJ,KMTJ,38.509794,-107.894242,5759,-7,A,"Montrose/Delta, CO",180,180,182,182,3.7611111111111106,9.494444444444442,7.0,33.0,"Mon, Sep 26, 2011","Thu, Sep  1, 2011"
4265,Martha's Vineyard,Vineyard Haven MA,United States,MVY,KMVY,41.391667,-70.615278,67,-5,A,"Martha's Vineyard, MA",6,6,6,6,3.1666666666666665,12.0,4.0,22.0,"Fri, Sep  2, 2011","Sat, Sep  3, 2011"
3515,Myrtle Beach International,Myrtle Beach,United States,MYR,KMYR,33.67975,-78.928333,25,-5,A,"Myrtle Beach, SC",274,272,275,275,3.9671532846715363,16.014705882352956,10.0,78.0,"Sat, Sep 10, 2011","Mon, Sep  5, 2011"
4386,Albert J. Ellis,Jacksonville NC,United States,OAJ,KOAJ,34.829164,-77.612139,94,-5,A,"Jacksonville/Camp Lejeune, NC",144,144,144,144,2.5972222222222223,12.26388888888889,5.0,54.0,"Tue, Sep  6, 2011","Thu, Sep 22, 2011"
3453,Metropolitan Oakland International,Oakland,United States,OAK,KOAK,37.721278,-122.220722,9,-8,A,"Oakland, CA",3740,3744,3783,3783,5.494652406417117,9.720085470085447,35.0,47.0,"Mon, Sep 19, 2011","Fri, Sep  2, 2011"
3456,Kahului,Kahului,United States,OGG,PHOG,20.89865,-156.430458,54,-10,N,"Kahului, HI",1554,1548,1559,1559,5.483268983268983,8.601421188630475,23.0,52.0,"Thu, Sep 22, 2011","Fri, Sep  9, 2011"
3863,Will Rogers World,Oklahoma City,United States,OKC,KOKC,35.393089,-97.600733,1295,-6,A,"Oklahoma City, OK",1832,1828,1837,1835,4.4896288209606965,10.528446389496722,42.0,51.0,"Fri, Sep 23, 2011","Fri, Sep  2, 2011"
3454,Eppley Airfield,Omaha,United States,OMA,KOMA,41.303167,-95.894069,984,-6,A,"Omaha, NE",1618,1615,1625,1625,3.824474660074167,10.879876160990717,22.0,96.0,"Sat, Sep 24, 2011","Tue, Sep 27, 2011"
3615,Nome,Nome,United States,OME,PAOM,64.512203,-165.445247,37,-9,A,"Nome, AK",88,90,90,90,4.284090909090908,5.722222222222222,7.0,16.0,"Thu, Sep  1, 2011","Fri, Sep  2, 2011"
3734,Ontario International,Ontario,United States,ONT,KONT,34.056,-117.601194,944,-8,A,"Ontario, CA",1909,1908,1915,1914,4.445783132530128,10.080188679245287,20.0,52.0,"Mon, Sep 26, 2011","Wed, Sep 14, 2011"
3830,Chicago O'Hare International,Chicago,United States,ORD,KORD,41.978603,-87.904842,668,-6,A,"Chicago, IL",25317,25378,25661,25669,8.28352490421459,16.448498699661044,71.0,145.0,"Fri, Sep 30, 2011","Wed, Sep  7, 2011"
3611,Norfolk International,Norfolk,United States,ORF,KORF,36.894611,-76.201222,26,-5,A,"Norfolk, VA",1226,1224,1245,1244,4.276508972267533,12.616830065359489,96.0,122.0,"Wed, Sep 28, 2011","Wed, Sep 28, 2011"
5757,Southwest Oregon Regional Airport,North Bend,United States,OTH,KOTH,43.4171,-124.246,17,-8,A,"North Bend/Coos Bay, OR",119,118,120,120,3.0336134453781516,9.000000000000004,12.0,23.0,"Sun, Sep 25, 2011","Fri, Sep 23, 2011"
3693,Ralph WienMemorial,Kotzebue,United States,OTZ,PAOT,66.884678,-162.59855,11,-9,A,"Kotzebue, AK",73,73,78,78,5.178082191780821,6.424657534246576,12.0,18.0,"Sat, Sep 17, 2011","Thu, Sep  8, 2011"
4117,Barkley Regional Airport,PADUCAH,United States,PAH,KPAH,37.0602875,-88.7729583,410,-6,A,"Paducah, KY",60,60,60,60,4.533333333333333,7.833333333333334,15.0,16.0,"Fri, Sep 30, 2011","Mon, Sep 12, 2011"
3722,Palm Beach International,West Palm Beach,United States,PBI,KPBI,26.683161,-80.095589,19,-5,A,"West Palm Beach/Palm Beach, FL",1474,1475,1479,1481,4.5407055630936215,12.720677966101688,39.0,65.0,"Fri, Sep  9, 2011","Sun, Sep 18, 2011"
3720,Portland International,Portland,United States,PDX,KPDX,45.588722,-122.5975,30,-8,A,"Portland, OR",4425,4422,4431,4433,4.473898305084746,13.06603346901854,32.0,61.0,"Tue, Sep  6, 2011","Thu, Sep 22, 2011"
3633,Newport News Williamsburg International,Newport News,United States,PHF,KPHF,37.131894,-76.492989,43,-5,A,"Newport News/Williamsburg, VA",350,350,353,353,5.717142857142854,12.428571428571423,13.0,50.0,"Sun, Sep  4, 2011","Thu, Sep 15, 2011"
3752,Philadelphia International,Philadelphia,United States,PHL,KPHL,39.871944,-75.241139,36,-5,A,"Philadelphia, PA",6904,6916,7005,7011,7.498406720741599,23.657750144592207,77.0,156.0,"Thu, Sep 22, 2011","Wed, Sep  7, 2011"
3462,Phoenix Sky Harbor International,Phoenix,United States,PHX,KPHX,33.434278,-112.011583,1135,-7,N,"Phoenix, AZ",14695,14748,14817,14813,6.71282749234432,14.366761594792521,97.0,93.0,"Wed, Sep 21, 2011","Thu, Sep  8, 2011"
4046,Peoria Regional,Peoria,United States,PIA,KPIA,40.664203,-89.693258,660,-6,A,"Peoria, IL",228,228,229,229,3.7982456140350878,11.021929824561406,20.0,62.0,"Mon, Sep 26, 2011","Tue, Sep 20, 2011"
5760,Pocatello Regional Airport,Pocatello,United States,PIH,KPIH,42.9098,-112.596,4452,-7,A,"Pocatello, ID",90,90,90,90,3.0555555555555562,8.588888888888892,6.0,23.0,"Sat, Sep 10, 2011","Tue, Sep 20, 2011"
3570,Pittsburgh International,Pittsburgh (pennsylva),United States,PIT,KPIT,40.491467,-80.232872,1204,-5,A,"Pittsburgh, PA",2512,2518,2531,2535,5.229299363057324,13.023828435266095,43.0,124.0,"Sun, Sep 11, 2011","Wed, Sep 28, 2011"
3564,Pensacola Regional,Pensacola,United States,PNS,KPNS,30.473425,-87.186611,121,-6,A,"Pensacola, FL",742,742,748,748,4.036388140161725,12.927223719676554,11.0,47.0,"Thu, Sep 15, 2011","Sun, Sep 25, 2011"
6133,Tri Cities Airport,Pasco,United States,PSC,PSC,46.2647,-119.119,410,-8,A,"Pasco/Kennewick/Richland, WA",242,242,243,244,4.462809917355374,10.25619834710744,7.0,39.0,"Thu, Sep 22, 2011","Thu, Sep 15, 2011"
4147,Petersburg James A. Johnson,Petersburg,United States,PSG,PAPG,56.801667,-132.945278,105,-9,A,"Petersburg, AK",58,58,60,60,3.8793103448275863,8.310344827586208,6.0,23.0,"Sat, Sep 17, 2011","Sun, Sep 18, 2011"
3839,Palm Springs International,Palm Springs,United States,PSP,KPSP,33.829667,-116.506694,477,-8,A,"Palm Springs, CA",666,663,673,673,4.912912912912912,12.539969834087486,23.0,84.0,"Fri, Sep  2, 2011","Sun, Sep  4, 2011"
3641,Theodore Francis Green State,Providence,United States,PVD,KPVD,41.732581,-71.420383,55,-5,A,"Providence, RI",1282,1281,1291,1291,4.443057722308897,12.669008587041382,25.0,91.0,"Fri, Sep 23, 2011","Tue, Sep 20, 2011"
3862,Portland International Jetport,Portland,United States,PWM,KPWM,43.646161,-70.309281,77,-5,A,"Portland, ME",539,538,543,542,3.9239332096474953,13.040892193308547,18.0,95.0,"Wed, Sep  7, 2011","Tue, Sep 27, 2011"
4087,Rapid City Regional Airport,Rapid City,United States,RAP,KRAP,44.045278,-103.057222,3204,-7,A,"Rapid City, SD",483,483,487,488,4.389233954451343,10.07246376811595,40.0,25.0,"Wed, Sep  7, 2011","Mon, Sep  5, 2011"
4098,Redding Municipal,Redding,United States,RDD,KRDD,40.509,-122.293389,504,-8,A,"Redding, CA",143,142,144,144,3.832167832167832,10.281690140845072,7.0,29.0,"Mon, Sep  5, 2011","Sat, Sep 24, 2011"
4103,Roberts Field,Redmond-Bend,United States,RDM,KRDM,44.254066,-121.149964,3077,-8,A,"Bend/Redmond, OR",268,268,268,268,3.578358208955224,9.335820895522392,13.0,41.0,"Thu, Sep 29, 2011","Thu, Sep  8, 2011"
3626,Raleigh Durham International,Raleigh-durham,United States,RDU,KRDU,35.877639,-78.787472,435,-5,A,"Raleigh/Durham, NC",3549,3537,3592,3585,4.504367427444357,14.9496748657054,51.0,106.0,"Wed, Sep  7, 2011","Thu, Sep 15, 2011"
3608,Richmond International,Richmond,United States,RIC,KRIC,37.505167,-77.319667,167,-5,A,"Richmond, VA",1306,1304,1326,1326,6.209800918836139,14.45935582822086,34.0,103.0,"Thu, Sep  1, 2011","Wed, Sep 28, 2011"
5766,Rock Springs Sweetwater County Airport,Rock Springs,United States,RKS,KRKS,41.5942,-109.065,6760,-7,A,"Rock Springs, WY",174,172,177,177,3.5057471264367823,9.866279069767446,8.0,29.0,"Thu, Sep  8, 2011","Mon, Sep 26, 2011"
3807,Reno Tahoe International,Reno,United States,RNO,KRNO,39.499108,-119.768108,4415,-8,A,"Reno, NV",1749,1747,1760,1761,4.372784448256132,10.729250143102462,26.0,59.0,"Tue, Sep 13, 2011","Sun, Sep 11, 2011"
4016,Roanoke Regional,Roanoke VA,United States,ROA,KROA,37.325472,-79.975417,1175,-5,A,"Roanoke, VA",236,235,241,241,4.97457627118644,14.480851063829787,13.0,43.0,"Tue, Sep 27, 2011","Tue, Sep  6, 2011"
3622,Greater Rochester International,Rochester,United States,ROC,KROC,43.118866,-77.672389,559,-5,A,"Rochester, NY",723,722,725,725,4.921161825726144,12.216066481994472,21.0,94.0,"Wed, Sep 14, 2011","Tue, Sep 27, 2011"
3736,Roswell International Air Center,Roswell,United States,ROW,KROW,33.301556,-104.530556,3671,-7,A,"Roswell, NM",115,117,115,117,3.982608695652175,8.760683760683758,11.0,27.0,"Wed, Sep 14, 2011","Sat, Sep 10, 2011"
4048,Rochester,Rochester,United States,RST,KRST,43.908283,-92.500014,1317,-6,A,"Rochester, MN",148,147,151,150,3.93918918918919,11.374149659863948,8.0,34.0,"Tue, Sep 20, 2011","Mon, Sep 26, 2011"
3793,Southwest Florida International,Fort Myers,United States,RSW,KRSW,26.536167,-81.755167,30,-5,A,"Fort Myers, FL",1436,1432,1437,1438,4.600974930362118,11.791201117318426,40.0,71.0,"Sat, Sep 10, 2011","Sun, Sep 11, 2011"
3784,Santa Fe Municipal,Santa Fe,United States,SAF,KSAF,35.617108,-106.089422,6348,-7,A,"Santa Fe, NM",80,80,80,80,4.525,10.5875,9.0,27.0,"Fri, Sep  9, 2011","Thu, Sep 22, 2011"
3731,San Diego International,San Diego,United States,SAN,KSAN,32.733556,-117.189667,17,-8,A,"San Diego, CA",6065,6058,6167,6165,3.6212695795548218,13.582700561241325,57.0,89.0,"Thu, Sep  8, 2011","Fri, Sep 30, 2011"
3621,San Antonio International,San Antonio,United States,SAT,KSAT,29.533694,-98.469778,809,-6,A,"San Antonio, TX",3101,3097,3108,3108,4.2025153176394685,11.795285760413321,47.0,125.0,"Sat, Sep 10, 2011","Thu, Sep 29, 2011"
3613,Savannah Hilton Head International,Savannah,United States,SAV,KSAV,32.127583,-81.202139,51,-5,A,"Savannah, GA",723,722,734,733,5.284923928077463,14.861495844875346,37.0,87.0,"Sat, Sep 24, 2011","Thu, Sep 22, 2011"
3949,Santa Barbara Municipal,Santa Barbara,United States,SBA,KSBA,34.426211,-119.840372,10,-8,A,"Santa Barbara, CA",832,831,837,837,4.137019230769234,11.089049338146818,22.0,40.0,"Thu, Sep  8, 2011","Sun, Sep 11, 2011"
4359,South Bend Regional,South Bend,United States,SBN,KSBN,41.708661,-86.31725,799,-5,A,"South Bend, IN",226,224,232,230,3.800884955752214,11.866071428571427,22.0,120.0,"Wed, Sep 14, 2011","Sun, Sep 18, 2011"
5768,San Luis County Regional Airport,San Luis Obispo,United States,SBP,KSBP,35.2368,-120.642,212,-8,A,"San Luis Obispo, CA",380,380,381,381,3.2499999999999996,10.60526315789474,10.0,38.0,"Sun, Sep  4, 2011","Thu, Sep 22, 2011"
3620,Deadhorse,Deadhorse,United States,SCC,PASC,70.19475,-148.465167,64,-9,A,"Deadhorse, AK",55,55,56,56,3.7636363636363637,7.163636363636364,6.0,31.0,"Tue, Sep  6, 2011","Fri, Sep 23, 2011"
4318,University Park Airport,State College Pennsylvania,United States,SCE,KUNV,40.849278,-77.848694,1239,-5,A,"State College, PA",1,1,1,1,3.0,13.0,3.0,13.0,"Fri, Sep  9, 2011","Sun, Sep 11, 2011"
4014,Louisville International Airport,Louisville,United States,SDF,KSDF,38.1740858,-85.7364989,501,-5,A,"Louisville, KY",1272,1273,1283,1283,5.410377358490567,11.93637077769051,31.0,63.0,"Mon, Sep 12, 2011","Thu, Sep 22, 2011"
3577,Seattle Tacoma International,Seattle,United States,SEA,KSEA,47.449,-122.309306,433,-8,A,"Seattle, WA",8538,8539,8558,8559,6.0507144530334935,14.446539407424751,41.0,72.0,"Sun, Sep 25, 2011","Sun, Sep 11, 2011"
3469,San Francisco International,San Francisco,United States,SFO,KSFO,37.618972,-122.374889,13,-8,A,"San Francisco, CA",12386,12412,12531,12531,7.283303730017751,17.717531421205333,80.0,86.0,"Fri, Sep 30, 2011","Sun, Sep  4, 2011"
4348,Springfield Branson National,Springfield,United States,SGF,KSGF,37.245667,-93.388639,1268,-6,A,"Springfield, MO",605,602,609,610,5.299173553719006,11.923588039867116,24.0,95.0,"Sat, Sep 17, 2011","Tue, Sep 27, 2011"
4064,St. George Municipal,Saint George,United States,SGU,KSGU,37.090583,-113.593056,2941,-7,A,"St. George, UT",168,167,168,168,3.6785714285714284,10.814371257485034,6.0,25.0,"Sun, Sep 25, 2011","Fri, Sep 16, 2011"
3609,Shreveport Regional,Shreveport,United States,SHV,KSHV,32.446629,-93.8256,258,-6,A,"Shreveport, LA",301,300,302,302,4.481727574750835,9.370000000000006,25.0,25.0,"Fri, Sep 16, 2011","Thu, Sep 22, 2011"
3856,Sitka Rocky Gutierrez,Sitka,United States,SIT,PASI,57.047138,-135.361611,21,-9,A,"Sitka, AK",110,110,112,112,4.090909090909088,11.063636363636368,8.0,37.0,"Sun, Sep  4, 2011","Fri, Sep  2, 2011"
3748,Norman Y. Mineta San Jose International,San Jose,United States,SJC,KSJC,37.3626,-121.929022,62,-8,A,"San Jose, CA",3315,3314,3341,3341,3.804223227752638,10.382015691007847,54.0,51.0,"Wed, Sep 28, 2011","Fri, Sep 23, 2011"
3536,Salt Lake City International,Salt Lake City,United States,SLC,KSLC,40.788389,-111.977772,4227,-7,A,"Salt Lake City, UT",9423,9434,9456,9453,5.8428313700519965,16.141085435658187,40.0,85.0,"Sat, Sep 24, 2011","Mon, Sep  5, 2011"
3817,Sacramento International,Sacramento,United States,SMF,KSMF,38.695417,-121.590778,27,-8,A,"Sacramento, CA",3685,3683,3719,3718,4.483582089552252,10.360304099918556,26.0,54.0,"Thu, Sep  1, 2011","Wed, Sep  7, 2011"
5772,Santa Maria Public-Captain G. Allan Hancock Airport,Santa Maria,United States,SMX,KSMX,34.8989,-120.457,261,-8,A,"Santa Maria, CA",103,103,107,107,3.6407766990291264,9.961165048543686,7.0,23.0,"Thu, Sep 15, 2011","Thu, Sep 29, 2011"
3867,John Wayne Airport Orange County,Santa Ana,United States,SNA,KSNA,33.675667,-117.868222,56,-8,A,"Santa Ana, CA",3276,3277,3295,3296,6.333028083028081,11.7268843454379,45.0,76.0,"Fri, Sep 30, 2011","Fri, Sep 30, 2011"
4336,Abraham Lincoln Capital,Springfield,United States,SPI,KSPI,39.8441,-89.677889,597,-6,A,"Springfield, IL",167,166,169,169,3.916167664670658,8.879518072289153,16.0,58.0,"Thu, Sep 22, 2011","Mon, Sep 26, 2011"
4067,Sarasota Bradenton International,Sarasota,United States,SRQ,KSRQ,27.395444,-82.554389,30,-5,A,"Sarasota/Bradenton, FL",282,282,282,282,4.542553191489365,11.475177304964538,11.0,37.0,"Thu, Sep 29, 2011","Mon, Sep 26, 2011"
3678,Lambert St. Louis International,St. Louis,United States,STL,KSTL,38.748697,-90.370028,618,-6,A,"St. Louis, MO",4664,4662,4683,4682,5.033018867924532,10.174817674817682,47.0,97.0,"Thu, Sep  1, 2011","Sun, Sep 18, 2011"
6494,Friedman Memorial,Hailey,United States,SUN,KSUN,43.504444,-114.296194,5320,-7,A,"Sun Valley/Hailey/Ketchum, ID",160,160,161,161,3.0249999999999995,8.637500000000003,15.0,24.0,"Mon, Sep  5, 2011","Wed, Sep  7, 2011"
3661,Stewart International,Newburgh,United States,SWF,KSWF,41.504094,-74.104839,491,-5,A,"Newburgh/Poughkeepsie, NY",120,120,120,120,4.833333333333335,12.833333333333334,9.0,41.0,"Thu, Sep  8, 2011","Tue, Sep  6, 2011"
3745,Syracuse Hancock International,Syracuse,United States,SYR,KSYR,43.111187,-76.106311,421,-5,A,"Syracuse, NY",546,546,552,552,4.252747252747252,12.736263736263737,30.0,63.0,"Wed, Sep 28, 2011","Tue, Sep 27, 2011"
3698,Tallahassee Regional,Tallahassee,United States,TLH,KTLH,30.396528,-84.350333,81,-5,A,"Tallahassee, FL",300,299,303,303,3.29,13.752508361204013,11.0,61.0,"Sat, Sep 17, 2011","Fri, Sep 16, 2011"
4040,Toledo,Toledo,United States,TOL,KTOL,41.586806,-83.807833,684,-5,A,"Toledo, OH",42,42,42,42,2.5714285714285716,10.952380952380953,5.0,27.0,"Thu, Sep  1, 2011","Thu, Sep  1, 2011"
3646,Tampa International,Tampa,United States,TPA,KTPA,27.975472,-82.53325,26,-5,A,"Tampa, FL",5034,5034,5052,5052,4.5317838696861275,11.74076281287249,65.0,117.0,"Thu, Sep 22, 2011","Thu, Sep 22, 2011"
4116,Tri-Cities Regional Airport,BRISTOL,United States,TRI,KTRI,36.4752222,-82.4074167,1519,-5,A,"Bristol/Johnson City/Kingsport, TN",289,290,291,291,3.7024221453287196,13.168965517241379,13.0,80.0,"Mon, Sep 26, 2011","Thu, Sep 22, 2011"
3855,Tulsa International,Tulsa,United States,TUL,KTUL,36.198389,-95.888111,677,-6,A,"Tulsa, OK",1495,1493,1502,1503,4.727090301003339,10.881446751507024,33.0,69.0,"Tue, Sep 13, 2011","Sun, Sep 18, 2011"
3636,Tucson International,Tucson,United States,TUS,KTUS,32.116083,-110.941028,2643,-7,N,"Tucson, AZ",1762,1762,1773,1774,4.509648127128255,10.768444948921676,106.0,126.0,"Thu, Sep 15, 2011","Thu, Sep 15, 2011"
4023,Cherry Capital Airport,Traverse City,United States,TVC,KTVC,44.741445,-85.582235,624,-5,A,"Traverse City, MI",137,137,140,140,3.372262773722628,10.10948905109489,7.0,26.0,"Fri, Sep 16, 2011","Wed, Sep  7, 2011"
4263,Magic Valley Regional Airport,Twin Falls,United States,TWF,KTWF,42.481803,-114.487733,4151,-7,A,"Twin Falls, ID",96,96,96,96,3.2916666666666665,9.302083333333336,5.0,17.0,"Mon, Sep 26, 2011","Fri, Sep 16, 2011"
3770,Texarkana Regional-Webb Field,Texarkana,United States,TXK,KTXK,33.453722,-93.991028,390,-6,A,"Texarkana, AR",88,87,88,88,2.715909090909091,7.620689655172414,7.0,30.0,"Sun, Sep 11, 2011","Tue, Sep 20, 2011"
3848,Tyler Pounds Regional,Tyler,United States,TYR,KTYR,32.354139,-95.402386,544,-6,A,"Tyler, TX",89,89,90,90,4.0786516853932575,8.887640449438202,10.0,22.0,"Mon, Sep 26, 2011","Wed, Sep  7, 2011"
3676,McGhee Tyson,Knoxville,United States,TYS,KTYS,35.810972,-83.994028,981,-5,A,"Knoxville, TN",882,881,889,889,3.9455782312925165,12.292849035187292,35.0,130.0,"Mon, Sep  5, 2011","Fri, Sep 23, 2011"
5776,Valdosta Regional Airport,Valdosta,United States,VLD,KVLD,30.7825,-83.2767,203,-5,A,"Valdosta, GA",84,84,85,85,4.000000000000003,12.5,8.0,28.0,"Thu, Sep  8, 2011","Sun, Sep 18, 2011"
3873,Eglin AFB,Valparaiso,United States,VPS,KVPS,30.48325,-86.5254,87,-6,A,"Valparaiso, FL",431,429,431,431,7.914153132250584,14.445221445221446,57.0,74.0,"Thu, Sep 15, 2011","Thu, Sep 22, 2011"
5969,Wrangell Airport,Wrangell,United States,WRG,PAWG,56.4843,-132.37,44,-9,A,"Wrangell, AK",57,57,60,60,3.912280701754386,9.035087719298248,5.0,40.0,"Sat, Sep  3, 2011","Thu, Sep 15, 2011"
7072,Yellowstone Airport,West Yellowstone,United States,WYS,KWYS,44.688333,-111.1175,6644,-7,A,"West Yellowstone, MT",68,67,68,68,3.3970588235294117,8.104477611940295,5.0,13.0,"Wed, Sep 14, 2011","Sat, Sep 10, 2011"
4356,NW Arkansas Regional,Bentonville,United States,XNA,KXNA,36.2818694,-94.3068111,1287,-6,A,"Fayetteville, AR",1047,1044,1069,1070,4.871060171919774,11.79980842911878,42.0,65.0,"Sun, Sep 18, 2011","Tue, Sep 27, 2011"
6803,Yakutat,Yakutat,United States,YAK,PAYA,59.3012,-139.3937,33,-9,A,"Yakutat, AK",60,60,60,60,3.683333333333333,6.983333333333333,5.0,22.0,"Fri, Sep  2, 2011","Wed, Sep  7, 2011"
3596,Yuma MCAS Yuma International,Yuma,United States,YUM,KYUM,32.656578,-114.60598,216,-7,N,"Yuma, AZ",278,277,286,286,5.125899280575538,11.6173285198556,28.0,40.0,"Fri, Sep 23, 2011","Fri, Sep  2, 2011"
