airport_id,name,city,country,iata_faa,iaco,latitude,longitude,altitude,zone,dst,city_state,avg_able_landings,avg_able_takeoffs,total_landings,total_takeoffs,avg_taxi_in,avg_taxi_out,longest_taxi_in,longest_taxi_out,lng_tx_in_date,lng_tx_out_date
4355,Lehigh Valley International,Allentown,United States,ABE,KABE,40.652083,-75.440806,393,-5,A,"Allentown/Bethlehem/Easton, PA",271,270,277,277,4.070110701107011,11.811111111111108,12.0,91.0,"Thu, Oct 13, 2011","Sat, Oct 29, 2011"
3718,Abilene Regional,Abilene,United States,ABI,KABI,32.411319,-99.681897,1791,-6,A,"Abilene, TX",209,209,212,212,3.38755980861244,9.306220095693782,10.0,50.0,"Tue, Oct 25, 2011","Tue, Oct 11, 2011"
4019,Albuquerque International Sunport,Albuquerque,United States,ABQ,KABQ,35.0402222,-106.6091944,5355,-7,A,"Albuquerque, NM",2928,2931,2936,2940,5.235997267759558,9.88502217673151,33.0,78.0,"Wed, Oct 26, 2011","Thu, Oct  6, 2011"
5715,Southwest Georgia Regional Airport,Albany,United States,ABY,KABY,31.5355,-84.1945,197,-5,A,"Albany, GA",86,87,87,87,3.63953488372093,15.275862068965518,24.0,55.0,"Sun, Oct 23, 2011","Sun, Oct 30, 2011"
3517,Nantucket Memorial,Nantucket,United States,ACK,KACK,41.253053,-70.060181,48,-5,A,"Nantucket, MA",8,8,8,8,3.125,14.5,7.0,31.0,"Mon, Oct 10, 2011","Thu, Oct  6, 2011"
3700,Waco Regional,Waco,United States,ACT,KACT,31.611289,-97.230519,516,-6,A,"Waco, TX",31,31,31,31,4.096774193548389,10.096774193548386,9.0,27.0,"Wed, Oct  5, 2011","Sun, Oct 30, 2011"
4384,Arcata,Arcata CA,United States,ACV,KACV,40.978111,-124.108611,221,-8,A,"Arcata/Eureka, CA",271,271,285,285,3.819188191881916,9.472324723247231,10.0,41.0,"Mon, Oct 10, 2011","Thu, Oct  6, 2011"
3524,Atlantic City International,Atlantic City,United States,ACY,KACY,39.457583,-74.577167,75,-5,A,"Atlantic City, NJ",62,62,62,62,4.048387096774194,10.064516129032254,6.0,28.0,"Sun, Oct  2, 2011","Sun, Oct 30, 2011"
5959,Adak Airport,Adak Island,United States,ADK,PADK,51.878,-176.646,18,-10,A,"Adak Island, AK",9,9,9,9,4.444444444444445,9.222222222222221,6.0,15.0,"Sun, Oct 23, 2011","Thu, Oct 20, 2011"
3531,Kodiak,Kodiak,United States,ADQ,PADQ,57.749967,-152.493856,78,-9,A,"Kodiak, AK",53,53,57,57,3.056603773584906,5.886792452830188,9.0,16.0,"Mon, Oct  3, 2011","Mon, Oct 31, 2011"
3852,Alexandria International,Alexandria,United States,AEX,KAEX,31.3274,-92.549833,89,-6,A,"Alexandria, LA",265,263,266,266,2.811320754716982,11.201520912547528,10.0,43.0,"Mon, Oct 31, 2011","Sun, Oct 16, 2011"
3658,Augusta Regional At Bush Field,Bush Field,United States,AGS,KAGS,33.369944,-81.9645,144,-5,A,"Augusta, GA",275,275,279,280,4.516363636363634,17.330909090909092,11.0,69.0,"Sun, Oct 23, 2011","Sun, Oct  9, 2011"
3864,Albany International,Albany,United States,ALB,KALB,42.748267,-73.801692,285,-5,A,"Albany, NY",836,835,837,837,3.9581339712918653,11.967664670658687,27.0,61.0,"Sat, Oct  8, 2011","Sat, Oct 29, 2011"
3840,Rick Husband Amarillo International,Amarillo,United States,AMA,KAMA,35.219369,-101.705931,3607,-6,A,"Amarillo, TX",608,609,613,614,4.136513157894734,9.72577996715928,23.0,73.0,"Mon, Oct 31, 2011","Sun, Oct  9, 2011"
3774,Ted Stevens Anchorage International,Anchorage,United States,ANC,PANC,61.174361,-149.996361,152,-9,A,"Anchorage, AK",1402,1406,1411,1411,4.605563480741799,12.620199146514942,26.0,65.0,"Mon, Oct 31, 2011","Mon, Oct 31, 2011"
7001,Aspen/Pitkin County-Sardy Field,Aspen,United States,ASE,KASE,39.2232,-106.869,7820,-7,A,"Aspen, CO",139,140,160,160,3.237410071942447,9.071428571428571,4.0,45.0,"Tue, Oct 18, 2011","Wed, Oct 26, 2011"
3682,Hartsfield Jackson Atlanta International,Atlanta,United States,ATL,KATL,33.636719,-84.428067,1026,-5,A,"Atlanta, GA",33192,33226,33298,33297,11.21731140033747,20.072714139529314,108.0,137.0,"Thu, Oct  6, 2011","Fri, Oct 14, 2011"
4047,Appleton,Appleton,United States,ATW,KATW,44.257526,-88.507576,680,-6,A,"Appleton, WI",338,338,342,342,3.594674556213018,10.721893491124261,8.0,38.0,"Sun, Oct 23, 2011","Tue, Oct 25, 2011"
3673,Austin Bergstrom International,Austin,United States,AUS,KAUS,30.194528,-97.669889,542,-6,A,"Austin, TX",3587,3584,3596,3596,5.3100083635349815,11.4146205357143,45.0,81.0,"Wed, Oct 19, 2011","Wed, Oct 12, 2011"
4007,Asheville Regional Airport,Asheville,United States,AVL,KAVL,35.436194,-82.541806,2165,-5,A,"Asheville, NC",434,433,438,438,3.8640552995391704,17.27944572748268,34.0,67.0,"Tue, Oct 18, 2011","Thu, Oct 13, 2011"
4286,Wilkes Barre Scranton International,Scranton,United States,AVP,KAVP,41.338478,-75.723403,962,-5,A,"Scranton/Wilkes-Barre, PA",133,132,136,136,3.6090225563909772,11.287878787878787,17.0,64.0,"Sat, Oct  8, 2011","Thu, Oct 13, 2011"
4039,Kalamazoo,Kalamazoo,United States,AZO,KAZO,42.234875,-85.552058,874,-5,A,"Kalamazoo, MI",57,57,57,57,2.807017543859649,11.263157894736842,8.0,22.0,"Sat, Oct 29, 2011","Sun, Oct 30, 2011"
3825,Bradley International,Windsor Locks,United States,BDL,KBDL,41.938889,-72.683222,173,-5,A,"Hartford, CT",1859,1852,1893,1891,5.496503496503496,13.488120950323975,117.0,122.0,"Sat, Oct 29, 2011","Sat, Oct 29, 2011"
3599,Bethel,Bethel,United States,BET,PABE,60.779778,-161.838,121,-9,A,"Bethel, AK",88,88,88,88,3.840909090909091,8.09090909090909,6.0,31.0,"Sat, Oct 15, 2011","Mon, Oct 24, 2011"
3558,Meadows Field,Bakersfield,United States,BFL,KBFL,35.433598,-119.05677,507,-8,A,"Bakersfield, CA",313,315,316,318,4.000000000000002,11.13650793650794,13.0,37.0,"Thu, Oct 13, 2011","Mon, Oct 24, 2011"
3463,Bangor International,Bangor,United States,BGR,KBGR,44.807444,-68.828139,192,-5,A,"Bangor, ME",61,61,62,62,3.901639344262295,13.360655737704919,9.0,29.0,"Mon, Oct 17, 2011","Tue, Oct 18, 2011"
3811,Birmingham International,Birmingham,United States,BHM,KBHM,33.562942,-86.75355,644,-6,A,"Birmingham, AL",1530,1528,1537,1538,3.7026143790849675,12.441099476439788,30.0,76.0,"Fri, Oct 28, 2011","Thu, Oct  6, 2011"
4021,Billings Logan International Airport,Billings,United States,BIL,KBIL,45.80921,-108.537654,3652,-7,A,"Billings, MT",275,273,275,275,3.658181818181818,10.666666666666668,8.0,26.0,"Sun, Oct  9, 2011","Tue, Oct  4, 2011"
4083,Bismarck Municipal Airport,Bismarck,United States,BIS,KBIS,46.775842,-100.757931,1661,-6,A,"Bismarck/Mandan, ND",284,285,286,287,4.088028169014087,10.898245614035092,21.0,30.0,"Wed, Oct 12, 2011","Sat, Oct 15, 2011"
6962,Branson LLC,Branson,United States,BKG,KBBG,36.531994,-93.200556,1302,-6,A,"Branson, MO",147,147,147,147,4.394557823129251,10.047619047619053,8.0,24.0,"Sun, Oct 16, 2011","Fri, Oct 21, 2011"
3777,Bellingham International,Bellingham,United States,BLI,KBLI,48.792694,-122.537528,170,-8,A,"Bellingham, WA",62,62,62,62,4.951612903225806,11.225806451612904,17.0,34.0,"Sat, Oct 22, 2011","Fri, Oct 28, 2011"
4037,Central Illinois Regional,Bloomington,United States,BMI,KBMI,40.477111,-88.915917,871,-6,A,"Bloomington/Normal, IL",258,258,259,259,3.9186046511627906,7.325581395348837,14.0,41.0,"Fri, Oct  7, 2011","Wed, Oct 26, 2011"
3690,Nashville International,Nashville,United States,BNA,KBNA,36.124472,-86.678194,599,-6,A,"Nashville, TN",4518,4513,4540,4539,5.705843293492694,11.955683580766662,35.0,111.0,"Sat, Oct 29, 2011","Sat, Oct 29, 2011"
3495,Boise Air Terminal,Boise,United States,BOI,KBOI,43.564361,-116.222861,2871,-7,A,"Boise, ID",1153,1152,1154,1154,4.075455333911535,10.164930555555552,25.0,65.0,"Sat, Oct  8, 2011","Sun, Oct 16, 2011"
3448,General Edward Lawrence Logan International,Boston,United States,BOS,KBOS,42.364347,-71.005181,19,-5,A,"Boston, MA",9001,9012,9100,9103,6.852905232751921,19.160119840213056,45.0,133.0,"Sun, Oct 16, 2011","Sun, Oct  2, 2011"
5725,Brunswick Golden Isles Airport,Brunswick,United States,BQK,KBQK,31.2588,-81.4665,26,-5,A,"Brunswick, GA",79,79,79,79,3.177215189873418,14.835443037974683,5.0,43.0,"Sun, Oct  2, 2011","Fri, Oct 14, 2011"
3738,Brownsville South Padre Island International,Brownsville,United States,BRO,KBRO,25.906833,-97.425861,22,-6,A,"Brownsville, TX",199,198,203,203,4.180904522613067,9.565656565656564,7.0,25.0,"Sat, Oct 22, 2011","Sat, Oct  8, 2011"
3571,Wiley Post Will RogersMemorial,Barrow,United States,BRW,PABR,71.285446,-156.766003,44,-9,A,"Barrow, AK",70,70,71,71,4.6714285714285735,6.7857142857142865,7.0,43.0,"Sat, Oct 15, 2011","Sat, Oct  8, 2011"
4022,Bert Mooney Airport,Butte,United States,BTM,KBTM,45.954806,-112.497472,5550,-7,A,"Butte, MT",62,62,62,62,3.661290322580645,9.596774193548388,6.0,21.0,"Thu, Oct 27, 2011","Fri, Oct 28, 2011"
3846,Baton Rouge Metro-Ryan Field,Baton Rouge,United States,BTR,KBTR,30.533167,-91.149639,70,-6,A,"Baton Rouge, LA",664,664,673,673,5.221385542168674,11.54367469879517,42.0,40.0,"Thu, Oct 27, 2011","Fri, Oct 21, 2011"
3711,Burlington International,Burlington,United States,BTV,KBTV,44.471861,-73.153278,335,-5,A,"Burlington, VT",360,362,372,374,4.486111111111107,14.348066298342545,63.0,47.0,"Sun, Oct 16, 2011","Sun, Oct 30, 2011"
3820,Buffalo Niagara International,Buffalo,United States,BUF,KBUF,42.940525,-78.732167,724,-5,A,"Buffalo, NY",1833,1833,1839,1840,3.7195853791598474,11.637752318603384,29.0,58.0,"Wed, Oct 26, 2011","Thu, Oct  6, 2011"
3644,Bob Hope,Burbank,United States,BUR,KBUR,34.200667,-118.358667,778,-8,A,"Burbank, CA",2254,2254,2291,2293,2.9667258207630884,11.21206743566992,40.0,63.0,"Sun, Oct  2, 2011","Wed, Oct  5, 2011"
3849,Baltimore Washington International,Baltimore,United States,BWI,KBWI,39.175361,-76.668333,146,-5,A,"Baltimore, MD",8799,8796,8830,8825,5.566655301738853,12.537971805366055,47.0,105.0,"Wed, Oct 19, 2011","Sat, Oct 29, 2011"
4020,Gallatin Field,Bozeman,United States,BZN,KBZN,45.777643,-111.160151,4500,-7,A,"Bozeman, MT",207,207,207,207,4.135265700483093,11.439613526570044,18.0,38.0,"Fri, Oct  7, 2011","Wed, Oct 26, 2011"
3561,Columbia Metropolitan,Colombia,United States,CAE,KCAE,33.938833,-81.119528,236,-5,A,"Columbia, SC",610,608,615,615,3.8524590163934427,14.289473684210526,10.0,74.0,"Mon, Oct 10, 2011","Wed, Oct 12, 2011"
4112,Akron Canton Regional Airport,Akron,United States,CAK,KCAK,40.9160833,-81.4421944,1228,-5,A,"Akron, OH",660,658,664,663,4.786363636363635,11.887537993920976,18.0,95.0,"Sat, Oct 15, 2011","Sun, Oct 30, 2011"
3824,Cedar City Regional,Cedar City,United States,CDC,KCDC,37.700967,-113.098847,5622,-7,A,"Cedar City, UT",57,57,57,57,3.3333333333333335,14.508771929824562,6.0,39.0,"Wed, Oct 26, 2011","Wed, Oct  5, 2011"
3610,Merle K. Mudhole Smith,Cordova,United States,CDV,PACV,60.491778,-145.477556,48,-9,A,"Cordova, AK",61,60,62,62,3.180327868852459,6.716666666666667,5.0,18.0,"Tue, Oct  4, 2011","Thu, Oct  6, 2011"
5727,Del Norte County Airport,Crescent City,United States,CEC,KCEC,41.7802,-124.237,57,-8,A,"Crescent City, CA",83,83,83,83,3.1927710843373496,11.879518072289155,5.0,47.0,"Sun, Oct 30, 2011","Wed, Oct 19, 2011"
3578,Lovell Field,Chattanooga,United States,CHA,KCHA,35.035278,-85.203808,683,-5,A,"Chattanooga, TN",358,357,358,358,3.4385474860335195,15.77591036414565,15.0,81.0,"Mon, Oct  3, 2011","Tue, Oct 11, 2011"
4015,Charlottesville-Albemarle,Charlottesville VA,United States,CHO,KCHO,38.138639,-78.452861,639,-5,A,"Charlottesville, VA",149,149,150,150,2.8859060402684564,11.020134228187919,9.0,50.0,"Thu, Oct 20, 2011","Wed, Oct 19, 2011"
3806,Charleston AFB International,Charleston,United States,CHS,KCHS,32.898647,-80.040528,45,-5,A,"Charleston, SC",1138,1138,1152,1154,6.288224956063272,14.20738137082601,49.0,108.0,"Fri, Oct 21, 2011","Thu, Oct  6, 2011"
3710,Chico Municipal,Chico,United States,CIC,KCIC,39.795383,-121.858422,238,-8,A,"Chico, CA",114,115,119,119,3.0964912280701755,10.121739130434786,12.0,45.0,"Mon, Oct 10, 2011","Wed, Oct 19, 2011"
4043,Cedar Rapids,Cedar Rapids,United States,CID,KCID,41.884694,-91.710806,869,-6,A,"Cedar Rapids/Iowa City, IA",577,578,582,582,4.76603119584056,9.643598615916957,43.0,63.0,"Sat, Oct  1, 2011","Sun, Oct  2, 2011"
4088,McClellan-Palomar Airport,Carlsbad,United States,CLD,KCRQ,33.0742,-117.1648,328,-8,A,"Carlsbad, CA",178,178,187,187,3.443820224719101,10.044943820224724,5.0,25.0,"Sat, Oct 15, 2011","Tue, Oct 25, 2011"
3486,Cleveland Hopkins International,Cleveland,United States,CLE,KCLE,41.411689,-81.849794,791,-5,A,"Cleveland, OH",3910,3903,3938,3934,5.975447570332479,12.10043556238791,38.0,64.0,"Sun, Oct  2, 2011","Wed, Oct 19, 2011"
3715,Easterwood Field,College Station,United States,CLL,KCLL,30.588583,-96.363833,321,-6,A,"College Station/Bryan, TX",26,26,26,26,3.8846153846153846,7.0,6.0,11.0,"Wed, Oct  5, 2011","Thu, Oct 13, 2011"
3876,Charlotte Douglas International,Charlotte,United States,CLT,KCLT,35.214,-80.943139,748,-5,A,"Charlotte, NC",10750,10762,10809,10806,7.69060465116278,20.83841293439881,47.0,127.0,"Thu, Oct 27, 2011","Fri, Oct 14, 2011"
3759,Port Columbus International,Columbus,United States,CMH,KCMH,39.997972,-82.891889,815,-5,A,"Columbus, OH",2354,2351,2369,2367,4.932880203908249,12.214376860910235,29.0,94.0,"Sat, Oct  1, 2011","Sun, Oct 30, 2011"
4049,Champaign,Champaign,United States,CMI,KCMI,40.03925,-88.278056,754,-6,A,"Champaign/Urbana, IL",201,201,202,202,3.9303482587064678,10.557213930348256,9.0,38.0,"Sun, Oct 16, 2011","Thu, Oct 13, 2011"
5732,Houghton County Memorial Airport,Hancock,United States,CMX,KCMX,47.1684,-88.4891,1095,-5,A,"Hancock/Houghton, MI",62,62,62,62,3.9838709677419364,10.032258064516126,5.0,24.0,"Tue, Oct 11, 2011","Sat, Oct 15, 2011"
4344,Yellowstone Regional,Cody,United States,COD,KCOD,44.520194,-109.023806,5102,-7,A,"Cody, WY",62,62,62,62,3.9516129032258065,13.112903225806452,8.0,35.0,"Thu, Oct 27, 2011","Sun, Oct  9, 2011"
3819,City Of Colorado Springs Municipal,Colorado Springs,United States,COS,KCOS,38.805805,-104.700778,6187,-7,A,"Colorado Springs, CO",967,967,972,972,5.944157187176834,15.977249224405378,20.0,78.0,"Thu, Oct  6, 2011","Sat, Oct  8, 2011"
3872,Natrona County International,Casper,United States,CPR,KCPR,42.908,-106.464417,5347,-7,A,"Casper, WY",160,160,162,162,3.94375,11.218750000000004,16.0,33.0,"Sat, Oct 22, 2011","Fri, Oct 28, 2011"
3744,Corpus Christi International,Corpus Christi,United States,CRP,KCRP,27.770361,-97.501222,44,-6,A,"Corpus Christi, TX",649,647,658,658,4.175654853620961,9.93817619783617,24.0,86.0,"Sun, Oct 30, 2011","Sun, Oct  9, 2011"
4285,Yeager,Charleston,United States,CRW,KCRW,38.373147,-81.593189,981,-5,A,"Charleston/Dunbar, WV",290,290,295,295,4.110344827586205,12.2448275862069,19.0,42.0,"Fri, Oct 28, 2011","Mon, Oct 24, 2011"
4255,Columbus Metropolitan Airport,Columbus,United States,CSG,KCSG,32.5163333,-84.9388611,397,-5,A,"Columbus, GA",192,192,192,192,4.135416666666663,10.364583333333336,17.0,34.0,"Sat, Oct  8, 2011","Mon, Oct 10, 2011"
3488,Cincinnati Northern Kentucky International,Cincinnati,United States,CVG,KCVG,39.048836,-84.667822,896,-5,A,"Cincinnati, OH",2108,2121,2125,2140,6.3833017077798875,13.651579443658651,35.0,91.0,"Sat, Oct 29, 2011","Tue, Oct 18, 2011"
4045,Central Wisconsin,Wassau,United States,CWA,KCWA,44.772726,-89.646635,840,-6,A,"Mosinee, WI",133,132,137,137,3.593984962406015,8.303030303030303,11.0,43.0,"Fri, Oct  7, 2011","Wed, Oct 26, 2011"
3804,Cheyenne Regional-Jerry Olson Field,Cheyenne,United States,CYS,KCYS,41.155722,-104.811839,6156,-7,A,"Cheyenne, WY",31,30,31,31,3.6774193548387095,10.566666666666666,8.0,17.0,"Wed, Oct 26, 2011","Wed, Oct 26, 2011"
3950,Daytona Beach International,Daytona Beach,United States,DAB,KDAB,29.179917,-81.058056,34,-5,A,"Daytona Beach, FL",124,124,124,124,4.322580645161288,19.822580645161292,16.0,50.0,"Wed, Oct 12, 2011","Sun, Oct 30, 2011"
3502,Dallas Love Field,Dallas,United States,DAL,KDAL,32.847111,-96.851778,487,-6,A,"Dallas, TX",3732,3741,3782,3784,4.09244372990354,9.249398556535713,87.0,37.0,"Sun, Oct  9, 2011","Mon, Oct 24, 2011"
3627,James M. Cox Dayton International,Dayton,United States,DAY,KDAY,39.902375,-84.219375,1009,-5,A,"Dayton, OH",982,983,990,991,5.06822810590631,12.61342828077314,23.0,38.0,"Thu, Oct 20, 2011","Fri, Oct 28, 2011"
4388,Dubuque Regional,Dubuque IA,United States,DBQ,KDBQ,42.402,-90.709472,1076,-6,A,"Dubuque, IA",52,51,52,52,4.153846153846155,12.03921568627451,7.0,64.0,"Mon, Oct 31, 2011","Tue, Oct 18, 2011"
3520,Ronald Reagan Washington National,Washington,United States,DCA,KDCA,38.852083,-77.037722,15,-5,A,"Washington, DC",5774,5769,5829,5828,5.176653966054714,17.513953891489034,68.0,163.0,"Wed, Oct 19, 2011","Thu, Oct 13, 2011"
3751,Denver International,Denver,United States,DEN,KDEN,39.861656,-104.673178,5431,-7,A,"Denver, CO",19682,19669,19813,19780,7.691088304034146,13.290406222990505,56.0,112.0,"Thu, Oct  6, 2011","Wed, Oct 26, 2011"
3670,Dallas Fort Worth International,Dallas-fort Worth,United States,DFW,KDFW,32.896828,-97.037997,607,-6,A,"Dallas/Fort Worth, TX",21659,21674,21801,21799,8.790572048571065,14.136430746516531,110.0,125.0,"Mon, Oct 24, 2011","Mon, Oct 17, 2011"
3739,Dothan Regional,Dothan,United States,DHN,KDHN,31.321339,-85.449628,401,-6,A,"Dothan, AL",106,106,106,106,3.141509433962264,15.603773584905664,8.0,67.0,"Sun, Oct 16, 2011","Sun, Oct  9, 2011"
3598,Duluth International,Duluth,United States,DLH,KDLH,46.842091,-92.193649,1428,-6,A,"Duluth, MN",176,177,177,178,5.676136363636364,11.598870056497175,18.0,65.0,"Wed, Oct 19, 2011","Wed, Oct 26, 2011"
3713,Durango La Plata County,Durango,United States,DRO,KDRO,37.151516,-107.75377,6685,-7,A,"Durango, CO",272,272,276,276,5.2610294117647065,11.386029411764703,23.0,34.0,"Fri, Oct  7, 2011","Thu, Oct 13, 2011"
3729,Des Moines International,Des Moines,United States,DSM,KDSM,41.533972,-93.663083,958,-6,A,"Des Moines, IA",1033,1032,1039,1040,4.383349467570183,10.960271317829454,35.0,75.0,"Thu, Oct 20, 2011","Thu, Oct 13, 2011"
3645,Detroit Metro Wayne County,Detroit,United States,DTW,KDTW,42.212444,-83.353389,645,-5,A,"Detroit, MI",7497,7492,7530,7525,8.49046285180738,16.683929524826397,47.0,131.0,"Thu, Oct 20, 2011","Sun, Oct  2, 2011"
5735,Chippewa Valley Regional Airport,Eau Claire,United States,EAU,KEAU,44.8658,-91.4843,913,-6,A,"Eau Claire, WI",63,62,63,62,3.365079365079365,12.612903225806452,5.0,43.0,"Mon, Oct 31, 2011","Wed, Oct 19, 2011"
7669,Northwest Florida Beaches International,Panama City,United States,ECP,KECP,30.3417,-85.7973,69,-6,A,"Panama City, FL",517,517,518,517,3.5725338491295937,11.332688588007734,40.0,75.0,"Mon, Oct 24, 2011","Mon, Oct 10, 2011"
4250,Eagle County Regional,Vail,United States,EGE,KEGE,39.642556,-106.917694,6540,-7,A,"Eagle, CO",88,89,92,93,3.8295454545454546,9.741573033707866,8.0,37.0,"Wed, Oct  5, 2011","Wed, Oct 19, 2011"
5736,Elko Regional Airport,Elko,United States,EKO,KEKO,40.8249,-115.792,5140,-8,A,"Elko, NV",122,122,124,124,4.270491803278689,10.4672131147541,21.0,60.0,"Thu, Oct 20, 2011","Thu, Oct  6, 2011"
3946,Elmira Corning Regional,Elmira,United States,ELM,KELM,42.159889,-76.891611,954,-5,A,"Elmira/Corning, NY",62,62,62,62,3.1774193548387095,10.419354838709678,6.0,29.0,"Mon, Oct 24, 2011","Tue, Oct 25, 2011"
3559,El Paso International,El Paso,United States,ELP,KELP,31.80725,-106.377583,3958,-7,A,"El Paso, TX",1812,1805,1824,1823,3.8559602649006632,10.955678670360125,27.0,76.0,"Tue, Oct  4, 2011","Thu, Oct 20, 2011"
4099,Mahlon Sweet Field,Eugene,United States,EUG,KEUG,44.124583,-123.211972,374,-8,A,"Eugene, OR",429,428,431,431,3.3496503496503496,11.05607476635514,8.0,60.0,"Mon, Oct  3, 2011","Wed, Oct  5, 2011"
4018,Evansville Regional,Evansville,United States,EVV,KEVV,38.036997,-87.532364,418,-6,A,"Evansville, IN",198,198,199,199,3.712121212121212,12.090909090909086,11.0,67.0,"Tue, Oct 18, 2011","Thu, Oct 13, 2011"
3730,Craven County Regional,New Bern,United States,EWN,KEWN,35.072972,-77.042944,18,-5,A,"New Bern/Morehead/Beaufort, NC",80,79,80,80,2.8750000000000004,9.113924050632912,8.0,20.0,"Sun, Oct 16, 2011","Tue, Oct 25, 2011"
3494,Newark Liberty International,Newark,United States,EWR,KEWR,40.6925,-74.168667,18,-5,A,"Newark, NJ",9142,9166,9411,9412,9.117042222708378,20.85915339297407,61.0,134.0,"Sat, Oct 29, 2011","Sat, Oct 29, 2011"
3875,Key West International,Key West,United States,EYW,KEYW,24.556111,-81.759556,3,-5,A,"Key West, FL",125,126,132,133,3.392000000000001,8.325396825396828,8.0,20.0,"Mon, Oct 10, 2011","Sun, Oct  9, 2011"
3832,Fairbanks International,Fairbanks,United States,FAI,PAFA,64.815114,-147.856267,434,-9,A,"Fairbanks, AK",366,366,367,367,3.327868852459015,12.450819672131152,9.0,39.0,"Tue, Oct 25, 2011","Thu, Oct 27, 2011"
4292,Hector International Airport,Fargo,United States,FAR,KFAR,46.92065,-96.8157639,902,-6,A,"Fargo, ND",426,425,432,432,4.401408450704228,12.129411764705878,39.0,55.0,"Fri, Oct 21, 2011","Wed, Oct 19, 2011"
3687,Fresno Yosemite International,Fresno,United States,FAT,KFAT,36.776194,-119.71814,336,-8,A,"Fresno, CA",952,952,954,956,4.0514705882352935,11.095588235294118,57.0,55.0,"Wed, Oct 19, 2011","Sun, Oct 23, 2011"
5738,Fayetteville Regional-Grannis Field,Fayetteville,United States,FAY,KFAY,34.9912,-78.8803,189,-5,A,"Fayetteville, NC",312,312,312,312,4.432692307692311,12.967948717948717,14.0,41.0,"Sun, Oct 30, 2011","Fri, Oct  7, 2011"
4127,Glacier Park International,Kalispell,United States,FCA,KFCA,48.310472,-114.256,2977,-7,A,"Kalispell, MT",139,139,140,140,3.8776978417266186,14.035971223021583,7.0,35.0,"Sun, Oct  9, 2011","Sun, Oct 16, 2011"
4261,Flagstaff Pulliam Airport,Flagstaff,United States,FLG,KFLG,35.140318,-111.6692392,7015,-7,N,"Flagstaff, AZ",208,207,214,214,6.014423076923077,15.14975845410628,23.0,41.0,"Tue, Oct 11, 2011","Thu, Oct  6, 2011"
3533,Fort Lauderdale Hollywood International,Fort Lauderdale,United States,FLL,KFLL,26.072583,-80.15275,9,-5,A,"Fort Lauderdale, FL",4812,4810,4841,4837,4.587281795511214,15.12702702702706,38.0,123.0,"Sun, Oct 30, 2011","Sun, Oct  2, 2011"
4089,Bishop International,Flint,United States,FNT,KFNT,42.965424,-83.743629,782,-5,A,"Flint, MI",217,217,217,217,4.414746543778803,9.976958525345616,21.0,45.0,"Sat, Oct  8, 2011","Fri, Oct 28, 2011"
4009,Sioux Falls,Sioux Falls,United States,FSD,KFSD,43.582014,-96.741914,1429,-6,A,"Sioux Falls, SD",471,468,474,473,4.121019108280262,12.752136752136755,18.0,73.0,"Wed, Oct 19, 2011","Mon, Oct 24, 2011"
3437,Fort Smith Regional,Fort Smith,United States,FSM,KFSM,35.336583,-94.367444,469,-6,A,"Fort Smith, AR",87,87,88,88,3.7471264367816093,8.505747126436777,8.0,29.0,"Tue, Oct 11, 2011","Mon, Oct 24, 2011"
4041,Fort Wayne,Fort Wayne,United States,FWA,KFWA,40.978472,-85.195139,815,-5,A,"Fort Wayne, IN",277,277,278,278,3.1805054151624534,9.729241877256316,6.0,26.0,"Tue, Oct 25, 2011","Tue, Oct 25, 2011"
4296,Gillette-Campbell County Airport,Gillette,United States,GCC,KGCC,44.3489167,-105.5393611,4365,-7,A,"Gillette, WY",123,123,124,125,4.130081300813005,11.837398373983742,18.0,33.0,"Sun, Oct 23, 2011","Wed, Oct 19, 2011"
3467,Spokane International,Spokane,United States,GEG,KGEG,47.619861,-117.533833,2376,-8,A,"Spokane, WA",894,893,911,910,4.210290827740496,10.79171332586786,14.0,49.0,"Sat, Oct 29, 2011","Sat, Oct 29, 2011"
3442,Grand Forks International,Grand Forks,United States,GFK,KGFK,47.949256,-97.176111,845,-6,A,"Grand Forks, ND",83,82,83,82,4.9277108433734975,12.268292682926832,29.0,32.0,"Wed, Oct 12, 2011","Wed, Oct 19, 2011"
4063,Grand Junction Regional,Grand Junction,United States,GJT,KGJT,39.122413,-108.526735,4858,-7,A,"Grand Junction, CO",459,458,464,464,3.8169934640522887,12.954148471615724,21.0,85.0,"Fri, Oct 14, 2011","Thu, Oct  6, 2011"
3472,Gainesville Regional,Gainesville,United States,GNV,KGNV,29.690056,-82.271778,152,-5,A,"Gainesville, FL",247,247,247,247,3.3886639676113366,13.445344129554655,19.0,48.0,"Mon, Oct 10, 2011","Thu, Oct 13, 2011"
4038,Gulfport-Biloxi,Gulfport,United States,GPT,KGPT,30.407278,-89.070111,28,-6,A,"Gulfport/Biloxi, MS",433,433,437,437,4.177829099307158,11.635103926096994,12.0,51.0,"Sun, Oct 30, 2011","Thu, Oct  6, 2011"
3653,Austin Straubel International,Green Bay,United States,GRB,KGRB,44.485072,-88.129589,695,-6,A,"Green Bay, WI",433,433,436,437,3.9653579676674395,9.727482678983828,17.0,67.0,"Mon, Oct 17, 2011","Wed, Oct 12, 2011"
5740,Central Nebraska Regional Airport,Grand Island,United States,GRI,KGRI,40.9675,-98.3096,1847,-6,A,"Grand Island, NE",57,57,57,57,3.491228070175438,11.228070175438598,14.0,29.0,"Wed, Oct 26, 2011","Mon, Oct 31, 2011"
3775,Robert Gray AAF,Killeen,United States,GRK,KGRK,31.06725,-97.828917,1015,-6,A,"Killeen, TX",57,57,57,57,3.7719298245614037,8.3859649122807,9.0,17.0,"Mon, Oct 17, 2011","Sun, Oct 30, 2011"
3685,Gerald R. Ford International,Grand Rapids,United States,GRR,KGRR,42.880833,-85.522806,794,-5,A,"Grand Rapids, MI",867,867,872,872,4.452133794694346,12.034602076124571,25.0,61.0,"Fri, Oct 21, 2011","Thu, Oct 13, 2011"
4008,Piedmont Triad,Greensboro,United States,GSO,KGSO,36.09775,-79.937306,925,-5,A,"Greensboro/High Point, NC",667,667,676,677,4.1244377811094415,15.685157421289368,20.0,68.0,"Mon, Oct 24, 2011","Mon, Oct 10, 2011"
4034,Greenville-Spartanburg International,Greenville,United States,GSP,KGSP,34.895556,-82.218889,964,-5,A,"Greer, SC",830,830,834,835,3.5060240963855422,12.132530120481936,23.0,59.0,"Wed, Oct 26, 2011","Mon, Oct 10, 2011"
3880,Great Falls International,Great Falls,United States,GTF,KGTF,47.482,-111.370689,3677,-7,A,"Great Falls, MT",169,169,169,169,4.189349112426034,10.21301775147929,10.0,31.0,"Sat, Oct  8, 2011","Sat, Oct 29, 2011"
4273,Golden Triangle Regional Airport,Columbus Mississippi,United States,GTR,KGTR,33.450333,-88.591361,264,-6,A,"Columbus, MS",88,88,88,88,2.8522727272727275,13.193181818181815,5.0,42.0,"Sun, Oct 16, 2011","Fri, Oct  7, 2011"
7051,Gunnison - Crested Butte,Gunnison,United States,GUC,KGUC,38.533889,-106.933056,7678,-7,A,"Gunnison, CO",30,30,31,31,3.7,7.833333333333333,6.0,16.0,"Tue, Oct  4, 2011","Tue, Oct  4, 2011"
4339,Yampa Valley,Hayden,United States,HDN,KHDN,40.481181,-107.21766,6602,-7,A,"Hayden, CO",86,85,86,86,3.802325581395349,13.494117647058824,5.0,60.0,"Tue, Oct 25, 2011","Wed, Oct 26, 2011"
3504,Helena Regional,Helena,United States,HLN,KHLN,46.606806,-111.98275,3877,-7,A,"Helena, MT",135,135,135,135,3.414814814814815,11.770370370370369,8.0,34.0,"Fri, Oct 28, 2011","Wed, Oct 19, 2011"
3728,Honolulu International,Honolulu,United States,HNL,PHNL,21.318681,-157.922428,13,-10,N,"Honolulu, HI",4130,4131,4140,4141,5.995157384987894,13.078431372549026,46.0,55.0,"Fri, Oct 28, 2011","Mon, Oct 24, 2011"
3749,Lea County Regional,Hobbs,United States,HOB,KHOB,32.687528,-103.217028,3661,-7,A,"Hobbs, NM",48,48,48,48,3.9166666666666665,10.041666666666664,13.0,22.0,"Sun, Oct  9, 2011","Sat, Oct  1, 2011"
3566,William P. Hobby,Houston,United States,HOU,KHOU,29.645419,-95.278889,46,-6,A,"Houston, TX",4367,4371,4405,4405,5.356308678726815,9.485014870738974,44.0,58.0,"Tue, Oct 25, 2011","Sun, Oct  9, 2011"
3589,Westchester County,White Plains,United States,HPN,KHPN,41.066959,-73.707575,439,-5,A,"White Plains, NY",715,719,732,733,5.804195804195807,13.463143254520167,50.0,78.0,"Mon, Oct 31, 2011","Thu, Oct 13, 2011"
3560,Valley International,Harlingen,United States,HRL,KHRL,26.2285,-97.654389,36,-6,A,"Harlingen/San Benito, TX",410,409,420,420,2.9146341463414633,8.493887530562349,19.0,105.0,"Sun, Oct 30, 2011","Sun, Oct  9, 2011"
4113,Huntsville International Airport-Carl T. Jones Field,Huntsville,United States,HSV,KHSV,34.6371944,-86.7750556,629,-6,A,"Huntsville, AL",737,736,744,744,4.886024423337857,13.745923913043478,14.0,75.0,"Mon, Oct 17, 2011","Mon, Oct 10, 2011"
3714,Washington Dulles International,Washington,United States,IAD,KIAD,38.944533,-77.455811,313,-5,A,"Washington, DC",6030,6069,6109,6135,7.132504145936982,16.82237600922734,85.0,152.0,"Thu, Oct 13, 2011","Sat, Oct 29, 2011"
3550,George Bush Intercontinental Houston,Houston,United States,IAH,KIAH,29.984433,-95.341442,97,-6,A,"Houston, TX",14203,14214,14301,14291,8.145603041610952,16.387927395525526,59.0,117.0,"Mon, Oct 17, 2011","Sun, Oct  9, 2011"
3457,Wichita Mid Continent,Wichita,United States,ICT,KICT,37.649944,-97.433056,1333,-6,A,"Wichita, KS",883,883,892,893,4.789354473386189,10.647791619479056,40.0,59.0,"Sun, Oct 16, 2011","Sun, Oct 23, 2011"
4100,Idaho Falls Regional,Idaho Falls,United States,IDA,KIDA,43.514556,-112.07075,4744,-7,A,"Idaho Falls, ID",275,276,277,277,4.018181818181819,12.094202898550725,7.0,48.0,"Mon, Oct 17, 2011","Thu, Oct  6, 2011"
3845,Wilmington International,Wilmington,United States,ILM,KILM,34.270615,-77.902569,32,-5,A,"Wilmington, NC",386,385,387,388,3.6010362694300517,14.124675324675323,12.0,56.0,"Mon, Oct 31, 2011","Thu, Oct  6, 2011"
3585,Indianapolis International,Indianapolis,United States,IND,KIND,39.717331,-86.294383,797,-5,A,"Indianapolis, IN",2480,2477,2490,2492,5.499596774193553,12.203875656035535,50.0,74.0,"Thu, Oct 13, 2011","Sun, Oct  9, 2011"
3689,Imperial County,Imperial,United States,IPL,KIPL,32.834219,-115.578744,-54,-8,A,"El Centro, CA",61,62,62,62,3.3442622950819674,10.887096774193546,6.0,19.0,"Thu, Oct 27, 2011","Tue, Oct 25, 2011"
3857,Long Island MacArthur,Islip,United States,ISP,KISP,40.79525,-73.100222,99,-5,A,"Islip, NY",560,560,567,568,4.3196428571428624,8.453571428571438,21.0,42.0,"Sun, Oct 30, 2011","Sat, Oct 29, 2011"
3415,Hilo International,Hilo,United States,ITO,PHTO,19.721375,-155.048469,38,-10,N,"Hilo, HI",576,576,576,576,5.446180555555554,8.437499999999986,19.0,23.0,"Sun, Oct  9, 2011","Thu, Oct 20, 2011"
7120,Inyokern Airport,Inyokern,United States,IYK,KIYK,35.658889,-117.829444,2455,-8,A,"Inyokern, CA",72,72,74,74,4.416666666666668,10.624999999999993,8.0,19.0,"Thu, Oct  6, 2011","Tue, Oct 25, 2011"
4027,Jackson Hole Airport,Jacksn Hole,United States,JAC,KJAC,43.60733333,-110.73775,6451,-7,A,"Jackson, WY",158,157,158,158,3.303797468354431,15.0828025477707,11.0,110.0,"Thu, Oct  6, 2011","Fri, Oct  7, 2011"
3580,Jackson Evers International,Jackson,United States,JAN,KJAN,32.311167,-90.075889,346,-6,A,"Jackson/Vicksburg, MS",836,835,839,839,4.2894736842105265,11.98922155688623,21.0,63.0,"Mon, Oct 24, 2011","Wed, Oct 12, 2011"
3712,Jacksonville International,Jacksonville,United States,JAX,KJAX,30.494056,-81.687861,30,-5,A,"Jacksonville, FL",2250,2248,2254,2255,4.797333333333333,12.775800711743786,45.0,79.0,"Fri, Oct 21, 2011","Thu, Oct 27, 2011"
3797,John F. Kennedy International,New York,United States,JFK,KJFK,40.639751,-73.778925,13,-5,A,"New York, NY",7683,7694,7802,7803,8.762722894702533,24.786716922277083,59.0,151.0,"Thu, Oct 13, 2011","Wed, Oct 19, 2011"
3492,Juneau International,Juneau,United States,JNU,PAJN,58.354972,-134.576278,21,-9,A,"Juneau, AK",328,328,336,336,3.826219512195122,12.902439024390244,10.0,93.0,"Wed, Oct  5, 2011","Sat, Oct 29, 2011"
3514,Kona International At Keahole,Kona,United States,KOA,PHKO,19.738767,-156.045631,47,-10,N,"Kona, HI",976,973,977,976,4.590163934426237,9.917780061664958,15.0,46.0,"Wed, Oct 26, 2011","Wed, Oct 12, 2011"
3808,Ketchikan International,Ketchikan,United States,KTN,PAKT,55.355556,-131.71375,88,-9,A,"Ketchikan, AK",180,180,186,186,3.9666666666666686,11.244444444444442,7.0,27.0,"Wed, Oct 26, 2011","Sat, Oct 15, 2011"
3544,Capital City,Lansing,United States,LAN,KLAN,42.7787,-84.587357,861,-5,A,"Lansing, MI",100,99,101,101,3.8,10.232323232323239,8.0,30.0,"Tue, Oct 11, 2011","Fri, Oct 28, 2011"
3877,McCarran International,Las Vegas,United States,LAS,KLAS,36.080056,-115.15225,2141,-8,A,"Las Vegas, NV",12441,12442,12498,12505,6.7826541274817105,15.247870117344489,86.0,131.0,"Mon, Oct  3, 2011","Sat, Oct 22, 2011"
3484,Los Angeles International,Los Angeles,United States,LAX,KLAX,33.942536,-118.408075,126,-8,A,"Los Angeles, CA",17619,17645,17819,17815,9.360065838015794,15.446415415131746,64.0,99.0,"Fri, Oct 28, 2011","Sat, Oct  1, 2011"
3829,Lubbock Preston Smith International,Lubbock,United States,LBB,KLBB,33.663639,-101.822778,3282,-6,A,"Lubbock, TX",675,673,685,685,3.92,8.90044576523032,22.0,101.0,"Sat, Oct  8, 2011","Mon, Oct 24, 2011"
3513,Lake Charles Regional,Lake Charles,United States,LCH,KLCH,30.126112,-93.223335,15,-6,A,"Lake Charles, LA",92,91,93,93,4.467391304347824,11.054945054945053,17.0,58.0,"Sun, Oct  9, 2011","Mon, Oct 24, 2011"
4017,Blue Grass,Lexington KY,United States,LEX,KLEX,38.0365,-84.605889,979,-5,A,"Lexington, KY",612,613,616,617,4.142156862745095,14.308319738988581,29.0,49.0,"Fri, Oct  7, 2011","Sun, Oct  9, 2011"
3493,Lafayette Regional,Lafayette,United States,LFT,KLFT,30.205278,-91.987611,43,-6,A,"Lafayette, LA",440,438,444,444,4.720454545454546,13.073059360730591,14.0,52.0,"Sun, Oct 16, 2011","Wed, Oct 26, 2011"
3697,LaGuardia Airport,New York,United States,LGA,KLGA,40.777245,-73.872608,22,-5,A,"New York, NY",7897,7915,8092,8094,7.5722426237811815,25.783196462413155,78.0,163.0,"Fri, Oct 14, 2011","Sat, Oct 29, 2011"
3582,Long Beach,Long Beach,United States,LGB,KLGB,33.817722,-118.151611,60,-8,A,"Long Beach, CA",1262,1264,1267,1269,4.250396196513475,14.29509493670886,35.0,97.0,"Sun, Oct  9, 2011","Sat, Oct 22, 2011"
3602,Lihue,Lihue,United States,LIH,PHLI,21.975983,-159.338958,153,-10,N,"Lihue, HI",931,928,931,931,5.61761546723953,8.431034482758637,14.0,35.0,"Tue, Oct 25, 2011","Fri, Oct 14, 2011"
3660,Adams Field,Little Rock,United States,LIT,KLIT,34.729444,-92.224306,262,-6,A,"Little Rock, AR",1331,1328,1336,1336,4.641622839969949,11.115210843373498,37.0,60.0,"Fri, Oct  7, 2011","Thu, Oct  6, 2011"
5750,Klamath Falls Airport,Klamath Falls,United States,LMT,KLMT,42.1561,-121.733,4095,-8,A,"Klamath Falls, OR",91,92,93,93,3.3626373626373627,11.695652173913043,7.0,30.0,"Thu, Oct 20, 2011","Sun, Oct  9, 2011"
3543,Lincoln,Lincoln,United States,LNK,KLNK,40.850971,-96.75925,1219,-6,A,"Lincoln, NE",184,184,188,188,3.467391304347826,9.434782608695654,12.0,38.0,"Thu, Oct 20, 2011","Tue, Oct 18, 2011"
3691,Laredo International,Laredo,United States,LRD,KLRD,27.54375,-99.461556,508,-6,A,"Laredo, TX",206,206,209,210,3.8398058252427205,10.519417475728156,11.0,102.0,"Sun, Oct 16, 2011","Mon, Oct 17, 2011"
4044,LaCrosse Municipal,LaCrosse,United States,LSE,KLSE,43.878986,-91.256711,654,-6,A,"La Crosse, WI",68,68,69,69,4.323529411764706,10.411764705882353,8.0,23.0,"Sat, Oct 22, 2011","Tue, Oct  4, 2011"
6958,Greenbrier Valley Airport,Lewisburg,United States,LWB,KLWB,37.858333,-80.399444,2302,-5,U,"Lewisburg, WV",31,31,31,31,3.6451612903225805,12.290322580645162,8.0,33.0,"Wed, Oct 19, 2011","Mon, Oct 17, 2011"
3945,Lewiston Nez Perce County,Lewiston,United States,LWS,KLWS,46.3745,-117.015389,1442,-8,A,"Lewiston, ID",53,53,53,53,4.754716981132074,9.943396226415095,14.0,28.0,"Sun, Oct 16, 2011","Wed, Oct 26, 2011"
3652,Midland International,Midland,United States,MAF,KMAF,31.942528,-102.201914,2871,-6,A,"Midland/Odessa, TX",609,610,612,614,3.354679802955666,9.4704918032787,23.0,28.0,"Wed, Oct 12, 2011","Sun, Oct  9, 2011"
4128,MBS International,Saginaw,United States,MBS,KMBS,43.532913,-84.079647,668,-5,A,"Saginaw/Bay City/Midland, MI",87,87,88,88,4.344827586206897,11.91954022988506,7.0,41.0,"Wed, Oct 26, 2011","Thu, Oct 27, 2011"
3458,Kansas City International,Kansas City,United States,MCI,KMCI,39.297606,-94.713905,1026,-6,A,"Kansas City, MO",4082,4075,4101,4097,5.226849583537494,11.823803680981591,55.0,77.0,"Tue, Oct 25, 2011","Fri, Oct 21, 2011"
3878,Orlando International,Orlando,United States,MCO,KMCO,28.429394,-81.308994,96,-5,A,"Orlando, FL",9617,9614,9652,9652,7.486014349589269,13.684106511337605,51.0,110.0,"Thu, Oct  6, 2011","Fri, Oct 14, 2011"
3542,Harrisburg International,Harrisburg,United States,MDT,KMDT,40.193494,-76.763403,310,-5,A,"Harrisburg, PA",439,438,448,448,4.6104783599088845,13.557077625570777,31.0,121.0,"Wed, Oct 19, 2011","Sat, Oct 29, 2011"
3747,Chicago Midway International,Chicago,United States,MDW,KMDW,41.785972,-87.752417,620,-6,A,"Chicago, IL",7374,7386,7400,7405,5.242880390561442,10.264960736528563,43.0,50.0,"Wed, Oct 12, 2011","Mon, Oct 31, 2011"
4335,Key Field,Meridian,United States,MEI,KMEI,32.332624,-88.751868,297,-6,A,"Meridian, MS",62,62,62,62,3.661290322580645,16.209677419354833,6.0,69.0,"Sun, Oct 16, 2011","Mon, Oct 10, 2011"
3473,Memphis International,Memphis,United States,MEM,KMEM,35.042417,-89.976667,341,-6,A,"Memphis, TN",3762,3760,3785,3784,6.173843700159482,15.926063829787163,43.0,91.0,"Wed, Oct 26, 2011","Mon, Oct 17, 2011"
3826,McAllen Miller International,Mcallen,United States,MFE,KMFE,26.175833,-98.238611,107,-6,A,"Mission/McAllen/Edinburg, TX",248,248,248,248,4.10887096774193,9.701612903225811,9.0,23.0,"Tue, Oct 25, 2011","Sun, Oct 23, 2011"
4101,Rogue Valley International Medford,Medford,United States,MFR,KMFR,42.374228,-122.8735,1335,-8,A,"Medford, OR",312,311,315,315,3.7275641025641026,11.270096463022506,13.0,45.0,"Sun, Oct 23, 2011","Tue, Oct 25, 2011"
4115,Montgomery Regional Airport ,MONTGOMERY,United States,MGM,KMGM,32.3006389,-86.3939722,221,-6,A,"Montgomery, AL",366,366,367,367,3.0464480874316946,17.21311475409837,11.0,101.0,"Wed, Oct 19, 2011","Fri, Oct 28, 2011"
4050,Manhattan Regional,Manhattan,United States,MHK,KMHK,39.140972,-96.670833,1057,-6,A,"Manhattan/Ft. Riley, KS",123,123,124,124,3.5853658536585367,11.959349593495935,26.0,59.0,"Sat, Oct 15, 2011","Mon, Oct 31, 2011"
4011,Manchester Regional Airport,Manchester NH,United States,MHT,KMHT,42.932556,-71.435667,266,-5,A,"Manchester, NH",921,923,933,934,4.766558089033652,11.942578548212348,16.0,144.0,"Sun, Oct  9, 2011","Mon, Oct 17, 2011"
3576,Miami International,Miami,United States,MIA,KMIA,25.79325,-80.290556,8,-5,A,"Miami, FL",6170,6178,6210,6211,7.3670988654781215,15.869698931693106,55.0,111.0,"Thu, Oct 13, 2011","Fri, Oct 14, 2011"
3717,General Mitchell International,Milwaukee,United States,MKE,KMKE,42.947222,-87.896583,723,-6,A,"Milwaukee, WI",3444,3446,3461,3459,5.395180023228799,11.39001741149158,39.0,87.0,"Fri, Oct 14, 2011","Fri, Oct 14, 2011"
5754,Muskegon County Airport,Muskegon,United States,MKG,KMKG,43.1695,-86.2382,628,-5,A,"Muskegon, MI",61,60,62,62,4.262295081967213,9.516666666666667,10.0,41.0,"Thu, Oct  6, 2011","Thu, Oct 27, 2011"
3671,Melbourne International,Melbourne,United States,MLB,KMLB,28.102753,-80.645258,33,-5,A,"Melbourne, FL",124,124,124,124,4.451612903225806,17.556451612903217,9.0,59.0,"Thu, Oct 20, 2011","Sat, Oct  8, 2011"
4072,Quad City International,Moline,United States,MLI,KMLI,41.448528,-90.507539,590,-6,A,"Moline, IL",529,531,533,533,4.748582230623817,10.007532956685496,10.0,67.0,"Wed, Oct  5, 2011","Thu, Oct 13, 2011"
3732,Monroe Regional,Monroe,United States,MLU,KMLU,32.510864,-92.037689,79,-6,A,"Monroe, LA",131,131,131,131,3.7328244274809173,8.916030534351144,10.0,30.0,"Fri, Oct 14, 2011","Tue, Oct 11, 2011"
3782,Mobile Regional,Mobile,United States,MOB,KMOB,30.691231,-88.242814,219,-6,A,"Mobile, AL",473,472,480,480,4.122621564482018,11.122881355932204,10.0,30.0,"Mon, Oct 10, 2011","Fri, Oct 21, 2011"
3816,Modesto City County Harry Sham,Modesto,United States,MOD,KMOD,37.625817,-120.954422,97,-8,A,"Modesto, CA",112,111,119,119,2.660714285714287,10.162162162162161,5.0,48.0,"Sun, Oct  9, 2011","Wed, Oct  5, 2011"
3498,Minot International,Minot,United States,MOT,KMOT,48.259378,-101.280333,1716,-6,A,"Minot, ND",169,169,169,169,4.68639053254438,12.02958579881657,9.0,31.0,"Thu, Oct 27, 2011","Thu, Oct 20, 2011"
6838,Sawyer International Airport,Marquette,United States,MQT,KMQT,46.353611,-87.395278,1221,-5,A,"Marquette, MI",25,25,26,26,4.28,8.639999999999999,7.0,16.0,"Sun, Oct  9, 2011","Thu, Oct 20, 2011"
3948,Monterey Peninsula,Monterey,United States,MRY,KMRY,36.587,-121.842944,257,-8,A,"Monterey, CA",458,457,477,477,3.482532751091703,12.315098468271328,12.0,64.0,"Wed, Oct 26, 2011","Tue, Oct 25, 2011"
3459,Dane County Regional-Truax Field,Madison,United States,MSN,KMSN,43.139858,-89.337514,887,-6,A,"Madison, WI",665,663,670,670,3.7804511278195503,11.650075414781302,23.0,94.0,"Tue, Oct  4, 2011","Wed, Oct 19, 2011"
4216,Missoula International,Missoula,United States,MSO,KMSO,46.916306,-114.090556,3205,-7,A,"Missoula, MT",221,221,222,222,4.53846153846154,10.968325791855204,23.0,49.0,"Wed, Oct 19, 2011","Sun, Oct 30, 2011"
3858,Minneapolis St. Paul International,Minneapolis,United States,MSP,KMSP,44.881956,-93.221767,841,-6,A,"Minneapolis, MN",9303,9295,9338,9322,7.07975921745673,16.026358257127477,54.0,112.0,"Sat, Oct 22, 2011","Sun, Oct  2, 2011"
3861,Louis Armstrong New Orleans International,New Orleans,United States,MSY,KMSY,29.993389,-90.258028,4,-6,A,"New Orleans, LA",3158,3152,3164,3162,4.744141861937929,10.313451776649742,46.0,84.0,"Sun, Oct  9, 2011","Sun, Oct  9, 2011"
6880,Montrose Regional Airport,Montrose CO,United States,MTJ,KMTJ,38.509794,-107.894242,5759,-7,A,"Montrose/Delta, CO",120,120,122,122,3.8833333333333337,9.916666666666663,8.0,25.0,"Mon, Oct 24, 2011","Sun, Oct 23, 2011"
3515,Myrtle Beach International,Myrtle Beach,United States,MYR,KMYR,33.67975,-78.928333,25,-5,A,"Myrtle Beach, SC",301,300,301,300,3.6378737541528245,15.52,13.0,55.0,"Sat, Oct  1, 2011","Wed, Oct  5, 2011"
4386,Albert J. Ellis,Jacksonville NC,United States,OAJ,KOAJ,34.829164,-77.612139,94,-5,A,"Jacksonville/Camp Lejeune, NC",143,143,143,143,2.4125874125874125,12.412587412587417,6.0,63.0,"Thu, Oct 13, 2011","Tue, Oct 18, 2011"
3453,Metropolitan Oakland International,Oakland,United States,OAK,KOAK,37.721278,-122.220722,9,-8,A,"Oakland, CA",3892,3889,3940,3939,5.438848920863304,9.687837490357424,32.0,55.0,"Mon, Oct 17, 2011","Sat, Oct 22, 2011"
3456,Kahului,Kahului,United States,OGG,PHOG,20.89865,-156.430458,54,-10,N,"Kahului, HI",1583,1579,1584,1584,5.494630448515482,8.872704243191905,34.0,53.0,"Mon, Oct 10, 2011","Thu, Oct  6, 2011"
3863,Will Rogers World,Oklahoma City,United States,OKC,KOKC,35.393089,-97.600733,1295,-6,A,"Oklahoma City, OK",1812,1812,1816,1822,4.59326710816776,10.42494481236204,38.0,121.0,"Mon, Oct 10, 2011","Sun, Oct  9, 2011"
3454,Eppley Airfield,Omaha,United States,OMA,KOMA,41.303167,-95.894069,984,-6,A,"Omaha, NE",1728,1729,1734,1738,3.8975694444444424,11.326200115673808,33.0,84.0,"Mon, Oct 10, 2011","Thu, Oct 27, 2011"
3615,Nome,Nome,United States,OME,PAOM,64.512203,-165.445247,37,-9,A,"Nome, AK",91,91,93,93,4.846153846153849,6.197802197802198,13.0,22.0,"Fri, Oct 21, 2011","Fri, Oct 28, 2011"
3734,Ontario International,Ontario,United States,ONT,KONT,34.056,-117.601194,944,-8,A,"Ontario, CA",1958,1956,1970,1971,4.560776302349327,9.868098159509207,21.0,99.0,"Sun, Oct 16, 2011","Sat, Oct  1, 2011"
3830,Chicago O'Hare International,Chicago,United States,ORD,KORD,41.978603,-87.904842,668,-6,A,"Chicago, IL",26038,26095,26324,26323,8.537406866886935,16.18114581337433,89.0,141.0,"Sat, Oct  1, 2011","Fri, Oct 14, 2011"
3611,Norfolk International,Norfolk,United States,ORF,KORF,36.894611,-76.201222,26,-5,A,"Norfolk, VA",1260,1261,1273,1275,4.217460317460311,12.070578905630448,30.0,101.0,"Sat, Oct 22, 2011","Sun, Oct 16, 2011"
5757,Southwest Oregon Regional Airport,North Bend,United States,OTH,KOTH,43.4171,-124.246,17,-8,A,"North Bend/Coos Bay, OR",92,92,93,93,2.358695652173912,7.739130434782608,5.0,23.0,"Sun, Oct  9, 2011","Sat, Oct  8, 2011"
3693,Ralph WienMemorial,Kotzebue,United States,OTZ,PAOT,66.884678,-162.59855,11,-9,A,"Kotzebue, AK",90,91,93,93,4.966666666666668,6.945054945054945,8.0,37.0,"Thu, Oct 13, 2011","Wed, Oct 19, 2011"
4117,Barkley Regional Airport,PADUCAH,United States,PAH,KPAH,37.0602875,-88.7729583,410,-6,A,"Paducah, KY",62,62,62,62,4.338709677419355,10.564516129032258,7.0,48.0,"Mon, Oct 10, 2011","Sat, Oct 29, 2011"
3722,Palm Beach International,West Palm Beach,United States,PBI,KPBI,26.683161,-80.095589,19,-5,A,"West Palm Beach/Palm Beach, FL",1671,1664,1681,1676,4.538001196888094,12.519831730769228,21.0,76.0,"Sun, Oct 30, 2011","Thu, Oct 13, 2011"
3720,Portland International,Portland,United States,PDX,KPDX,45.588722,-122.5975,30,-8,A,"Portland, OR",4405,4411,4424,4428,4.219296254256518,11.400816141464526,32.0,67.0,"Tue, Oct  4, 2011","Mon, Oct 17, 2011"
3633,Newport News Williamsburg International,Newport News,United States,PHF,KPHF,37.131894,-76.492989,43,-5,A,"Newport News/Williamsburg, VA",391,392,394,394,5.562659846547315,12.670918367346939,14.0,76.0,"Sat, Oct  8, 2011","Thu, Oct 27, 2011"
3752,Philadelphia International,Philadelphia,United States,PHL,KPHL,39.871944,-75.241139,36,-5,A,"Philadelphia, PA",7113,7119,7173,7175,6.596232250808387,19.632392189914388,53.0,143.0,"Fri, Oct 28, 2011","Sat, Oct 29, 2011"
3462,Phoenix Sky Harbor International,Phoenix,United States,PHX,KPHX,33.434278,-112.011583,1135,-7,N,"Phoenix, AZ",15314,15376,15464,15462,6.859279091027822,14.14242976066597,75.0,142.0,"Sun, Oct  2, 2011","Thu, Oct  6, 2011"
4046,Peoria Regional,Peoria,United States,PIA,KPIA,40.664203,-89.693258,660,-6,A,"Peoria, IL",232,232,239,239,3.560344827586207,10.370689655172415,11.0,27.0,"Wed, Oct 19, 2011","Mon, Oct 17, 2011"
5760,Pocatello Regional Airport,Pocatello,United States,PIH,KPIH,42.9098,-112.596,4452,-7,A,"Pocatello, ID",83,83,83,83,2.9036144578313254,8.036144578313252,5.0,27.0,"Tue, Oct  4, 2011","Wed, Oct  5, 2011"
3570,Pittsburgh International,Pittsburgh (pennsylva),United States,PIT,KPIT,40.491467,-80.232872,1204,-5,A,"Pittsburgh, PA",2606,2599,2614,2613,5.417498081350727,13.308195459792225,54.0,90.0,"Mon, Oct 24, 2011","Wed, Oct 12, 2011"
3564,Pensacola Regional,Pensacola,United States,PNS,KPNS,30.473425,-87.186611,121,-6,A,"Pensacola, FL",767,769,771,772,3.9804432855280383,12.962288686605977,9.0,44.0,"Fri, Oct 14, 2011","Thu, Oct  6, 2011"
6133,Tri Cities Airport,Pasco,United States,PSC,PSC,46.2647,-119.119,410,-8,A,"Pasco/Kennewick/Richland, WA",293,291,294,293,4.3720136518771335,9.862542955326457,8.0,42.0,"Fri, Oct 28, 2011","Mon, Oct 10, 2011"
4147,Petersburg James A. Johnson,Petersburg,United States,PSG,PAPG,56.801667,-132.945278,105,-9,A,"Petersburg, AK",58,59,62,62,3.8448275862068964,7.796610169491525,6.0,16.0,"Wed, Oct 26, 2011","Thu, Oct 27, 2011"
3839,Palm Springs International,Palm Springs,United States,PSP,KPSP,33.829667,-116.506694,477,-8,A,"Palm Springs, CA",871,870,877,877,4.8840413318025275,12.383908045977012,18.0,55.0,"Thu, Oct  6, 2011","Sun, Oct  9, 2011"
3641,Theodore Francis Green State,Providence,United States,PVD,KPVD,41.732581,-71.420383,55,-5,A,"Providence, RI",1296,1297,1301,1300,4.390432098765431,11.42020046260601,21.0,63.0,"Mon, Oct  3, 2011","Wed, Oct 19, 2011"
3862,Portland International Jetport,Portland,United States,PWM,KPWM,43.646161,-70.309281,77,-5,A,"Portland, ME",547,546,556,557,3.809872029250457,13.238095238095237,34.0,94.0,"Sun, Oct  2, 2011","Sat, Oct 29, 2011"
4087,Rapid City Regional Airport,Rapid City,United States,RAP,KRAP,44.045278,-103.057222,3204,-7,A,"Rapid City, SD",483,483,487,488,4.4430641821946155,11.614906832298141,24.0,32.0,"Fri, Oct  7, 2011","Thu, Oct 27, 2011"
4098,Redding Municipal,Redding,United States,RDD,KRDD,40.509,-122.293389,504,-8,A,"Redding, CA",148,147,150,150,3.6283783783783785,10.448979591836736,8.0,58.0,"Sun, Oct 23, 2011","Wed, Oct  5, 2011"
4103,Roberts Field,Redmond-Bend,United States,RDM,KRDM,44.254066,-121.149964,3077,-8,A,"Bend/Redmond, OR",276,276,279,279,3.289855072463769,10.003623188405804,8.0,45.0,"Thu, Oct  6, 2011","Mon, Oct 10, 2011"
3626,Raleigh Durham International,Raleigh-durham,United States,RDU,KRDU,35.877639,-78.787472,435,-5,A,"Raleigh/Durham, NC",3745,3742,3773,3773,4.500934579439266,14.603153393907002,31.0,130.0,"Wed, Oct 19, 2011","Thu, Oct 27, 2011"
3608,Richmond International,Richmond,United States,RIC,KRIC,37.505167,-77.319667,167,-5,A,"Richmond, VA",1369,1368,1376,1376,5.893352812271725,14.783625730994151,20.0,74.0,"Sun, Oct  9, 2011","Thu, Oct 13, 2011"
5766,Rock Springs Sweetwater County Airport,Rock Springs,United States,RKS,KRKS,41.5942,-109.065,6760,-7,A,"Rock Springs, WY",180,179,181,181,2.988888888888889,9.759776536312845,6.0,46.0,"Mon, Oct 24, 2011","Sat, Oct  8, 2011"
3807,Reno Tahoe International,Reno,United States,RNO,KRNO,39.499108,-119.768108,4415,-8,A,"Reno, NV",1694,1694,1705,1706,4.538961038961043,10.131050767414399,30.0,52.0,"Thu, Oct  6, 2011","Wed, Oct  5, 2011"
4016,Roanoke Regional,Roanoke VA,United States,ROA,KROA,37.325472,-79.975417,1175,-5,A,"Roanoke, VA",251,247,260,258,5.0677290836653395,15.514170040485817,31.0,67.0,"Tue, Oct 25, 2011","Thu, Oct 13, 2011"
3622,Greater Rochester International,Rochester,United States,ROC,KROC,43.118866,-77.672389,559,-5,A,"Rochester, NY",751,750,758,757,5.06391478029295,11.934666666666676,22.0,48.0,"Fri, Oct  7, 2011","Mon, Oct  3, 2011"
3736,Roswell International Air Center,Roswell,United States,ROW,KROW,33.301556,-104.530556,3671,-7,A,"Roswell, NM",118,118,119,119,4.152542372881359,9.186440677966102,16.0,35.0,"Sat, Oct  1, 2011","Sat, Oct  8, 2011"
4048,Rochester,Rochester,United States,RST,KRST,43.908283,-92.500014,1317,-6,A,"Rochester, MN",98,99,99,100,3.704081632653061,12.373737373737374,10.0,27.0,"Tue, Oct 11, 2011","Fri, Oct 21, 2011"
3793,Southwest Florida International,Fort Myers,United States,RSW,KRSW,26.536167,-81.755167,30,-5,A,"Fort Myers, FL",1704,1697,1705,1701,4.535211267605621,10.836770771950501,41.0,60.0,"Sat, Oct  1, 2011","Tue, Oct 18, 2011"
3784,Santa Fe Municipal,Santa Fe,United States,SAF,KSAF,35.617108,-106.089422,6348,-7,A,"Santa Fe, NM",93,93,93,93,4.56989247311828,12.010752688172044,21.0,31.0,"Mon, Oct  3, 2011","Sat, Oct 29, 2011"
3731,San Diego International,San Diego,United States,SAN,KSAN,32.733556,-117.189667,17,-8,A,"San Diego, CA",6254,6242,6324,6324,3.6202430444515503,13.822172380647228,47.0,94.0,"Wed, Oct 19, 2011","Sat, Oct  1, 2011"
3621,San Antonio International,San Antonio,United States,SAT,KSAT,29.533694,-98.469778,809,-6,A,"San Antonio, TX",3318,3309,3328,3326,4.263110307414104,12.05651254155333,52.0,70.0,"Wed, Oct 12, 2011","Thu, Oct 27, 2011"
3613,Savannah Hilton Head International,Savannah,United States,SAV,KSAV,32.127583,-81.202139,51,-5,A,"Savannah, GA",760,761,766,769,4.965789473684214,15.248357424441524,31.0,66.0,"Sun, Oct 30, 2011","Mon, Oct 10, 2011"
3949,Santa Barbara Municipal,Santa Barbara,United States,SBA,KSBA,34.426211,-119.840372,10,-8,A,"Santa Barbara, CA",839,837,865,865,4.19189511323004,10.826762246117093,45.0,66.0,"Wed, Oct 26, 2011","Sat, Oct 22, 2011"
4359,South Bend Regional,South Bend,United States,SBN,KSBN,41.708661,-86.31725,799,-5,A,"South Bend, IN",265,263,270,269,3.7924528301886804,12.456273764258553,21.0,54.0,"Wed, Oct  5, 2011","Wed, Oct 26, 2011"
5768,San Luis County Regional Airport,San Luis Obispo,United States,SBP,KSBP,35.2368,-120.642,212,-8,A,"San Luis Obispo, CA",390,389,405,406,3.230769230769231,10.614395886889458,15.0,41.0,"Mon, Oct 10, 2011","Wed, Oct 12, 2011"
3620,Deadhorse,Deadhorse,United States,SCC,PASC,70.19475,-148.465167,64,-9,A,"Deadhorse, AK",57,57,57,57,4.350877192982456,7.7368421052631575,10.0,25.0,"Mon, Oct 31, 2011","Wed, Oct 19, 2011"
4014,Louisville International Airport,Louisville,United States,SDF,KSDF,38.1740858,-85.7364989,501,-5,A,"Louisville, KY",1325,1325,1331,1331,5.340377358490569,12.251320754716986,25.0,94.0,"Wed, Oct  5, 2011","Sun, Oct  9, 2011"
3577,Seattle Tacoma International,Seattle,United States,SEA,KSEA,47.449,-122.309306,433,-8,A,"Seattle, WA",8312,8319,8335,8337,5.937439846005782,14.648034619545617,50.0,92.0,"Sat, Oct 15, 2011","Thu, Oct  6, 2011"
3469,San Francisco International,San Francisco,United States,SFO,KSFO,37.618972,-122.374889,13,-8,A,"San Francisco, CA",12710,12735,12905,12905,6.798111723052726,17.16654888103644,62.0,103.0,"Wed, Oct  5, 2011","Fri, Oct 14, 2011"
4348,Springfield Branson National,Springfield,United States,SGF,KSGF,37.245667,-93.388639,1268,-6,A,"Springfield, MO",634,634,640,640,5.127760252365927,12.788643533123018,25.0,61.0,"Fri, Oct 21, 2011","Sat, Oct  8, 2011"
4064,St. George Municipal,Saint George,United States,SGU,KSGU,37.090583,-113.593056,2941,-7,A,"St. George, UT",171,171,171,171,3.6023391812865495,10.403508771929827,6.0,43.0,"Thu, Oct  6, 2011","Wed, Oct  5, 2011"
3609,Shreveport Regional,Shreveport,United States,SHV,KSHV,32.446629,-93.8256,258,-6,A,"Shreveport, LA",304,304,307,307,4.565789473684212,8.898026315789478,19.0,55.0,"Tue, Oct 18, 2011","Mon, Oct 10, 2011"
3856,Sitka Rocky Gutierrez,Sitka,United States,SIT,PASI,57.047138,-135.361611,21,-9,A,"Sitka, AK",91,91,93,93,4.263736263736263,9.670329670329672,9.0,21.0,"Mon, Oct 17, 2011","Fri, Oct  7, 2011"
3748,Norman Y. Mineta San Jose International,San Jose,United States,SJC,KSJC,37.3626,-121.929022,62,-8,A,"San Jose, CA",3331,3332,3371,3373,3.9891924347043144,10.425870348139249,53.0,91.0,"Sat, Oct 15, 2011","Sat, Oct  8, 2011"
3536,Salt Lake City International,Salt Lake City,United States,SLC,KSLC,40.788389,-111.977772,4227,-7,A,"Salt Lake City, UT",9487,9500,9536,9532,5.649204174133035,16.000631578947374,67.0,94.0,"Wed, Oct 12, 2011","Thu, Oct 20, 2011"
3817,Sacramento International,Sacramento,United States,SMF,KSMF,38.695417,-121.590778,27,-8,A,"Sacramento, CA",3722,3720,3750,3751,5.033852767329385,10.631451612903227,32.0,80.0,"Mon, Oct  3, 2011","Tue, Oct 25, 2011"
5772,Santa Maria Public-Captain G. Allan Hancock Airport,Santa Maria,United States,SMX,KSMX,34.8989,-120.457,261,-8,A,"Santa Maria, CA",103,105,111,111,3.8155339805825244,10.8,7.0,33.0,"Sat, Oct  8, 2011","Wed, Oct  5, 2011"
3867,John Wayne Airport Orange County,Santa Ana,United States,SNA,KSNA,33.675667,-117.868222,56,-8,A,"Santa Ana, CA",3355,3350,3378,3378,6.219672131147545,11.851044776119412,35.0,92.0,"Thu, Oct 20, 2011","Thu, Oct 20, 2011"
4336,Abraham Lincoln Capital,Springfield,United States,SPI,KSPI,39.8441,-89.677889,597,-6,A,"Springfield, IL",175,175,176,176,3.702857142857143,9.474285714285715,6.0,31.0,"Fri, Oct 28, 2011","Sat, Oct 22, 2011"
4067,Sarasota Bradenton International,Sarasota,United States,SRQ,KSRQ,27.395444,-82.554389,30,-5,A,"Sarasota/Bradenton, FL",344,343,344,343,4.491279069767445,11.049562682215743,9.0,30.0,"Fri, Oct  7, 2011","Thu, Oct 20, 2011"
3678,Lambert St. Louis International,St. Louis,United States,STL,KSTL,38.748697,-90.370028,618,-6,A,"St. Louis, MO",4811,4811,4825,4826,5.007067137809183,10.230513406776153,51.0,72.0,"Thu, Oct 27, 2011","Mon, Oct 17, 2011"
6494,Friedman Memorial,Hailey,United States,SUN,KSUN,43.504444,-114.296194,5320,-7,A,"Sun Valley/Hailey/Ketchum, ID",121,120,126,126,2.8181818181818175,8.483333333333336,7.0,40.0,"Sat, Oct 15, 2011","Sun, Oct 16, 2011"
3661,Stewart International,Newburgh,United States,SWF,KSWF,41.504094,-74.104839,491,-5,A,"Newburgh/Poughkeepsie, NY",111,112,117,117,5.558558558558558,13.901785714285714,16.0,81.0,"Sun, Oct 23, 2011","Sat, Oct 29, 2011"
3745,Syracuse Hancock International,Syracuse,United States,SYR,KSYR,43.111187,-76.106311,421,-5,A,"Syracuse, NY",601,601,606,607,4.256239600665555,13.154742096505824,31.0,64.0,"Thu, Oct 20, 2011","Sun, Oct  2, 2011"
3698,Tallahassee Regional,Tallahassee,United States,TLH,KTLH,30.396528,-84.350333,81,-5,A,"Tallahassee, FL",368,365,369,368,3.4945652173913055,14.112328767123287,12.0,55.0,"Wed, Oct  5, 2011","Mon, Oct 31, 2011"
4040,Toledo,Toledo,United States,TOL,KTOL,41.586806,-83.807833,684,-5,A,"Toledo, OH",44,44,44,44,2.6590909090909087,10.454545454545455,5.0,21.0,"Wed, Oct 26, 2011","Sun, Oct 16, 2011"
3646,Tampa International,Tampa,United States,TPA,KTPA,27.975472,-82.53325,26,-5,A,"Tampa, FL",5442,5438,5461,5464,4.633774347666285,11.671018756895954,41.0,78.0,"Thu, Oct 20, 2011","Fri, Oct 14, 2011"
4116,Tri-Cities Regional Airport,BRISTOL,United States,TRI,KTRI,36.4752222,-82.4074167,1519,-5,A,"Bristol/Johnson City/Kingsport, TN",300,300,300,300,3.6333333333333333,13.599999999999996,9.0,51.0,"Tue, Oct 25, 2011","Mon, Oct 10, 2011"
3855,Tulsa International,Tulsa,United States,TUL,KTUL,36.198389,-95.888111,677,-6,A,"Tulsa, OK",1576,1571,1585,1583,4.368654822335037,11.117759388924268,31.0,79.0,"Sun, Oct  2, 2011","Sun, Oct  9, 2011"
3636,Tucson International,Tucson,United States,TUS,KTUS,32.116083,-110.941028,2643,-7,N,"Tucson, AZ",1853,1849,1856,1855,4.547760388559085,11.593834505137917,29.0,108.0,"Tue, Oct  4, 2011","Tue, Oct  4, 2011"
4023,Cherry Capital Airport,Traverse City,United States,TVC,KTVC,44.741445,-85.582235,624,-5,A,"Traverse City, MI",136,133,137,136,3.683823529411766,10.015037593984962,40.0,40.0,"Sun, Oct  9, 2011","Mon, Oct 10, 2011"
4263,Magic Valley Regional Airport,Twin Falls,United States,TWF,KTWF,42.481803,-114.487733,4151,-7,A,"Twin Falls, ID",93,94,93,94,3.2150537634408596,8.755319148936167,5.0,30.0,"Tue, Oct 25, 2011","Wed, Oct  5, 2011"
3770,Texarkana Regional-Webb Field,Texarkana,United States,TXK,KTXK,33.453722,-93.991028,390,-6,A,"Texarkana, AR",91,91,93,93,3.1428571428571415,7.802197802197805,8.0,17.0,"Mon, Oct 31, 2011","Mon, Oct 10, 2011"
3848,Tyler Pounds Regional,Tyler,United States,TYR,KTYR,32.354139,-95.402386,544,-6,A,"Tyler, TX",91,91,93,93,3.923076923076923,9.560439560439564,10.0,26.0,"Sat, Oct  8, 2011","Mon, Oct 24, 2011"
3676,McGhee Tyson,Knoxville,United States,TYS,KTYS,35.810972,-83.994028,981,-5,A,"Knoxville, TN",892,890,897,898,3.791479820627802,12.485393258426969,26.0,68.0,"Mon, Oct 24, 2011","Thu, Oct 13, 2011"
5776,Valdosta Regional Airport,Valdosta,United States,VLD,KVLD,30.7825,-83.2767,203,-5,A,"Valdosta, GA",88,88,88,88,3.693181818181819,10.590909090909095,24.0,35.0,"Wed, Oct 12, 2011","Tue, Oct 25, 2011"
3873,Eglin AFB,Valparaiso,United States,VPS,KVPS,30.48325,-86.5254,87,-6,A,"Valparaiso, FL",442,442,444,444,6.212669683257919,15.17420814479638,18.0,60.0,"Wed, Oct 12, 2011","Mon, Oct 10, 2011"
5969,Wrangell Airport,Wrangell,United States,WRG,PAWG,56.4843,-132.37,44,-9,A,"Wrangell, AK",60,59,62,62,3.9166666666666665,7.508474576271187,5.0,23.0,"Mon, Oct  3, 2011","Fri, Oct 28, 2011"
4356,NW Arkansas Regional,Bentonville,United States,XNA,KXNA,36.2818694,-94.3068111,1287,-6,A,"Fayetteville, AR",1067,1062,1081,1080,4.153701968134959,12.55838041431262,24.0,68.0,"Fri, Oct  7, 2011","Thu, Oct 13, 2011"
6803,Yakutat,Yakutat,United States,YAK,PAYA,59.3012,-139.3937,33,-9,A,"Yakutat, AK",61,61,62,62,3.639344262295082,6.524590163934426,5.0,28.0,"Mon, Oct  3, 2011","Sun, Oct  9, 2011"
3596,Yuma MCAS Yuma International,Yuma,United States,YUM,KYUM,32.656578,-114.60598,216,-7,N,"Yuma, AZ",289,289,297,297,4.782006920415223,12.249134948096888,16.0,43.0,"Tue, Oct 11, 2011","Wed, Oct 26, 2011"
