airport_id,name,city,country,iata_faa,iaco,latitude,longitude,altitude,zone,dst,city_state,avg_able_landings,avg_able_takeoffs,total_landings,total_takeoffs,avg_taxi_in,avg_taxi_out,longest_taxi_in,longest_taxi_out,lng_tx_in_date,lng_tx_out_date
4355,Lehigh Valley International,Allentown,United States,ABE,KABE,40.652083,-75.440806,393,-5,A,"Allentown/Bethlehem/Easton, PA",213,213,215,215,4.35680751173709,14.72769953051643,22.0,81.0,"Thu, Feb 16, 2012","Sat, Feb 11, 2012"
3718,Abilene Regional,Abilene,United States,ABI,KABI,32.411319,-99.681897,1791,-6,A,"Abilene, TX",189,188,190,190,3.3544973544973544,9.585106382978724,11.0,37.0,"Tue, Feb 14, 2012","Sun, Feb 12, 2012"
4019,Albuquerque International Sunport,Albuquerque,United States,ABQ,KABQ,35.0402222,-106.6091944,5355,-7,A,"Albuquerque, NM",2338,2333,2357,2356,4.948674080410602,10.699528504072031,37.0,64.0,"Sat, Feb 18, 2012","Wed, Feb 15, 2012"
5715,Southwest Georgia Regional Airport,Albany,United States,ABY,KABY,31.5355,-84.1945,197,-5,A,"Albany, GA",79,79,79,79,3.4683544303797462,13.69620253164557,9.0,42.0,"Fri, Feb 10, 2012","Sun, Feb 19, 2012"
3700,Waco Regional,Waco,United States,ACT,KACT,31.611289,-97.230519,516,-6,A,"Waco, TX",98,98,99,99,3.9897959183673457,9.85714285714286,13.0,28.0,"Wed, Feb  8, 2012","Sat, Feb 25, 2012"
4384,Arcata,Arcata CA,United States,ACV,KACV,40.978111,-124.108611,221,-8,A,"Arcata/Eureka, CA",238,236,245,245,3.865546218487395,10.016949152542374,8.0,33.0,"Sun, Feb 12, 2012","Wed, Feb  1, 2012"
5959,Adak Airport,Adak Island,United States,ADK,PADK,51.878,-176.646,18,-10,A,"Adak Island, AK",8,8,8,8,4.25,6.5,5.0,11.0,"Thu, Feb  2, 2012","Thu, Feb 16, 2012"
3531,Kodiak,Kodiak,United States,ADQ,PADQ,57.749967,-152.493856,78,-9,A,"Kodiak, AK",47,47,54,54,3.595744680851064,6.404255319148936,8.0,15.0,"Sun, Feb  5, 2012","Sat, Feb 11, 2012"
3852,Alexandria International,Alexandria,United States,AEX,KAEX,31.3274,-92.549833,89,-6,A,"Alexandria, LA",252,252,256,256,2.924603174603175,11.476190476190476,21.0,44.0,"Fri, Feb  3, 2012","Thu, Feb 16, 2012"
3658,Augusta Regional At Bush Field,Bush Field,United States,AGS,KAGS,33.369944,-81.9645,144,-5,A,"Augusta, GA",229,230,232,232,3.296943231441048,16.21304347826087,9.0,56.0,"Fri, Feb 24, 2012","Mon, Feb 27, 2012"
3864,Albany International,Albany,United States,ALB,KALB,42.748267,-73.801692,285,-5,A,"Albany, NY",626,632,629,633,3.880191693290735,12.94303797468354,32.0,59.0,"Tue, Feb 14, 2012","Wed, Feb 29, 2012"
3840,Rick Husband Amarillo International,Amarillo,United States,AMA,KAMA,35.219369,-101.705931,3607,-6,A,"Amarillo, TX",484,485,494,493,4.409090909090912,11.367010309278351,27.0,61.0,"Fri, Feb  3, 2012","Mon, Feb 13, 2012"
3774,Ted Stevens Anchorage International,Anchorage,United States,ANC,PANC,61.174361,-149.996361,152,-9,A,"Anchorage, AK",1171,1177,1187,1186,4.439795046968395,16.16652506372133,29.0,74.0,"Thu, Feb  2, 2012","Tue, Feb 14, 2012"
3838,Watertown International,Watertown,United States,ART,KART,43.991922,-76.021739,325,-5,A,"Watertown, NY",48,48,50,50,3.875,17.41666666666667,9.0,65.0,"Tue, Feb 14, 2012","Sat, Feb 11, 2012"
7001,Aspen/Pitkin County-Sardy Field,Aspen,United States,ASE,KASE,39.2232,-106.869,7820,-7,A,"Aspen, CO",642,648,686,685,3.5451713395638644,13.180555555555555,12.0,72.0,"Mon, Feb 27, 2012","Sat, Feb 25, 2012"
3682,Hartsfield Jackson Atlanta International,Atlanta,United States,ATL,KATL,33.636719,-84.428067,1026,-5,A,"Atlanta, GA",29627,29703,29757,29800,10.165625949302983,18.282833383833395,62.0,110.0,"Sat, Feb  4, 2012","Fri, Feb 24, 2012"
4047,Appleton,Appleton,United States,ATW,KATW,44.257526,-88.507576,680,-6,A,"Appleton, WI",248,248,254,254,3.915322580645163,12.374999999999998,13.0,85.0,"Fri, Feb 10, 2012","Wed, Feb 29, 2012"
3673,Austin Bergstrom International,Austin,United States,AUS,KAUS,30.194528,-97.669889,542,-6,A,"Austin, TX",3144,3142,3158,3157,5.034987277353681,11.70241884150222,38.0,61.0,"Thu, Feb 16, 2012","Sat, Feb  4, 2012"
4007,Asheville Regional Airport,Asheville,United States,AVL,KAVL,35.436194,-82.541806,2165,-5,A,"Asheville, NC",327,328,332,332,3.1743119266055038,16.469512195121943,12.0,71.0,"Mon, Feb 27, 2012","Wed, Feb 22, 2012"
4286,Wilkes Barre Scranton International,Scranton,United States,AVP,KAVP,41.338478,-75.723403,962,-5,A,"Scranton/Wilkes-Barre, PA",80,80,82,82,4.100000000000003,12.574999999999998,38.0,43.0,"Sun, Feb 12, 2012","Wed, Feb  8, 2012"
4039,Kalamazoo,Kalamazoo,United States,AZO,KAZO,42.234875,-85.552058,874,-5,A,"Kalamazoo, MI",59,59,63,63,3.7288135593220337,17.101694915254242,16.0,52.0,"Thu, Feb  2, 2012","Sat, Feb 25, 2012"
3825,Bradley International,Windsor Locks,United States,BDL,KBDL,41.938889,-72.683222,173,-5,A,"Hartford, CT",1446,1449,1460,1461,4.848547717842321,13.777087646652861,28.0,76.0,"Sat, Feb 11, 2012","Fri, Feb 24, 2012"
3599,Bethel,Bethel,United States,BET,PABE,60.779778,-161.838,121,-9,A,"Bethel, AK",76,76,79,79,3.8552631578947367,7.078947368421052,8.0,19.0,"Thu, Feb 23, 2012","Mon, Feb 13, 2012"
3558,Meadows Field,Bakersfield,United States,BFL,KBFL,35.433598,-119.05677,507,-8,A,"Bakersfield, CA",299,299,299,299,3.8060200668896322,11.742474916387959,7.0,39.0,"Fri, Feb 17, 2012","Sat, Feb 11, 2012"
3463,Bangor International,Bangor,United States,BGR,KBGR,44.807444,-68.828139,192,-5,A,"Bangor, ME",29,28,29,29,3.793103448275862,19.178571428571427,7.0,66.0,"Sat, Feb 11, 2012","Sat, Feb 25, 2012"
3811,Birmingham International,Birmingham,United States,BHM,KBHM,33.562942,-86.75355,644,-6,A,"Birmingham, AL",1338,1341,1347,1350,3.397608370702541,12.498881431767327,43.0,145.0,"Sun, Feb 12, 2012","Sat, Feb  4, 2012"
4021,Billings Logan International Airport,Billings,United States,BIL,KBIL,45.80921,-108.537654,3652,-7,A,"Billings, MT",217,216,222,222,3.6313364055299537,12.25462962962963,8.0,43.0,"Fri, Feb 10, 2012","Fri, Feb 17, 2012"
4083,Bismarck Municipal Airport,Bismarck,United States,BIS,KBIS,46.775842,-100.757931,1661,-6,A,"Bismarck/Mandan, ND",263,262,268,270,3.93916349809886,12.095419847328245,34.0,74.0,"Tue, Feb  7, 2012","Thu, Feb 23, 2012"
6962,Branson LLC,Branson,United States,BKG,KBBG,36.531994,-93.200556,1302,-6,A,"Branson, MO",51,50,58,58,3.843137254901961,9.56,6.0,34.0,"Mon, Feb 20, 2012","Mon, Feb 13, 2012"
3777,Bellingham International,Bellingham,United States,BLI,KBLI,48.792694,-122.537528,170,-8,A,"Bellingham, WA",58,58,58,58,5.172413793103448,14.39655172413793,30.0,37.0,"Wed, Feb  8, 2012","Thu, Feb  2, 2012"
4037,Central Illinois Regional,Bloomington,United States,BMI,KBMI,40.477111,-88.915917,871,-6,A,"Bloomington/Normal, IL",257,259,260,261,3.782101167315175,8.312741312741316,21.0,66.0,"Thu, Feb  2, 2012","Fri, Feb 24, 2012"
3690,Nashville International,Nashville,United States,BNA,KBNA,36.124472,-86.678194,599,-6,A,"Nashville, TN",4148,4150,4173,4176,5.532063645130195,12.119277108433732,28.0,94.0,"Sat, Feb 11, 2012","Wed, Feb 29, 2012"
3495,Boise Air Terminal,Boise,United States,BOI,KBOI,43.564361,-116.222861,2871,-7,A,"Boise, ID",800,799,803,802,3.5900000000000007,10.424280350438051,29.0,54.0,"Fri, Feb  3, 2012","Sat, Feb 11, 2012"
3448,General Edward Lawrence Logan International,Boston,United States,BOS,KBOS,42.364347,-71.005181,19,-5,A,"Boston, MA",7953,7962,8016,8021,6.4031183201307575,18.49045465963323,52.0,114.0,"Fri, Feb 24, 2012","Mon, Feb 27, 2012"
5725,Brunswick Golden Isles Airport,Brunswick,United States,BQK,KBQK,31.2588,-81.4665,26,-5,A,"Brunswick, GA",72,72,72,72,2.9722222222222223,14.763888888888886,5.0,90.0,"Sun, Feb 19, 2012","Wed, Feb 29, 2012"
3738,Brownsville South Padre Island International,Brownsville,United States,BRO,KBRO,25.906833,-97.425861,22,-6,A,"Brownsville, TX",192,192,193,193,3.989583333333334,11.270833333333334,10.0,53.0,"Sat, Feb 18, 2012","Wed, Feb 15, 2012"
3571,Wiley Post Will Rogers Memorial,Barrow,United States,BRW,PABR,71.285446,-156.766003,44,-9,A,"Barrow, AK",66,66,66,66,4.257575757575758,6.196969696969697,8.0,15.0,"Sat, Feb 18, 2012","Thu, Feb  2, 2012"
4022,Bert Mooney Airport,Butte,United States,BTM,KBTM,45.954806,-112.497472,5550,-7,A,"Butte, MT",53,53,54,54,3.6792452830188678,12.339622641509434,5.0,26.0,"Tue, Feb 21, 2012","Sun, Feb  5, 2012"
3846,Baton Rouge Metro-Ryan Field,Baton Rouge,United States,BTR,KBTR,30.533167,-91.149639,70,-6,A,"Baton Rouge, LA",549,551,557,559,5.375227686703095,11.593466424682399,79.0,81.0,"Sat, Feb 18, 2012","Thu, Feb  2, 2012"
3711,Burlington International,Burlington,United States,BTV,KBTV,44.471861,-73.153278,335,-5,A,"Burlington, VT",234,233,235,234,4.170940170940172,14.909871244635193,27.0,66.0,"Sat, Feb 11, 2012","Mon, Feb  6, 2012"
3820,Buffalo Niagara International,Buffalo,United States,BUF,KBUF,42.940525,-78.732167,724,-5,A,"Buffalo, NY",1570,1568,1578,1574,3.9197452229299357,13.376913265306118,42.0,107.0,"Sat, Feb 18, 2012","Fri, Feb 24, 2012"
3644,Bob Hope,Burbank,United States,BUR,KBUR,34.200667,-118.358667,778,-8,A,"Burbank, CA",2034,2034,2070,2071,2.9208456243854495,10.976401179941009,20.0,55.0,"Sun, Feb 12, 2012","Fri, Feb 17, 2012"
3849,Baltimore Washington International,Baltimore,United States,BWI,KBWI,39.175361,-76.668333,146,-5,A,"Baltimore, MD",7630,7630,7678,7675,5.296461336828292,12.233551769331598,46.0,131.0,"Wed, Feb  1, 2012","Fri, Feb 24, 2012"
4020,Gallatin Field,Bozeman,United States,BZN,KBZN,45.777643,-111.160151,4500,-7,A,"Bozeman, MT",256,259,260,263,4.644531249999998,15.911196911196912,22.0,72.0,"Tue, Feb 28, 2012","Mon, Feb 20, 2012"
3561,Columbia Metropolitan,Colombia,United States,CAE,KCAE,33.938833,-81.119528,236,-5,A,"Columbia, SC",508,504,518,513,3.452755905511811,14.091269841269842,8.0,78.0,"Thu, Feb  9, 2012","Fri, Feb 24, 2012"
4112,Akron Canton Regional Airport,Akron,United States,CAK,KCAK,40.9160833,-81.4421944,1228,-5,A,"Akron, OH",643,641,647,645,4.856920684292381,15.071762870514823,11.0,64.0,"Tue, Feb 28, 2012","Thu, Feb  9, 2012"
3824,Cedar City Regional,Cedar City,United States,CDC,KCDC,37.700967,-113.098847,5622,-7,A,"Cedar City, UT",54,54,54,54,3.259259259259259,10.314814814814815,9.0,25.0,"Tue, Feb 28, 2012","Thu, Feb 16, 2012"
3610,Merle K. Mudhole Smith,Cordova,United States,CDV,PACV,60.491778,-145.477556,48,-9,A,"Cordova, AK",55,56,58,58,3.090909090909091,8.196428571428575,5.0,43.0,"Sun, Feb  5, 2012","Fri, Feb  3, 2012"
5727,Del Norte County Airport,Crescent City,United States,CEC,KCEC,41.7802,-124.237,57,-8,A,"Crescent City, CA",74,74,79,79,3.7432432432432434,13.405405405405405,7.0,42.0,"Mon, Feb  6, 2012","Mon, Feb 20, 2012"
3578,Lovell Field,Chattanooga,United States,CHA,KCHA,35.035278,-85.203808,683,-5,A,"Chattanooga, TN",352,351,352,351,3.4062499999999987,15.75783475783475,21.0,56.0,"Wed, Feb  1, 2012","Wed, Feb 15, 2012"
4015,Charlottesville-Albemarle,Charlottesville VA,United States,CHO,KCHO,38.138639,-78.452861,639,-5,A,"Charlottesville, VA",137,137,140,140,2.729927007299271,11.138686131386862,7.0,48.0,"Thu, Feb  2, 2012","Sun, Feb 19, 2012"
3806,Charleston AFB International,Charleston,United States,CHS,KCHS,32.898647,-80.040528,45,-5,A,"Charleston, SC",1073,1070,1078,1076,5.257222739981362,13.796261682242989,21.0,108.0,"Sat, Feb 18, 2012","Sat, Feb 25, 2012"
3710,Chico Municipal,Chico,United States,CIC,KCIC,39.795383,-121.858422,238,-8,A,"Chico, CA",109,107,112,112,3.036697247706422,11.990654205607479,14.0,42.0,"Mon, Feb 13, 2012","Sun, Feb 26, 2012"
4043,Cedar Rapids,Cedar Rapids,United States,CID,KCID,41.884694,-91.710806,869,-6,A,"Cedar Rapids/Iowa City, IA",469,466,488,486,4.837953091684432,13.218884120171673,31.0,90.0,"Mon, Feb 13, 2012","Mon, Feb 13, 2012"
4088,McClellan-Palomar Airport,Carlsbad,United States,CLD,KCRQ,33.0742,-117.1648,328,-8,A,"Carlsbad, CA",186,186,187,187,3.7580645161290325,10.354838709677416,8.0,40.0,"Thu, Feb  2, 2012","Wed, Feb 15, 2012"
3486,Cleveland Hopkins International,Cleveland,United States,CLE,KCLE,41.411689,-81.849794,791,-5,A,"Cleveland, OH",3537,3539,3569,3568,6.052586938083123,14.350098897993787,30.0,99.0,"Sun, Feb 12, 2012","Sat, Feb 11, 2012"
3715,Easterwood Field,College Station,United States,CLL,KCLL,30.588583,-96.363833,321,-6,A,"College Station/Bryan, TX",81,81,83,83,4.160493827160494,9.382716049382719,8.0,26.0,"Fri, Feb  3, 2012","Wed, Feb  8, 2012"
3876,Charlotte Douglas International,Charlotte,United States,CLT,KCLT,35.214,-80.943139,748,-5,A,"Charlotte, NC",10638,10648,10676,10673,8.212163940590374,18.244552967693476,57.0,131.0,"Sun, Feb 19, 2012","Fri, Feb 24, 2012"
3759,Port Columbus International,Columbus,United States,CMH,KCMH,39.997972,-82.891889,815,-5,A,"Columbus, OH",1960,1949,1972,1971,4.653061224489787,13.966136480246288,25.0,76.0,"Tue, Feb  7, 2012","Sat, Feb 11, 2012"
4049,Champaign,Champaign,United States,CMI,KCMI,40.03925,-88.278056,754,-6,A,"Champaign/Urbana, IL",152,152,157,157,4.046052631578948,13.085526315789476,11.0,111.0,"Fri, Feb 10, 2012","Fri, Feb 24, 2012"
5732,Houghton County Memorial Airport,Hancock,United States,CMX,KCMX,47.1684,-88.4891,1095,-5,A,"Hancock/Houghton, MI",54,55,58,58,4.370370370370371,17.399999999999988,11.0,92.0,"Sat, Feb 25, 2012","Fri, Feb 10, 2012"
4344,Yellowstone Regional,Cody,United States,COD,KCOD,44.520194,-109.023806,5102,-7,A,"Cody, WY",51,52,58,58,4.529411764705881,17.557692307692317,7.0,35.0,"Wed, Feb 15, 2012","Fri, Feb 10, 2012"
3819,City Of Colorado Springs Municipal,Colorado Springs,United States,COS,KCOS,38.805805,-104.700778,6187,-7,A,"Colorado Springs, CO",869,870,888,886,6.281933256616801,19.093103448275844,26.0,124.0,"Wed, Feb  8, 2012","Fri, Feb 10, 2012"
3872,Natrona County International,Casper,United States,CPR,KCPR,42.908,-106.464417,5347,-7,A,"Casper, WY",151,152,156,156,4.258278145695363,15.157894736842104,19.0,69.0,"Sun, Feb 12, 2012","Thu, Feb 23, 2012"
3744,Corpus Christi International,Corpus Christi,United States,CRP,KCRP,27.770361,-97.501222,44,-6,A,"Corpus Christi, TX",582,582,589,589,4.132302405498282,10.596219931271477,17.0,51.0,"Thu, Feb 23, 2012","Thu, Feb 23, 2012"
4285,Yeager,Charleston,United States,CRW,KCRW,38.373147,-81.593189,981,-5,A,"Charleston/Dunbar, WV",265,263,274,273,4.305660377358491,13.376425855513308,23.0,93.0,"Mon, Feb  6, 2012","Fri, Feb 24, 2012"
4255,Columbus Metropolitan Airport,Columbus,United States,CSG,KCSG,32.5163333,-84.9388611,397,-5,A,"Columbus, GA",162,162,163,163,3.6049382716049383,10.475308641975317,13.0,48.0,"Mon, Feb 20, 2012","Mon, Feb 13, 2012"
3488,Cincinnati Northern Kentucky International,Cincinnati,United States,CVG,KCVG,39.048836,-84.667822,896,-5,A,"Cincinnati, OH",1725,1721,1742,1743,5.615652173913049,15.478210342823937,30.0,112.0,"Wed, Feb  1, 2012","Mon, Feb 27, 2012"
4045,Central Wisconsin,Wassau,United States,CWA,KCWA,44.772726,-89.646635,840,-6,A,"Mosinee, WI",120,118,124,124,4.116666666666669,11.14406779661017,25.0,60.0,"Fri, Feb 17, 2012","Wed, Feb 29, 2012"
3804,Cheyenne Regional-Jerry Olson Field,Cheyenne,United States,CYS,KCYS,41.155722,-104.811839,6156,-7,A,"Cheyenne, WY",28,28,29,29,3.642857142857143,10.285714285714286,11.0,21.0,"Sun, Feb 26, 2012","Fri, Feb 17, 2012"
3950,Daytona Beach International,Daytona Beach,United States,DAB,KDAB,29.179917,-81.058056,34,-5,A,"Daytona Beach, FL",203,202,203,202,3.7586206896551713,15.346534653465346,7.0,64.0,"Thu, Feb  2, 2012","Wed, Feb 22, 2012"
3502,Dallas Love Field,Dallas,United States,DAL,KDAL,32.847111,-96.851778,487,-6,A,"Dallas, TX",3535,3531,3573,3568,3.9292786421499284,9.145567827810835,31.0,81.0,"Mon, Feb 27, 2012","Tue, Feb 14, 2012"
3627,James M. Cox Dayton International,Dayton,United States,DAY,KDAY,39.902375,-84.219375,1009,-5,A,"Dayton, OH",889,886,900,900,5.122609673790782,15.209932279909717,25.0,75.0,"Wed, Feb 22, 2012","Wed, Feb 29, 2012"
4388,Dubuque Regional,Dubuque IA,United States,DBQ,KDBQ,42.402,-90.709472,1076,-6,A,"Dubuque, IA",24,24,25,25,3.6666666666666665,10.625000000000002,6.0,22.0,"Sun, Feb 19, 2012","Mon, Feb 13, 2012"
3520,Ronald Reagan Washington National,Washington,United States,DCA,KDCA,38.852083,-77.037722,15,-5,A,"Washington, DC",5294,5296,5352,5354,4.707215715904815,16.67862537764347,51.0,131.0,"Thu, Feb 23, 2012","Fri, Feb 24, 2012"
3751,Denver International,Denver,United States,DEN,KDEN,39.861656,-104.673178,5431,-7,A,"Denver, CO",17737,17794,18177,18199,8.194452274905592,15.113296616837117,67.0,104.0,"Tue, Feb 14, 2012","Fri, Feb  3, 2012"
3670,Dallas Fort Worth International,Dallas-fort Worth,United States,DFW,KDFW,32.896828,-97.037997,607,-6,A,"Dallas/Fort Worth, TX",20701,20740,20962,20963,8.443746678904507,14.232931533269056,54.0,116.0,"Sat, Feb 25, 2012","Fri, Feb  3, 2012"
3739,Dothan Regional,Dothan,United States,DHN,KDHN,31.321339,-85.449628,401,-6,A,"Dothan, AL",100,100,100,100,3.12,17.72,7.0,63.0,"Sat, Feb 18, 2012","Tue, Feb 28, 2012"
3598,Duluth International,Duluth,United States,DLH,KDLH,46.842091,-92.193649,1428,-6,A,"Duluth, MN",106,108,112,112,5.698113207547171,17.166666666666668,10.0,73.0,"Thu, Feb  9, 2012","Fri, Feb 10, 2012"
3713,Durango La Plata County,Durango,United States,DRO,KDRO,37.151516,-107.75377,6685,-7,A,"Durango, CO",248,249,258,258,4.4475806451612865,14.289156626506024,11.0,81.0,"Mon, Feb  6, 2012","Tue, Feb 28, 2012"
3729,Des Moines International,Des Moines,United States,DSM,KDSM,41.533972,-93.663083,958,-6,A,"Des Moines, IA",834,831,848,849,4.739808153477225,14.453670276774966,34.0,125.0,"Sat, Feb  4, 2012","Fri, Feb 10, 2012"
3645,Detroit Metro Wayne County,Detroit,United States,DTW,KDTW,42.212444,-83.353389,645,-5,A,"Detroit, MI",6293,6301,6333,6335,8.245987605275724,19.428979527059177,60.0,98.0,"Wed, Feb 29, 2012","Sat, Feb 11, 2012"
5735,Chippewa Valley Regional Airport,Eau Claire,United States,EAU,KEAU,44.8658,-91.4843,913,-6,A,"Eau Claire, WI",57,57,58,58,4.280701754385965,18.92982456140351,14.0,98.0,"Sun, Feb  5, 2012","Sat, Feb 25, 2012"
7669,Northwest Florida Beaches International,Panama City,United States,ECP,KECP,30.3417,-85.7973,69,-6,A,"Panama City, FL",429,428,429,429,3.37995337995338,10.747663551401862,31.0,113.0,"Sun, Feb 19, 2012","Sun, Feb  5, 2012"
4250,Eagle County Regional,Vail,United States,EGE,KEGE,39.642556,-106.917694,6540,-7,A,"Eagle, CO",415,414,422,422,4.751807228915668,16.04830917874396,34.0,82.0,"Sat, Feb 25, 2012","Tue, Feb 28, 2012"
5736,Elko Regional Airport,Elko,United States,EKO,KEKO,40.8249,-115.792,5140,-8,A,"Elko, NV",80,80,80,80,3.9,10.674999999999999,7.0,28.0,"Wed, Feb  1, 2012","Mon, Feb 20, 2012"
3946,Elmira Corning Regional,Elmira,United States,ELM,KELM,42.159889,-76.891611,954,-5,A,"Elmira/Corning, NY",14,15,14,15,3.0714285714285716,15.266666666666667,4.0,28.0,"Thu, Feb  9, 2012","Mon, Feb 13, 2012"
3559,El Paso International,El Paso,United States,ELP,KELP,31.80725,-106.377583,3958,-7,A,"El Paso, TX",1576,1572,1590,1588,4.029187817258884,11.12913486005087,23.0,105.0,"Mon, Feb  6, 2012","Sun, Feb 12, 2012"
4099,Mahlon Sweet Field,Eugene,United States,EUG,KEUG,44.124583,-123.211972,374,-8,A,"Eugene, OR",382,378,387,387,3.397905759162304,12.505291005291001,9.0,59.0,"Tue, Feb 21, 2012","Fri, Feb 17, 2012"
4018,Evansville Regional,Evansville,United States,EVV,KEVV,38.036997,-87.532364,418,-6,A,"Evansville, IN",248,247,252,252,3.9717741935483843,13.040485829959515,22.0,46.0,"Wed, Feb  1, 2012","Sun, Feb 19, 2012"
3730,Craven County Regional,New Bern,United States,EWN,KEWN,35.072972,-77.042944,18,-5,A,"New Bern/Morehead/Beaufort, NC",54,54,54,54,2.5,8.814814814814815,5.0,23.0,"Thu, Feb 23, 2012","Sun, Feb 12, 2012"
3494,Newark Liberty International,Newark,United States,EWR,KEWR,40.6925,-74.168667,18,-5,A,"Newark, NJ",8721,8724,8828,8831,8.87489966746932,19.780146721687263,64.0,107.0,"Mon, Feb 27, 2012","Mon, Feb 27, 2012"
3875,Key West International,Key West,United States,EYW,KEYW,24.556111,-81.759556,3,-5,A,"Key West, FL",170,170,170,170,3.3941176470588235,8.917647058823533,12.0,22.0,"Sun, Feb 19, 2012","Fri, Feb 24, 2012"
3832,Fairbanks International,Fairbanks,United States,FAI,PAFA,64.815114,-147.856267,434,-9,A,"Fairbanks, AK",326,326,328,328,3.303680981595092,12.966257668711659,8.0,57.0,"Thu, Feb 23, 2012","Thu, Feb 16, 2012"
4292,Hector International Airport,Fargo,United States,FAR,KFAR,46.92065,-96.8157639,902,-6,A,"Fargo, ND",411,408,435,432,4.742092457420922,16.86519607843137,15.0,101.0,"Wed, Feb  8, 2012","Wed, Feb 29, 2012"
3687,Fresno Yosemite International,Fresno,United States,FAT,KFAT,36.776194,-119.71814,336,-8,A,"Fresno, CA",853,855,858,858,4.225087924970689,11.816374269005847,12.0,79.0,"Tue, Feb 14, 2012","Wed, Feb  1, 2012"
5738,Fayetteville Regional-Grannis Field,Fayetteville,United States,FAY,KFAY,34.9912,-78.8803,189,-5,A,"Fayetteville, NC",251,252,251,252,4.46215139442231,11.730158730158733,47.0,33.0,"Fri, Feb 17, 2012","Tue, Feb 21, 2012"
4127,Glacier Park International,Kalispell,United States,FCA,KFCA,48.310472,-114.256,2977,-7,A,"Kalispell, MT",112,111,113,113,4.303571428571429,14.08108108108108,17.0,41.0,"Mon, Feb 27, 2012","Tue, Feb 21, 2012"
4261,Flagstaff Pulliam Airport,Flagstaff,United States,FLG,KFLG,35.140318,-111.6692392,7015,-7,N,"Flagstaff, AZ",198,199,202,202,5.277777777777778,12.869346733668344,15.0,40.0,"Tue, Feb 14, 2012","Tue, Feb 14, 2012"
3533,Fort Lauderdale Hollywood International,Fort Lauderdale,United States,FLL,KFLL,26.072583,-80.15275,9,-5,A,"Fort Lauderdale, FL",5720,5710,5729,5725,4.813461538461547,16.48353765323987,51.0,83.0,"Tue, Feb 28, 2012","Sun, Feb 26, 2012"
4089,Bishop International,Flint,United States,FNT,KFNT,42.965424,-83.743629,782,-5,A,"Flint, MI",255,255,255,255,5.03921568627451,13.470588235294118,14.0,80.0,"Tue, Feb 28, 2012","Fri, Feb 24, 2012"
4009,Sioux Falls,Sioux Falls,United States,FSD,KFSD,43.582014,-96.741914,1429,-6,A,"Sioux Falls, SD",504,503,513,514,5.382936507936509,16.64612326043736,28.0,112.0,"Fri, Feb  3, 2012","Fri, Feb 24, 2012"
3437,Fort Smith Regional,Fort Smith,United States,FSM,KFSM,35.336583,-94.367444,469,-6,A,"Fort Smith, AR",181,181,182,182,3.8950276243093924,9.099447513812157,27.0,42.0,"Sun, Feb 12, 2012","Mon, Feb 13, 2012"
4041,Fort Wayne,Fort Wayne,United States,FWA,KFWA,40.978472,-85.195139,815,-5,A,"Fort Wayne, IN",281,281,289,289,3.775800711743772,11.594306049822066,12.0,41.0,"Fri, Feb  3, 2012","Sat, Feb  4, 2012"
4296,Gillette-Campbell County Airport,Gillette,United States,GCC,KGCC,44.3489167,-105.5393611,4365,-7,A,"Gillette, WY",109,108,116,116,4.422018348623856,16.12962962962963,14.0,54.0,"Sun, Feb 19, 2012","Wed, Feb 22, 2012"
3467,Spokane International,Spokane,United States,GEG,KGEG,47.619861,-117.533833,2376,-8,A,"Spokane, WA",782,782,785,785,3.9808184143222514,13.670076726342709,16.0,60.0,"Sat, Feb 25, 2012","Sat, Feb 25, 2012"
3442,Grand Forks International,Grand Forks,United States,GFK,KGFK,47.949256,-97.176111,845,-6,A,"Grand Forks, ND",103,102,111,111,4.80582524271845,17.862745098039223,10.0,76.0,"Sun, Feb 26, 2012","Sun, Feb 26, 2012"
3465,East Texas Regional,Longview,United States,GGG,KGGG,32.384014,-94.711486,365,-6,A,"Longview, TX",48,48,49,49,4.250000000000001,8.333333333333334,7.0,36.0,"Sat, Feb  4, 2012","Sun, Feb 19, 2012"
4063,Grand Junction Regional,Grand Junction,United States,GJT,KGJT,39.122413,-108.526735,4858,-7,A,"Grand Junction, CO",398,394,406,403,3.7311557788944714,14.030456852791874,27.0,71.0,"Thu, Feb 23, 2012","Thu, Feb  9, 2012"
3472,Gainesville Regional,Gainesville,United States,GNV,KGNV,29.690056,-82.271778,152,-5,A,"Gainesville, FL",252,245,253,246,3.4722222222222223,13.346938775510203,11.0,69.0,"Thu, Feb 16, 2012","Mon, Feb 13, 2012"
4038,Gulfport-Biloxi,Gulfport,United States,GPT,KGPT,30.407278,-89.070111,28,-6,A,"Gulfport/Biloxi, MS",354,354,359,359,4.211864406779657,11.22881355932204,33.0,63.0,"Fri, Feb  3, 2012","Fri, Feb 24, 2012"
3653,Austin Straubel International,Green Bay,United States,GRB,KGRB,44.485072,-88.129589,695,-6,A,"Green Bay, WI",342,343,354,355,4.06140350877193,12.25364431486881,22.0,56.0,"Sat, Feb 11, 2012","Thu, Feb  2, 2012"
5740,Central Nebraska Regional Airport,Grand Island,United States,GRI,KGRI,40.9675,-98.3096,1847,-6,A,"Grand Island, NE",54,54,54,54,3.3333333333333335,11.462962962962964,6.0,36.0,"Sun, Feb 26, 2012","Fri, Feb  3, 2012"
3775,Robert Gray AAF,Killeen,United States,GRK,KGRK,31.06725,-97.828917,1015,-6,A,"Killeen, TX",300,300,305,305,3.5633333333333335,8.950000000000003,21.0,38.0,"Sat, Feb 18, 2012","Sat, Feb 11, 2012"
3685,Gerald R. Ford International,Grand Rapids,United States,GRR,KGRR,42.880833,-85.522806,794,-5,A,"Grand Rapids, MI",790,788,804,804,4.5050632911392485,15.270304568527923,36.0,135.0,"Fri, Feb 24, 2012","Thu, Feb 23, 2012"
4008,Piedmont Triad,Greensboro,United States,GSO,KGSO,36.09775,-79.937306,925,-5,A,"Greensboro/High Point, NC",617,617,627,628,3.8865478119935095,15.457050243111842,17.0,104.0,"Sun, Feb 19, 2012","Mon, Feb 27, 2012"
4034,Greenville-Spartanburg International,Greenville,United States,GSP,KGSP,34.895556,-82.218889,964,-5,A,"Greer, SC",746,744,758,755,3.584450402144772,11.987903225806454,50.0,51.0,"Fri, Feb 17, 2012","Fri, Feb 24, 2012"
3880,Great Falls International,Great Falls,United States,GTF,KGTF,47.482,-111.370689,3677,-7,A,"Great Falls, MT",127,127,129,130,4.338582677165353,12.05511811023622,9.0,36.0,"Sun, Feb 12, 2012","Tue, Feb  7, 2012"
4273,Golden Triangle Regional Airport,Columbus Mississippi,United States,GTR,KGTR,33.450333,-88.591361,264,-6,A,"Columbus, MS",81,80,81,81,3.234567901234568,13.9,13.0,40.0,"Mon, Feb 27, 2012","Fri, Feb 10, 2012"
7051,Gunnison - Crested Butte,Gunnison,United States,GUC,KGUC,38.533889,-106.933056,7678,-7,A,"Gunnison, CO",74,73,77,76,4.054054054054054,14.123287671232877,7.0,69.0,"Wed, Feb 15, 2012","Thu, Feb  2, 2012"
4339,Yampa Valley,Hayden,United States,HDN,KHDN,40.481181,-107.21766,6602,-7,A,"Hayden, CO",237,236,244,243,3.999999999999998,19.06355932203389,13.0,98.0,"Mon, Feb 20, 2012","Tue, Feb 14, 2012"
3504,Helena Regional,Helena,United States,HLN,KHLN,46.606806,-111.98275,3877,-7,A,"Helena, MT",99,98,102,102,3.484848484848485,16.999999999999996,5.0,43.0,"Sat, Feb  4, 2012","Thu, Feb  2, 2012"
3728,Honolulu International,Honolulu,United States,HNL,PHNL,21.318681,-157.922428,13,-10,N,"Honolulu, HI",4158,4161,4173,4172,6.356421356421364,13.278538812785389,28.0,58.0,"Thu, Feb  9, 2012","Mon, Feb 27, 2012"
3749,Lea County Regional,Hobbs,United States,HOB,KHOB,32.687528,-103.217028,3661,-7,A,"Hobbs, NM",50,49,51,50,3.96,11.020408163265307,8.0,25.0,"Mon, Feb 13, 2012","Wed, Feb  1, 2012"
3566,William P. Hobby,Houston,United States,HOU,KHOU,29.645419,-95.278889,46,-6,A,"Houston, TX",3951,3954,3992,3994,4.692736016198433,9.18917551846232,38.0,47.0,"Thu, Feb  9, 2012","Sat, Feb 11, 2012"
3589,Westchester County,White Plains,United States,HPN,KHPN,41.066959,-73.707575,439,-5,A,"White Plains, NY",667,667,672,673,5.412293853073467,12.70314842578711,31.0,56.0,"Fri, Feb 24, 2012","Thu, Feb  2, 2012"
3560,Valley International,Harlingen,United States,HRL,KHRL,26.2285,-97.654389,36,-6,A,"Harlingen/San Benito, TX",344,343,346,346,3.177325581395349,9.011661807580177,7.0,50.0,"Tue, Feb 14, 2012","Sat, Feb  4, 2012"
4113,Huntsville International Airport-Carl T. Jones Field,Huntsville,United States,HSV,KHSV,34.6371944,-86.7750556,629,-6,A,"Huntsville, AL",577,577,583,583,4.9358752166377835,13.731369150779898,24.0,76.0,"Sun, Feb  5, 2012","Fri, Feb 24, 2012"
3714,Washington Dulles International,Washington,United States,IAD,KIAD,38.944533,-77.455811,313,-5,A,"Washington, DC",5561,5537,5636,5605,6.732062578672899,15.665884052736134,54.0,99.0,"Sun, Feb 26, 2012","Wed, Feb 29, 2012"
3550,George Bush Intercontinental Houston,Houston,United States,IAH,KIAH,29.984433,-95.341442,97,-6,A,"Houston, TX",12922,12962,12998,13012,8.395062683795036,17.175050146582343,54.0,90.0,"Sat, Feb  4, 2012","Wed, Feb 15, 2012"
3457,Wichita Mid Continent,Wichita,United States,ICT,KICT,37.649944,-97.433056,1333,-6,A,"Wichita, KS",786,778,797,796,4.8587786259542,12.532133676092547,24.0,73.0,"Mon, Feb 13, 2012","Fri, Feb 17, 2012"
4100,Idaho Falls Regional,Idaho Falls,United States,IDA,KIDA,43.514556,-112.07075,4744,-7,A,"Idaho Falls, ID",227,228,230,230,4.185022026431718,16.171052631578956,8.0,71.0,"Fri, Feb 10, 2012","Tue, Feb 28, 2012"
3845,Wilmington International,Wilmington,United States,ILM,KILM,34.270615,-77.902569,32,-5,A,"Wilmington, NC",345,345,348,348,3.747826086956522,12.701449275362323,12.0,43.0,"Thu, Feb  9, 2012","Sat, Feb 18, 2012"
3585,Indianapolis International,Indianapolis,United States,IND,KIND,39.717331,-86.294383,797,-5,A,"Indianapolis, IN",2232,2235,2240,2245,5.40322580645162,13.697539149888145,50.0,74.0,"Mon, Feb  6, 2012","Thu, Feb  2, 2012"
3689,Imperial County,Imperial,United States,IPL,KIPL,32.834219,-115.578744,-54,-8,A,"El Centro, CA",58,58,58,58,3.3448275862068964,13.448275862068966,11.0,32.0,"Fri, Feb 17, 2012","Fri, Feb 10, 2012"
3857,Long Island MacArthur,Islip,United States,ISP,KISP,40.79525,-73.100222,99,-5,A,"Islip, NY",526,527,528,528,4.254752851711023,8.362428842504745,11.0,35.0,"Sat, Feb 11, 2012","Sat, Feb 11, 2012"
3415,Hilo International,Hilo,United States,ITO,PHTO,19.721375,-155.048469,38,-10,N,"Hilo, HI",547,546,547,547,5.517367458866543,8.714285714285705,15.0,31.0,"Sun, Feb 19, 2012","Wed, Feb  1, 2012"
7120,Inyokern Airport,Inyokern,United States,IYK,KIYK,35.658889,-117.829444,2455,-8,A,"Inyokern, CA",62,62,66,66,4.1935483870967705,13.790322580645162,7.0,25.0,"Sat, Feb 18, 2012","Tue, Feb 21, 2012"
4027,Jackson Hole Airport,Jacksn Hole,United States,JAC,KJAC,43.60733333,-110.73775,6451,-7,A,"Jackson, WY",239,239,266,266,3.878661087866108,22.355648535564853,8.0,152.0,"Wed, Feb 29, 2012","Sat, Feb 25, 2012"
3580,Jackson Evers International,Jackson,United States,JAN,KJAN,32.311167,-90.075889,346,-6,A,"Jackson/Vicksburg, MS",655,656,660,660,4.230534351145041,12.254573170731698,26.0,49.0,"Sun, Feb 12, 2012","Fri, Feb 24, 2012"
3712,Jacksonville International,Jacksonville,United States,JAX,KJAX,30.494056,-81.687861,30,-5,A,"Jacksonville, FL",1962,1959,1968,1967,5.269622833843018,12.820316488004083,31.0,91.0,"Tue, Feb 28, 2012","Fri, Feb 24, 2012"
3797,John F. Kennedy International,New York,United States,JFK,KJFK,40.639751,-73.778925,13,-5,A,"New York, NY",7282,7295,7313,7319,7.969101895083763,23.258944482522285,46.0,110.0,"Thu, Feb 23, 2012","Wed, Feb 29, 2012"
4354,Joplin Regional,Joplin,United States,JLN,KJLN,37.151814,-94.498269,981,-6,A,"Joplin, MO",58,58,58,58,4.275862068965517,12.03448275862069,14.0,43.0,"Tue, Feb 21, 2012","Tue, Feb 21, 2012"
3492,Juneau International,Juneau,United States,JNU,PAJN,58.354972,-134.576278,21,-9,A,"Juneau, AK",280,280,286,286,4.010714285714287,14.028571428571428,10.0,46.0,"Fri, Feb 10, 2012","Mon, Feb 27, 2012"
3514,Kona International At Keahole,Kona,United States,KOA,PHKO,19.738767,-156.045631,47,-10,N,"Kona, HI",993,990,994,994,4.517623363544811,9.90303030303031,29.0,47.0,"Wed, Feb 22, 2012","Wed, Feb 15, 2012"
3808,Ketchikan International,Ketchikan,United States,KTN,PAKT,55.355556,-131.71375,88,-9,A,"Ketchikan, AK",169,171,174,174,3.911242603550296,12.649122807017545,6.0,71.0,"Fri, Feb  3, 2012","Wed, Feb  1, 2012"
3544,Capital City,Lansing,United States,LAN,KLAN,42.7787,-84.587357,861,-5,A,"Lansing, MI",96,96,99,99,3.8541666666666665,14.8125,10.0,56.0,"Mon, Feb 20, 2012","Wed, Feb  1, 2012"
3877,McCarran International,Las Vegas,United States,LAS,KLAS,36.080056,-115.15225,2141,-8,A,"Las Vegas, NV",10628,10620,10682,10678,6.744542717350395,14.391054613935964,122.0,115.0,"Tue, Feb 28, 2012","Tue, Feb 21, 2012"
4256,Lawton-Fort Sill Regional Airport,Lawton,United States,LAW,KLAW,34.5677144,-98.4166367,1110,-6,A,"Lawton/Fort Sill, OK",136,136,144,144,5.095588235294117,9.35294117647059,12.0,29.0,"Thu, Feb  9, 2012","Mon, Feb  6, 2012"
3484,Los Angeles International,Los Angeles,United States,LAX,KLAX,33.942536,-118.408075,126,-8,A,"Los Angeles, CA",16755,16778,16924,16928,9.351835273052865,14.902610561449512,73.0,119.0,"Fri, Feb 17, 2012","Wed, Feb  1, 2012"
3829,Lubbock Preston Smith International,Lubbock,United States,LBB,KLBB,33.663639,-101.822778,3282,-6,A,"Lubbock, TX",571,570,588,586,4.187390542907185,10.394736842105253,26.0,116.0,"Wed, Feb 22, 2012","Sun, Feb 12, 2012"
3513,Lake Charles Regional,Lake Charles,United States,LCH,KLCH,30.126112,-93.223335,15,-6,A,"Lake Charles, LA",57,57,58,58,4.403508771929825,12.333333333333332,12.0,59.0,"Mon, Feb 13, 2012","Thu, Feb  2, 2012"
4017,Blue Grass,Lexington KY,United States,LEX,KLEX,38.0365,-84.605889,979,-5,A,"Lexington, KY",487,487,492,494,3.917864476386037,14.831622176591376,11.0,70.0,"Tue, Feb 28, 2012","Wed, Feb  8, 2012"
3493,Lafayette Regional,Lafayette,United States,LFT,KLFT,30.205278,-91.987611,43,-6,A,"Lafayette, LA",350,351,360,359,4.334285714285713,12.447293447293445,10.0,45.0,"Fri, Feb 17, 2012","Sat, Feb 11, 2012"
3697,LaGuardia Airport,New York,United States,LGA,KLGA,40.777245,-73.872608,22,-5,A,"New York, NY",7407,7404,7515,7515,6.982449034696908,23.430443003781765,80.0,124.0,"Fri, Feb 17, 2012","Fri, Feb 10, 2012"
3582,Long Beach,Long Beach,United States,LGB,KLGB,33.817722,-118.151611,60,-8,A,"Long Beach, CA",1105,1106,1106,1107,3.9022624434389157,12.653707052441227,16.0,43.0,"Sun, Feb 19, 2012","Tue, Feb  7, 2012"
3602,Lihue,Lihue,United States,LIH,PHLI,21.975983,-159.338958,153,-10,N,"Lihue, HI",972,969,974,975,5.361111111111113,8.680082559339517,15.0,42.0,"Thu, Feb  2, 2012","Wed, Feb 29, 2012"
3660,Adams Field,Little Rock,United States,LIT,KLIT,34.729444,-92.224306,262,-6,A,"Little Rock, AR",1188,1185,1198,1198,4.378787878787879,11.393248945147677,36.0,71.0,"Fri, Feb 17, 2012","Mon, Feb 13, 2012"
5750,Klamath Falls Airport,Klamath Falls,United States,LMT,KLMT,42.1561,-121.733,4095,-8,A,"Klamath Falls, OR",84,81,87,87,3.642857142857143,15.753086419753087,7.0,83.0,"Sun, Feb 12, 2012","Sat, Feb 25, 2012"
3543,Lincoln,Lincoln,United States,LNK,KLNK,40.850971,-96.75925,1219,-6,A,"Lincoln, NE",188,188,198,196,4.180851063829788,11.37765957446808,32.0,72.0,"Sat, Feb 18, 2012","Fri, Feb 24, 2012"
3691,Laredo International,Laredo,United States,LRD,KLRD,27.54375,-99.461556,508,-6,A,"Laredo, TX",189,189,193,193,3.687830687830688,10.80423280423281,9.0,45.0,"Sun, Feb  5, 2012","Thu, Feb  2, 2012"
4044,LaCrosse Municipal,LaCrosse,United States,LSE,KLSE,43.878986,-91.256711,654,-6,A,"La Crosse, WI",79,79,79,79,4.430379746835443,14.481012658227854,9.0,30.0,"Sun, Feb 19, 2012","Thu, Feb  2, 2012"
6958,Greenbrier Valley Airport,Lewisburg,United States,LWB,KLWB,37.858333,-80.399444,2302,-5,U,"Lewisburg, WV",33,34,35,35,2.8181818181818183,15.029411764705882,4.0,80.0,"Fri, Feb 10, 2012","Mon, Feb 27, 2012"
3945,Lewiston Nez Perce County,Lewiston,United States,LWS,KLWS,46.3745,-117.015389,1442,-8,A,"Lewiston, ID",48,48,49,49,4.562500000000003,13.0,6.0,40.0,"Thu, Feb 23, 2012","Wed, Feb 29, 2012"
3652,Midland International,Midland,United States,MAF,KMAF,31.942528,-102.201914,2871,-6,A,"Midland/Odessa, TX",615,616,623,624,3.7089430894308943,10.176948051948054,25.0,45.0,"Wed, Feb  8, 2012","Sat, Feb  4, 2012"
4128,MBS International,Saginaw,United States,MBS,KMBS,43.532913,-84.079647,668,-5,A,"Saginaw/Bay City/Midland, MI",92,92,96,96,4.271739130434782,13.945652173913041,16.0,45.0,"Wed, Feb  8, 2012","Fri, Feb 17, 2012"
3458,Kansas City International,Kansas City,United States,MCI,KMCI,39.297606,-94.713905,1026,-6,A,"Kansas City, MO",3700,3701,3735,3733,4.881081081081095,12.094298838151843,47.0,98.0,"Mon, Feb 13, 2012","Fri, Feb 10, 2012"
3878,Orlando International,Orlando,United States,MCO,KMCO,28.429394,-81.308994,96,-5,A,"Orlando, FL",9812,9808,9828,9826,7.065226253567065,12.924551386623174,50.0,108.0,"Sat, Feb 25, 2012","Fri, Feb 10, 2012"
3542,Harrisburg International,Harrisburg,United States,MDT,KMDT,40.193494,-76.763403,310,-5,A,"Harrisburg, PA",392,389,395,394,4.68367346938775,14.966580976863753,14.0,59.0,"Mon, Feb  6, 2012","Tue, Feb  7, 2012"
3747,Chicago Midway International,Chicago,United States,MDW,KMDW,41.785972,-87.752417,620,-6,A,"Chicago, IL",6120,6121,6246,6246,5.385620915032665,10.944780264662636,36.0,64.0,"Sat, Feb  4, 2012","Fri, Feb 10, 2012"
4335,Key Field,Meridian,United States,MEI,KMEI,32.332624,-88.751868,297,-6,A,"Meridian, MS",57,57,58,58,3.982456140350877,15.456140350877194,9.0,53.0,"Sun, Feb 12, 2012","Sat, Feb 11, 2012"
3473,Memphis International,Memphis,United States,MEM,KMEM,35.042417,-89.976667,341,-6,A,"Memphis, TN",2996,2991,3028,3023,5.693925233644847,15.103644266131713,38.0,98.0,"Thu, Feb 23, 2012","Fri, Feb 24, 2012"
3826,McAllen Miller International,Mcallen,United States,MFE,KMFE,26.175833,-98.238611,107,-6,A,"Mission/McAllen/Edinburg, TX",217,216,221,221,3.861751152073734,10.916666666666663,7.0,22.0,"Tue, Feb 14, 2012","Sat, Feb  4, 2012"
4101,Rogue Valley International Medford,Medford,United States,MFR,KMFR,42.374228,-122.8735,1335,-8,A,"Medford, OR",251,252,255,255,3.605577689243028,13.90079365079365,7.0,64.0,"Mon, Feb 27, 2012","Fri, Feb  3, 2012"
4115,Montgomery Regional Airport ,MONTGOMERY,United States,MGM,KMGM,32.3006389,-86.3939722,221,-6,A,"Montgomery, AL",312,312,315,315,2.900641025641027,15.112179487179487,13.0,60.0,"Thu, Feb 16, 2012","Mon, Feb 27, 2012"
4050,Manhattan Regional,Manhattan,United States,MHK,KMHK,39.140972,-96.670833,1057,-6,A,"Manhattan/Ft. Riley, KS",135,135,136,136,3.074074074074074,15.074074074074074,7.0,54.0,"Sun, Feb 26, 2012","Mon, Feb 13, 2012"
4011,Manchester Regional Airport,Manchester NH,United States,MHT,KMHT,42.932556,-71.435667,266,-5,A,"Manchester, NH",656,651,657,656,4.339939024390242,11.64976958525345,21.0,77.0,"Wed, Feb 29, 2012","Fri, Feb 24, 2012"
3576,Miami International,Miami,United States,MIA,KMIA,25.79325,-80.290556,8,-5,A,"Miami, FL",6556,6554,6585,6581,7.757016473459414,15.902654867256636,71.0,75.0,"Sun, Feb  5, 2012","Fri, Feb 24, 2012"
3717,General Mitchell International,Milwaukee,United States,MKE,KMKE,42.947222,-87.896583,723,-6,A,"Milwaukee, WI",3053,3054,3078,3079,5.7101211922699004,14.342829076620825,40.0,99.0,"Fri, Feb 24, 2012","Fri, Feb 24, 2012"
5754,Muskegon County Airport,Muskegon,United States,MKG,KMKG,43.1695,-86.2382,628,-5,A,"Muskegon, MI",54,54,58,58,4.38888888888889,11.592592592592595,7.0,27.0,"Tue, Feb 14, 2012","Wed, Feb  1, 2012"
3671,Melbourne International,Melbourne,United States,MLB,KMLB,28.102753,-80.645258,33,-5,A,"Melbourne, FL",116,116,116,116,4.663793103448278,15.474137931034482,9.0,53.0,"Tue, Feb 14, 2012","Wed, Feb 29, 2012"
4072,Quad City International,Moline,United States,MLI,KMLI,41.448528,-90.507539,590,-6,A,"Moline, IL",419,418,440,440,3.692124105011933,11.576555023923445,28.0,54.0,"Thu, Feb 23, 2012","Thu, Feb  2, 2012"
3732,Monroe Regional,Monroe,United States,MLU,KMLU,32.510864,-92.037689,79,-6,A,"Monroe, LA",140,140,141,141,3.5428571428571423,11.449999999999998,10.0,35.0,"Wed, Feb  1, 2012","Wed, Feb  1, 2012"
7081,Mammoth Yosemite Airport,Mammoth Lakes,United States,MMH,KMMH,37.624049,-118.837772,7128,-8,A,"Mammoth Lakes, CA",83,83,90,90,3.602409638554217,14.349397590361447,7.0,49.0,"Thu, Feb 23, 2012","Sat, Feb 18, 2012"
3782,Mobile Regional,Mobile,United States,MOB,KMOB,30.691231,-88.242814,219,-6,A,"Mobile, AL",401,399,403,403,3.8678304239401498,10.689223057644112,8.0,61.0,"Fri, Feb 10, 2012","Fri, Feb  3, 2012"
3816,Modesto City County Harry Sham,Modesto,United States,MOD,KMOD,37.625817,-120.954422,97,-8,A,"Modesto, CA",105,105,112,112,2.9523809523809526,12.257142857142858,6.0,39.0,"Tue, Feb 28, 2012","Sun, Feb  5, 2012"
3498,Minot International,Minot,United States,MOT,KMOT,48.259378,-101.280333,1716,-6,A,"Minot, ND",202,202,205,206,5.811881188118812,21.25247524752475,66.0,102.0,"Thu, Feb 16, 2012","Wed, Feb 29, 2012"
6838,Sawyer International Airport,Marquette,United States,MQT,KMQT,46.353611,-87.395278,1221,-5,A,"Marquette, MI",24,25,25,25,4.333333333333333,12.48,8.0,25.0,"Fri, Feb 17, 2012","Fri, Feb 24, 2012"
3948,Monterey Peninsula,Monterey,United States,MRY,KMRY,36.587,-121.842944,257,-8,A,"Monterey, CA",431,430,442,441,3.4477958236658943,13.213953488372093,22.0,85.0,"Tue, Feb 14, 2012","Thu, Feb 16, 2012"
3459,Dane County Regional-Truax Field,Madison,United States,MSN,KMSN,43.139858,-89.337514,887,-6,A,"Madison, WI",653,651,668,668,3.8468606431853,13.625192012288792,30.0,87.0,"Fri, Feb 10, 2012","Mon, Feb 27, 2012"
4216,Missoula International,Missoula,United States,MSO,KMSO,46.916306,-114.090556,3205,-7,A,"Missoula, MT",175,175,184,181,4.56,13.834285714285715,8.0,51.0,"Wed, Feb 22, 2012","Wed, Feb 22, 2012"
3858,Minneapolis St. Paul International,Minneapolis,United States,MSP,KMSP,44.881956,-93.221767,841,-6,A,"Minneapolis, MN",7728,7744,7797,7792,6.9437111801242235,18.777246900826437,51.0,122.0,"Mon, Feb 13, 2012","Wed, Feb 29, 2012"
3861,Louis Armstrong New Orleans International,New Orleans,United States,MSY,KMSY,29.993389,-90.258028,4,-6,A,"New Orleans, LA",2937,2928,2947,2939,4.735444330949934,10.337773224043707,34.0,118.0,"Wed, Feb  1, 2012","Fri, Feb 24, 2012"
6880,Montrose Regional Airport,Montrose CO,United States,MTJ,KMTJ,38.509794,-107.894242,5759,-7,A,"Montrose/Delta, CO",223,221,231,231,4.318385650224218,12.361990950226243,9.0,53.0,"Sat, Feb 25, 2012","Sat, Feb 25, 2012"
3515,Myrtle Beach International,Myrtle Beach,United States,MYR,KMYR,33.67975,-78.928333,25,-5,A,"Myrtle Beach, SC",238,238,239,239,3.3781512605042017,13.231092436974789,24.0,55.0,"Fri, Feb 17, 2012","Fri, Feb 10, 2012"
4386,Albert J. Ellis,Jacksonville NC,United States,OAJ,KOAJ,34.829164,-77.612139,94,-5,A,"Jacksonville/Camp Lejeune, NC",159,159,159,159,2.616352201257862,12.981132075471699,10.0,53.0,"Sun, Feb 19, 2012","Fri, Feb 17, 2012"
3453,Metropolitan Oakland International,Oakland,United States,OAK,KOAK,37.721278,-122.220722,9,-8,A,"Oakland, CA",3413,3415,3461,3460,5.822150600644599,9.361932650073204,37.0,32.0,"Fri, Feb 24, 2012","Mon, Feb 13, 2012"
3456,Kahului,Kahului,United States,OGG,PHOG,20.89865,-156.430458,54,-10,N,"Kahului, HI",1784,1781,1791,1790,5.394618834080715,9.011229646266148,40.0,48.0,"Sun, Feb 26, 2012","Thu, Feb 23, 2012"
3863,Will Rogers World,Oklahoma City,United States,OKC,KOKC,35.393089,-97.600733,1295,-6,A,"Oklahoma City, OK",1626,1623,1640,1638,4.413284132841317,11.50030807147258,30.0,74.0,"Sat, Feb 25, 2012","Fri, Feb 24, 2012"
3454,Eppley Airfield,Omaha,United States,OMA,KOMA,41.303167,-95.894069,984,-6,A,"Omaha, NE",1501,1499,1513,1516,4.061958694203869,14.43762508338893,28.0,129.0,"Thu, Feb 23, 2012","Sat, Feb  4, 2012"
3615,Nome,Nome,United States,OME,PAOM,64.512203,-165.445247,37,-9,A,"Nome, AK",83,84,86,86,4.698795180722893,6.880952380952381,8.0,36.0,"Sat, Feb  4, 2012","Thu, Feb 16, 2012"
3734,Ontario International,Ontario,United States,ONT,KONT,34.056,-117.601194,944,-8,A,"Ontario, CA",1756,1750,1767,1766,4.42995444191344,10.603999999999996,24.0,54.0,"Tue, Feb 14, 2012","Wed, Feb 29, 2012"
3830,Chicago O'Hare International,Chicago,United States,ORD,KORD,41.978603,-87.904842,668,-6,A,"Chicago, IL",23080,23176,23697,23728,8.690814558058943,16.329910251984874,103.0,125.0,"Sun, Feb 12, 2012","Fri, Feb 10, 2012"
3611,Norfolk International,Norfolk,United States,ORF,KORF,36.894611,-76.201222,26,-5,A,"Norfolk, VA",982,981,987,988,4.350305498981668,12.998980632008156,51.0,63.0,"Mon, Feb  6, 2012","Tue, Feb 28, 2012"
5757,Southwest Oregon Regional Airport,North Bend,United States,OTH,KOTH,43.4171,-124.246,17,-8,A,"North Bend/Coos Bay, OR",72,71,74,73,3.111111111111111,9.56338028169014,7.0,34.0,"Tue, Feb 28, 2012","Tue, Feb 21, 2012"
3693,Ralph WienMemorial,Kotzebue,United States,OTZ,PAOT,66.884678,-162.59855,11,-9,A,"Kotzebue, AK",83,84,86,86,5.1807228915662655,5.916666666666667,9.0,17.0,"Mon, Feb  6, 2012","Wed, Feb 22, 2012"
4117,Barkley Regional Airport,PADUCAH,United States,PAH,KPAH,37.0602875,-88.7729583,410,-6,A,"Paducah, KY",57,58,58,58,4.491228070175437,11.53448275862069,11.0,74.0,"Fri, Feb 10, 2012","Fri, Feb 10, 2012"
3722,Palm Beach International,West Palm Beach,United States,PBI,KPBI,26.683161,-80.095589,19,-5,A,"West Palm Beach/Palm Beach, FL",2221,2217,2225,2225,4.490319675821701,13.067658998646822,41.0,53.0,"Wed, Feb 22, 2012","Fri, Feb 24, 2012"
3720,Portland International,Portland,United States,PDX,KPDX,45.588722,-122.5975,30,-8,A,"Portland, OR",3717,3720,3741,3740,3.803605057842346,10.765591397849422,25.0,60.0,"Thu, Feb 16, 2012","Sat, Feb 11, 2012"
3633,Newport News Williamsburg International,Newport News,United States,PHF,KPHF,37.131894,-76.492989,43,-5,A,"Newport News/Williamsburg, VA",364,363,365,364,5.0906593406593394,13.101928374655643,14.0,93.0,"Tue, Feb 28, 2012","Sun, Feb 12, 2012"
3752,Philadelphia International,Philadelphia,United States,PHL,KPHL,39.871944,-75.241139,36,-5,A,"Philadelphia, PA",6086,6085,6113,6110,6.018567203417673,19.607888249794623,126.0,91.0,"Fri, Feb 10, 2012","Fri, Feb 24, 2012"
3462,Phoenix Sky Harbor International,Phoenix,United States,PHX,KPHX,33.434278,-112.011583,1135,-7,N,"Phoenix, AZ",14533,14546,14614,14610,7.242413816830655,13.952633026261521,73.0,102.0,"Fri, Feb 24, 2012","Wed, Feb 29, 2012"
4046,Peoria Regional,Peoria,United States,PIA,KPIA,40.664203,-89.693258,660,-6,A,"Peoria, IL",216,218,227,228,3.9120370370370403,14.183486238532108,21.0,74.0,"Thu, Feb  2, 2012","Fri, Feb 10, 2012"
5760,Pocatello Regional Airport,Pocatello,United States,PIH,KPIH,42.9098,-112.596,4452,-7,A,"Pocatello, ID",79,79,79,79,3.848101265822785,11.860759493670889,16.0,49.0,"Sun, Feb  5, 2012","Fri, Feb 10, 2012"
3570,Pittsburgh International,Pittsburgh (pennsylva),United States,PIT,KPIT,40.491467,-80.232872,1204,-5,A,"Pittsburgh, PA",2273,2265,2284,2279,5.21909370875495,15.817218543046351,31.0,150.0,"Wed, Feb 22, 2012","Fri, Feb 10, 2012"
3564,Pensacola Regional,Pensacola,United States,PNS,KPNS,30.473425,-87.186611,121,-6,A,"Pensacola, FL",751,752,764,765,4.031957390146472,12.222074468085106,23.0,47.0,"Sat, Feb  4, 2012","Fri, Feb 24, 2012"
6133,Tri Cities Airport,Pasco,United States,PSC,PSC,46.2647,-119.119,410,-8,A,"Pasco/Kennewick/Richland, WA",239,239,247,247,4.472803347280336,11.33891213389121,8.0,58.0,"Wed, Feb  8, 2012","Tue, Feb 21, 2012"
4147,Petersburg James A. Johnson,Petersburg,United States,PSG,PAPG,56.801667,-132.945278,105,-9,A,"Petersburg, AK",57,57,58,58,3.824561403508772,8.56140350877193,6.0,23.0,"Thu, Feb 16, 2012","Thu, Feb 23, 2012"
3839,Palm Springs International,Palm Springs,United States,PSP,KPSP,33.829667,-116.506694,477,-8,A,"Palm Springs, CA",1207,1205,1210,1209,5.101077050538519,12.960995850622405,18.0,82.0,"Wed, Feb 22, 2012","Wed, Feb  1, 2012"
3641,Theodore Francis Green State,Providence,United States,PVD,KPVD,41.732581,-71.420383,55,-5,A,"Providence, RI",1102,1099,1113,1108,4.223230490018144,12.342129208371237,18.0,112.0,"Wed, Feb 29, 2012","Wed, Feb 29, 2012"
3862,Portland International Jetport,Portland,United States,PWM,KPWM,43.646161,-70.309281,77,-5,A,"Portland, ME",351,350,354,354,3.5384615384615383,15.802857142857146,12.0,61.0,"Fri, Feb 17, 2012","Mon, Feb  6, 2012"
4087,Rapid City Regional Airport,Rapid City,United States,RAP,KRAP,44.045278,-103.057222,3204,-7,A,"Rapid City, SD",294,295,305,304,4.595238095238096,13.606779661016942,26.0,53.0,"Wed, Feb  1, 2012","Mon, Feb  6, 2012"
4098,Redding Municipal,Redding,United States,RDD,KRDD,40.509,-122.293389,504,-8,A,"Redding, CA",138,136,141,141,3.760869565217391,11.272058823529411,6.0,34.0,"Mon, Feb 27, 2012","Wed, Feb 15, 2012"
4103,Roberts Field,Redmond-Bend,United States,RDM,KRDM,44.254066,-121.149964,3077,-8,A,"Bend/Redmond, OR",215,213,224,224,3.153488372093022,11.272300469483568,23.0,84.0,"Mon, Feb 27, 2012","Sat, Feb 25, 2012"
3626,Raleigh Durham International,Raleigh-durham,United States,RDU,KRDU,35.877639,-78.787472,435,-5,A,"Raleigh/Durham, NC",3298,3288,3319,3315,4.349909035779256,14.540450121654493,47.0,124.0,"Sun, Feb 19, 2012","Fri, Feb 24, 2012"
4028,Chicago Rockford International Airport ,Rockford,United States,RFD,KRFD,42.1953611,-89.0972222,742,-6,A,"Rockford, IL",12,13,12,13,5.416666666666667,11.23076923076923,7.0,27.0,"Tue, Feb 14, 2012","Wed, Feb 29, 2012"
3608,Richmond International,Richmond,United States,RIC,KRIC,37.505167,-77.319667,167,-5,A,"Richmond, VA",1247,1248,1267,1265,5.249398556535679,15.931089743589759,33.0,114.0,"Sun, Feb 19, 2012","Mon, Feb 20, 2012"
5766,Rock Springs Sweetwater County Airport,Rock Springs,United States,RKS,KRKS,41.5942,-109.065,6760,-7,A,"Rock Springs, WY",163,163,174,174,3.3190184049079754,12.331288343558285,10.0,76.0,"Mon, Feb 20, 2012","Tue, Feb 28, 2012"
3807,Reno Tahoe International,Reno,United States,RNO,KRNO,39.499108,-119.768108,4415,-8,A,"Reno, NV",1484,1477,1495,1493,4.373989218328832,11.846987136086652,19.0,88.0,"Mon, Feb 27, 2012","Mon, Feb 27, 2012"
4016,Roanoke Regional,Roanoke VA,United States,ROA,KROA,37.325472,-79.975417,1175,-5,A,"Roanoke, VA",208,207,224,221,4.451923076923078,14.16425120772947,15.0,70.0,"Wed, Feb 15, 2012","Tue, Feb 21, 2012"
3622,Greater Rochester International,Rochester,United States,ROC,KROC,43.118866,-77.672389,559,-5,A,"Rochester, NY",664,665,671,672,5.384036144578317,16.054135338345887,12.0,86.0,"Sun, Feb 12, 2012","Sun, Feb 12, 2012"
3736,Roswell International Air Center,Roswell,United States,ROW,KROW,33.301556,-104.530556,3671,-7,A,"Roswell, NM",82,82,83,83,3.8658536585365852,8.853658536585364,9.0,16.0,"Thu, Feb  2, 2012","Wed, Feb  1, 2012"
4048,Rochester,Rochester,United States,RST,KRST,43.908283,-92.500014,1317,-6,A,"Rochester, MN",49,49,54,54,3.7959183673469394,16.38775510204082,16.0,44.0,"Tue, Feb 28, 2012","Tue, Feb 28, 2012"
3793,Southwest Florida International,Fort Myers,United States,RSW,KRSW,26.536167,-81.755167,30,-5,A,"Fort Myers, FL",2624,2616,2628,2623,4.769054878048768,12.160168195718626,44.0,45.0,"Fri, Feb  3, 2012","Thu, Feb  9, 2012"
3784,Santa Fe Municipal,Santa Fe,United States,SAF,KSAF,35.617108,-106.089422,6348,-7,A,"Santa Fe, NM",78,78,78,78,3.717948717948718,10.08974358974359,7.0,30.0,"Fri, Feb  3, 2012","Tue, Feb 14, 2012"
3731,San Diego International,San Diego,United States,SAN,KSAN,32.733556,-117.189667,17,-8,A,"San Diego, CA",5835,5832,5878,5876,3.5571550985432734,12.869341563786005,27.0,72.0,"Tue, Feb 28, 2012","Fri, Feb 24, 2012"
3621,San Antonio International,San Antonio,United States,SAT,KSAT,29.533694,-98.469778,809,-6,A,"San Antonio, TX",2867,2864,2881,2881,4.702825252877577,10.953212290502798,131.0,65.0,"Fri, Feb  3, 2012","Fri, Feb  3, 2012"
3613,Savannah Hilton Head International,Savannah,United States,SAV,KSAV,32.127583,-81.202139,51,-5,A,"Savannah, GA",669,669,677,677,4.8849028400597865,15.023916292974588,34.0,89.0,"Thu, Feb 16, 2012","Thu, Feb 16, 2012"
3949,Santa Barbara Municipal,Santa Barbara,United States,SBA,KSBA,34.426211,-119.840372,10,-8,A,"Santa Barbara, CA",816,811,821,821,4.039215686274514,11.2268803945746,16.0,51.0,"Fri, Feb 17, 2012","Tue, Feb 21, 2012"
4359,South Bend Regional,South Bend,United States,SBN,KSBN,41.708661,-86.31725,799,-5,A,"South Bend, IN",187,186,199,197,3.5935828877005354,16.29032258064517,19.0,91.0,"Wed, Feb 15, 2012","Fri, Feb 10, 2012"
5768,San Luis County Regional Airport,San Luis Obispo,United States,SBP,KSBP,35.2368,-120.642,212,-8,A,"San Luis Obispo, CA",383,381,390,390,3.323759791122715,11.073490813648293,14.0,63.0,"Tue, Feb 28, 2012","Fri, Feb 17, 2012"
3620,Deadhorse,Deadhorse,United States,SCC,PASC,70.19475,-148.465167,64,-9,A,"Deadhorse, AK",62,62,62,62,3.9193548387096775,6.612903225806452,8.0,23.0,"Thu, Feb 16, 2012","Fri, Feb 10, 2012"
4014,Louisville International Airport,Louisville,United States,SDF,KSDF,38.1740858,-85.7364989,501,-5,A,"Louisville, KY",1139,1139,1145,1146,5.384547848990344,13.621597892888499,37.0,88.0,"Wed, Feb 29, 2012","Fri, Feb 17, 2012"
3577,Seattle Tacoma International,Seattle,United States,SEA,KSEA,47.449,-122.309306,433,-8,A,"Seattle, WA",6986,6992,7008,7011,5.6261093615803075,14.388157894736842,44.0,123.0,"Sun, Feb 26, 2012","Fri, Feb 10, 2012"
3469,San Francisco International,San Francisco,United States,SFO,KSFO,37.618972,-122.374889,13,-8,A,"San Francisco, CA",12485,12514,12663,12669,6.8548658390067985,15.979383090938164,97.0,67.0,"Fri, Feb 17, 2012","Fri, Feb 17, 2012"
4348,Springfield Branson National,Springfield,United States,SGF,KSGF,37.245667,-93.388639,1268,-6,A,"Springfield, MO",559,557,571,573,4.364937388193198,13.703770197486534,18.0,55.0,"Thu, Feb  9, 2012","Mon, Feb 13, 2012"
4064,St. George Municipal,Saint George,United States,SGU,KSGU,37.090583,-113.593056,2941,-7,A,"St. George, UT",162,162,162,162,3.7160493827160495,11.697530864197534,6.0,69.0,"Mon, Feb 20, 2012","Thu, Feb 16, 2012"
3609,Shreveport Regional,Shreveport,United States,SHV,KSHV,32.446629,-93.8256,258,-6,A,"Shreveport, LA",419,417,421,421,4.6229116945107425,9.71942446043166,21.0,52.0,"Fri, Feb  3, 2012","Sat, Feb  4, 2012"
3856,Sitka Rocky Gutierrez,Sitka,United States,SIT,PASI,57.047138,-135.361611,21,-9,A,"Sitka, AK",85,84,87,87,4.164705882352938,12.023809523809522,8.0,54.0,"Fri, Feb 24, 2012","Thu, Feb 23, 2012"
3748,Norman Y. Mineta San Jose International,San Jose,United States,SJC,KSJC,37.3626,-121.929022,62,-8,A,"San Jose, CA",2888,2891,2919,2921,3.7112188365650987,10.591490833621567,36.0,112.0,"Sun, Feb 19, 2012","Thu, Feb  2, 2012"
3708,San Angelo Regional-Mathis Field,San Angelo,United States,SJT,KSJT,31.35775,-100.496306,1919,-6,A,"San Angelo, TX",108,108,112,112,2.9537037037037037,9.888888888888888,6.0,38.0,"Sun, Feb 12, 2012","Tue, Feb 21, 2012"
3536,Salt Lake City International,Salt Lake City,United States,SLC,KSLC,40.788389,-111.977772,4227,-7,A,"Salt Lake City, UT",8580,8622,8660,8660,5.945104895104889,17.71642310368826,46.0,149.0,"Wed, Feb 22, 2012","Wed, Feb 29, 2012"
3817,Sacramento International,Sacramento,United States,SMF,KSMF,38.695417,-121.590778,27,-8,A,"Sacramento, CA",3351,3350,3381,3380,4.527603700387932,10.598507462686593,55.0,67.0,"Sat, Feb 25, 2012","Wed, Feb  1, 2012"
5772,Santa Maria Public-Captain G. Allan Hancock Airport,Santa Maria,United States,SMX,KSMX,34.8989,-120.457,261,-8,A,"Santa Maria, CA",103,102,108,108,3.7184466019417477,11.519607843137255,7.0,54.0,"Sun, Feb  5, 2012","Fri, Feb 24, 2012"
3867,John Wayne Airport Orange County,Santa Ana,United States,SNA,KSNA,33.675667,-117.868222,56,-8,A,"Santa Ana, CA",3024,3023,3057,3058,5.334325396825391,11.388355937810113,37.0,68.0,"Thu, Feb 16, 2012","Fri, Feb 17, 2012"
4336,Abraham Lincoln Capital,Springfield,United States,SPI,KSPI,39.8441,-89.677889,597,-6,A,"Springfield, IL",156,157,164,164,3.9230769230769225,11.535031847133755,8.0,44.0,"Wed, Feb 29, 2012","Fri, Feb 24, 2012"
3680,Sheppard AFB Wichita Falls Municipal,Wichita Falls,United States,SPS,KSPS,33.988797,-98.491894,1019,-6,A,"Wichita Falls, TX",81,81,83,83,8.11111111111111,10.88888888888889,21.0,26.0,"Wed, Feb 15, 2012","Wed, Feb 15, 2012"
4067,Sarasota Bradenton International,Sarasota,United States,SRQ,KSRQ,27.395444,-82.554389,30,-5,A,"Sarasota/Bradenton, FL",529,528,530,530,4.049149338374298,11.179924242424246,12.0,55.0,"Tue, Feb 21, 2012","Mon, Feb 13, 2012"
3678,Lambert St. Louis International,St. Louis,United States,STL,KSTL,38.748697,-90.370028,618,-6,A,"St. Louis, MO",4240,4233,4272,4269,5.2075471698113205,11.338294353886129,85.0,80.0,"Sun, Feb 19, 2012","Sat, Feb  4, 2012"
6494,Friedman Memorial,Hailey,United States,SUN,KSUN,43.504444,-114.296194,5320,-7,A,"Sun Valley/Hailey/Ketchum, ID",126,123,150,151,3.238095238095238,10.569105691056913,9.0,80.0,"Sun, Feb 26, 2012","Sat, Feb 25, 2012"
3753,Sioux Gateway-Colonel Bud Day Field,Sioux City,United States,SUX,KSUX,42.402603,-96.384367,1098,-6,A,"Sioux City, IA",3,3,3,3,3.6666666666666665,12.333333333333334,4.0,20.0,"Sat, Feb  4, 2012","Sun, Feb  5, 2012"
3661,Stewart International,Newburgh,United States,SWF,KSWF,41.504094,-74.104839,491,-5,A,"Newburgh/Poughkeepsie, NY",127,127,127,127,4.637795275590551,14.740157480314961,13.0,82.0,"Fri, Feb 17, 2012","Fri, Feb 24, 2012"
3745,Syracuse Hancock International,Syracuse,United States,SYR,KSYR,43.111187,-76.106311,421,-5,A,"Syracuse, NY",490,486,492,492,4.355102040816332,18.393004115226326,41.0,96.0,"Tue, Feb  7, 2012","Mon, Feb 20, 2012"
3698,Tallahassee Regional,Tallahassee,United States,TLH,KTLH,30.396528,-84.350333,81,-5,A,"Tallahassee, FL",378,376,382,379,3.2248677248677255,13.287234042553191,22.0,41.0,"Thu, Feb  2, 2012","Tue, Feb 21, 2012"
4040,Toledo,Toledo,United States,TOL,KTOL,41.586806,-83.807833,684,-5,A,"Toledo, OH",24,24,25,25,2.541666666666667,10.958333333333334,4.0,23.0,"Thu, Feb  2, 2012","Fri, Feb 10, 2012"
3646,Tampa International,Tampa,United States,TPA,KTPA,27.975472,-82.53325,26,-5,A,"Tampa, FL",5523,5518,5536,5539,4.527973927213471,11.675969554186317,44.0,123.0,"Wed, Feb 29, 2012","Fri, Feb 24, 2012"
4116,Tri-Cities Regional Airport,BRISTOL,United States,TRI,KTRI,36.4752222,-82.4074167,1519,-5,A,"Bristol/Johnson City/Kingsport, TN",207,207,208,209,3.5893719806763285,14.318840579710145,8.0,55.0,"Fri, Feb 24, 2012","Tue, Feb  7, 2012"
3855,Tulsa International,Tulsa,United States,TUL,KTUL,36.198389,-95.888111,677,-6,A,"Tulsa, OK",1320,1323,1339,1338,4.415909090909089,11.24716553287982,49.0,107.0,"Wed, Feb 22, 2012","Fri, Feb 24, 2012"
3636,Tucson International,Tucson,United States,TUS,KTUS,32.116083,-110.941028,2643,-7,N,"Tucson, AZ",1896,1896,1902,1902,4.349156118143464,11.135548523206763,34.0,59.0,"Sat, Feb 18, 2012","Fri, Feb 10, 2012"
4023,Cherry Capital Airport,Traverse City,United States,TVC,KTVC,44.741445,-85.582235,624,-5,A,"Traverse City, MI",125,125,129,131,3.176,15.504,9.0,98.0,"Fri, Feb 10, 2012","Sat, Feb 18, 2012"
4263,Magic Valley Regional Airport,Twin Falls,United States,TWF,KTWF,42.481803,-114.487733,4151,-7,A,"Twin Falls, ID",88,88,88,88,3.386363636363637,10.659090909090907,7.0,28.0,"Mon, Feb  6, 2012","Tue, Feb 14, 2012"
3770,Texarkana Regional-Webb Field,Texarkana,United States,TXK,KTXK,33.453722,-93.991028,390,-6,A,"Texarkana, AR",83,83,83,83,3.3012048192771086,8.590361445783135,8.0,22.0,"Wed, Feb 15, 2012","Mon, Feb 13, 2012"
3848,Tyler Pounds Regional,Tyler,United States,TYR,KTYR,32.354139,-95.402386,544,-6,A,"Tyler, TX",105,104,107,107,4.6,9.144230769230772,12.0,26.0,"Fri, Feb  3, 2012","Mon, Feb 13, 2012"
3676,McGhee Tyson,Knoxville,United States,TYS,KTYS,35.810972,-83.994028,981,-5,A,"Knoxville, TN",759,751,766,759,3.8208168642951246,13.949400798934754,25.0,68.0,"Fri, Feb 17, 2012","Fri, Feb 24, 2012"
5776,Valdosta Regional Airport,Valdosta,United States,VLD,KVLD,30.7825,-83.2767,203,-5,A,"Valdosta, GA",82,82,82,82,3.7439024390243905,12.682926829268295,8.0,63.0,"Fri, Feb 24, 2012","Fri, Feb 24, 2012"
3873,Eglin AFB,Valparaiso,United States,VPS,KVPS,30.48325,-86.5254,87,-6,A,"Valparaiso, FL",382,383,388,388,6.528795811518324,14.313315926892951,20.0,83.0,"Wed, Feb  8, 2012","Sat, Feb  4, 2012"
5969,Wrangell Airport,Wrangell,United States,WRG,PAWG,56.4843,-132.37,44,-9,A,"Wrangell, AK",56,56,58,58,3.7857142857142856,7.982142857142855,6.0,24.0,"Mon, Feb 27, 2012","Mon, Feb 27, 2012"
4356,NW Arkansas Regional,Bentonville,United States,XNA,KXNA,36.2818694,-94.3068111,1287,-6,A,"Fayetteville, AR",890,889,906,906,4.17078651685392,12.470191226096738,33.0,57.0,"Fri, Feb  3, 2012","Mon, Feb 13, 2012"
6803,Yakutat,Yakutat,United States,YAK,PAYA,59.3012,-139.3937,33,-9,A,"Yakutat, AK",56,57,58,58,4.089285714285714,7.333333333333333,7.0,33.0,"Sat, Feb 11, 2012","Mon, Feb 20, 2012"
3596,Yuma MCAS Yuma International,Yuma,United States,YUM,KYUM,32.656578,-114.60598,216,-7,N,"Yuma, AZ",285,285,286,286,3.8771929824561426,12.035087719298245,9.0,36.0,"Sat, Feb  4, 2012","Tue, Feb 28, 2012"
