airport_id,name,city,country,iata_faa,iaco,latitude,longitude,altitude,zone,dst,city_state,avg_able_landings,avg_able_takeoffs,total_landings,total_takeoffs,avg_taxi_in,avg_taxi_out,longest_taxi_in,longest_taxi_out,lng_tx_in_date,lng_tx_out_date
4355,Lehigh Valley International,Allentown,United States,ABE,KABE,40.652083,-75.440806,393,-5,A,"Allentown/Bethlehem/Easton, PA",77,78,80,80,3.155844155844157,12.717948717948719,6.0,63.0,"Mon, Jul 14, 2014","Wed, Jul 23, 2014"
3718,Abilene Regional,Abilene,United States,ABI,KABI,32.411319,-99.681897,1791,-6,A,"Abilene, TX",231,230,238,238,4.207792207792203,9.013043478260869,101.0,32.0,"Tue, Jul 29, 2014","Thu, Jul 17, 2014"
4019,Albuquerque International Sunport,Albuquerque,United States,ABQ,KABQ,35.0402222,-106.6091944,5355,-7,A,"Albuquerque, NM",2434,2430,2458,2459,6.0012325390303936,11.02633744855965,55.0,119.0,"Tue, Jul 29, 2014","Mon, Jul 14, 2014"
5714,Aberdeen Regional Airport,Aberdeen,United States,ABR,KABR,45.4491,-98.4218,1302,-6,A,"Aberdeen, SD",59,59,62,62,4.508474576271188,9.474576271186441,9.0,20.0,"Thu, Jul 17, 2014","Tue, Jul 22, 2014"
5715,Southwest Georgia Regional Airport,Albany,United States,ABY,KABY,31.5355,-84.1945,197,-5,A,"Albany, GA",86,86,86,86,3.186046511627907,10.941860465116278,7.0,47.0,"Sun, Jul 20, 2014","Tue, Jul 15, 2014"
3517,Nantucket Memorial,Nantucket,United States,ACK,KACK,41.253053,-70.060181,48,-5,A,"Nantucket, MA",104,104,105,105,5.576923076923078,15.0,41.0,64.0,"Sat, Jul 19, 2014","Sun, Jul 13, 2014"
3700,Waco Regional,Waco,United States,ACT,KACT,31.611289,-97.230519,516,-6,A,"Waco, TX",139,139,146,146,3.3597122302158278,8.424460431654676,8.0,14.0,"Mon, Jul  7, 2014","Sun, Jul 13, 2014"
4384,Arcata,Arcata CA,United States,ACV,KACV,40.978111,-124.108611,221,-8,A,"Arcata/Eureka, CA",227,229,260,260,4.471365638766522,13.253275109170305,11.0,53.0,"Sat, Jul 26, 2014","Thu, Jul 17, 2014"
3524,Atlantic City International,Atlantic City,United States,ACY,KACY,39.457583,-74.577167,75,-5,A,"Atlantic City, NJ",60,60,62,62,4.683333333333335,12.916666666666666,8.0,35.0,"Sun, Jul  6, 2014","Tue, Jul 29, 2014"
5959,Adak Airport,Adak Island,United States,ADK,PADK,51.878,-176.646,18,-10,A,"Adak Island, AK",8,8,9,9,4.5,6.5,5.0,10.0,"Thu, Jul  3, 2014","Sun, Jul 20, 2014"
3531,Kodiak,Kodiak,United States,ADQ,PADQ,57.749967,-152.493856,78,-9,A,"Kodiak, AK",55,56,58,58,3.2181818181818183,7.089285714285714,8.0,18.0,"Wed, Jul  9, 2014","Wed, Jul 30, 2014"
3852,Alexandria International,Alexandria,United States,AEX,KAEX,31.3274,-92.549833,89,-6,A,"Alexandria, LA",297,297,302,302,3.329966329966331,11.62962962962963,18.0,65.0,"Tue, Jul 22, 2014","Tue, Jul 15, 2014"
3658,Augusta Regional At Bush Field,Bush Field,United States,AGS,KAGS,33.369944,-81.9645,144,-5,A,"Augusta, GA",225,224,228,227,3.706666666666666,14.276785714285714,17.0,51.0,"Wed, Jul 23, 2014","Thu, Jul 31, 2014"
3794,King Salmon,King Salmon,United States,AKN,PAKN,58.676778,-156.649278,68,-9,A,"King Salmon, AK",31,31,31,31,3.225806451612903,8.35483870967742,6.0,24.0,"Mon, Jul 14, 2014","Wed, Jul 16, 2014"
3864,Albany International,Albany,United States,ALB,KALB,42.748267,-73.801692,285,-5,A,"Albany, NY",758,757,766,767,4.422163588390502,12.67767503302509,40.0,90.0,"Sat, Jul 12, 2014","Tue, Jul  8, 2014"
5718,Waterloo Regional Airport,Waterloo,United States,ALO,KALO,42.5571,-92.4003,873,-6,A,"Waterloo, IA",57,56,57,57,6.12280701754386,13.25,11.0,61.0,"Wed, Jul 30, 2014","Thu, Jul  3, 2014"
3840,Rick Husband Amarillo International,Amarillo,United States,AMA,KAMA,35.219369,-101.705931,3607,-6,A,"Amarillo, TX",615,615,632,632,4.258536585365853,9.494308943089436,18.0,48.0,"Thu, Jul 10, 2014","Thu, Jul 10, 2014"
3774,Ted Stevens Anchorage International,Anchorage,United States,ANC,PANC,61.174361,-149.996361,152,-9,A,"Anchorage, AK",1905,1912,1917,1916,4.71338582677165,12.26516736401674,36.0,41.0,"Sat, Jul 26, 2014","Fri, Jul 18, 2014"
5720,Alpena County Regional Airport,Alpena,United States,APN,KAPN,45.0781,-83.5603,689,-5,A,"Alpena, MI",54,54,54,54,5.314814814814815,12.83333333333333,13.0,37.0,"Tue, Jul 29, 2014","Sun, Jul  6, 2014"
7001,Aspen/Pitkin County-Sardy Field,Aspen,United States,ASE,KASE,39.2232,-106.869,7820,-7,A,"Aspen, CO",360,358,378,378,3.45,11.575418994413402,15.0,53.0,"Sat, Jul 12, 2014","Sun, Jul 20, 2014"
3682,Hartsfield Jackson Atlanta International,Atlanta,United States,ATL,KATL,33.636719,-84.428067,1026,-5,A,"Atlanta, GA",31647,31670,31798,31808,9.163491010206336,17.595737290811208,101.0,128.0,"Thu, Jul 24, 2014","Thu, Jul  3, 2014"
4047,Appleton,Appleton,United States,ATW,KATW,44.257526,-88.507576,680,-6,A,"Appleton, WI",179,177,182,181,4.268156424581008,12.587570621468924,17.0,74.0,"Tue, Jul  8, 2014","Thu, Jul 17, 2014"
3673,Austin Bergstrom International,Austin,United States,AUS,KAUS,30.194528,-97.669889,542,-6,A,"Austin, TX",3893,3888,3924,3923,5.913691240688411,11.647633744855977,65.0,128.0,"Tue, Jul 15, 2014","Thu, Jul 17, 2014"
4007,Asheville Regional Airport,Asheville,United States,AVL,KAVL,35.436194,-82.541806,2165,-5,A,"Asheville, NC",364,361,370,369,3.623626373626371,14.98337950138504,15.0,85.0,"Thu, Jul 24, 2014","Thu, Jul 24, 2014"
4286,Wilkes Barre Scranton International,Scranton,United States,AVP,KAVP,41.338478,-75.723403,962,-5,A,"Scranton/Wilkes-Barre, PA",160,161,165,165,3.1875000000000004,13.130434782608695,5.0,73.0,"Tue, Jul 15, 2014","Fri, Jul 18, 2014"
4039,Kalamazoo,Kalamazoo,United States,AZO,KAZO,42.234875,-85.552058,874,-5,A,"Kalamazoo, MI",276,274,281,279,3.2753623188405796,12.186131386861309,11.0,54.0,"Sat, Jul 12, 2014","Thu, Jul 17, 2014"
3825,Bradley International,Windsor Locks,United States,BDL,KBDL,41.938889,-72.683222,173,-5,A,"Hartford, CT",1922,1924,1939,1939,4.967741935483871,14.117463617463617,26.0,113.0,"Thu, Jul 24, 2014","Wed, Jul  2, 2014"
3599,Bethel,Bethel,United States,BET,PABE,60.779778,-161.838,121,-9,A,"Bethel, AK",84,84,85,85,3.5952380952380953,6.1785714285714315,6.0,20.0,"Mon, Jul 14, 2014","Mon, Jul 14, 2014"
3558,Meadows Field,Bakersfield,United States,BFL,KBFL,35.433598,-119.05677,507,-8,A,"Bakersfield, CA",312,311,321,321,4.3653846153846185,13.29903536977492,9.0,40.0,"Tue, Jul 15, 2014","Tue, Jul  1, 2014"
3463,Bangor International,Bangor,United States,BGR,KBGR,44.807444,-68.828139,192,-5,A,"Bangor, ME",109,110,112,111,3.7155963302752295,12.154545454545456,12.0,23.0,"Thu, Jul 10, 2014","Thu, Jul 17, 2014"
3811,Birmingham International,Birmingham,United States,BHM,KBHM,33.562942,-86.75355,644,-6,A,"Birmingham, AL",1227,1227,1237,1237,4.400977995110028,12.850040749796259,48.0,88.0,"Fri, Jul 11, 2014","Sat, Jul 12, 2014"
4021,Billings Logan International Airport,Billings,United States,BIL,KBIL,45.80921,-108.537654,3652,-7,A,"Billings, MT",293,292,295,294,4.324232081911265,10.578767123287678,18.0,30.0,"Fri, Jul 11, 2014","Mon, Jul 28, 2014"
4083,Bismarck Municipal Airport,Bismarck,United States,BIS,KBIS,46.775842,-100.757931,1661,-6,A,"Bismarck/Mandan, ND",238,236,243,243,4.336134453781514,10.593220338983047,15.0,45.0,"Sat, Jul  5, 2014","Wed, Jul  9, 2014"
4287,Bemidji Regional Airport,Bemidji,United States,BJI,KBJI,47.510722,-94.934722,1391,-6,A,"Bemidji, MN",60,59,62,62,5.083333333333334,9.983050847457626,19.0,27.0,"Sun, Jul 20, 2014","Mon, Jul 14, 2014"
6962,Branson LLC,Branson,United States,BKG,KBBG,36.531994,-93.200556,1302,-6,A,"Branson, MO",31,31,31,31,5.612903225806452,9.516129032258062,8.0,17.0,"Sat, Jul 26, 2014","Fri, Jul 11, 2014"
3777,Bellingham International,Bellingham,United States,BLI,KBLI,48.792694,-122.537528,170,-8,A,"Bellingham, WA",59,57,59,58,4.983050847457627,11.315789473684209,17.0,28.0,"Sun, Jul 20, 2014","Sun, Jul 27, 2014"
4037,Central Illinois Regional,Bloomington,United States,BMI,KBMI,40.477111,-88.915917,871,-6,A,"Bloomington/Normal, IL",251,251,253,253,3.804780876494024,9.996015936254985,14.0,75.0,"Fri, Jul 18, 2014","Tue, Jul  8, 2014"
3690,Nashville International,Nashville,United States,BNA,KBNA,36.124472,-86.678194,599,-6,A,"Nashville, TN",4774,4773,4862,4862,6.470465018852116,12.17410433689504,46.0,78.0,"Sun, Jul 27, 2014","Thu, Jul  3, 2014"
3495,Boise Air Terminal,Boise,United States,BOI,KBOI,43.564361,-116.222861,2871,-7,A,"Boise, ID",1040,1037,1043,1043,5.286538461538463,12.329797492767602,16.0,76.0,"Thu, Jul 10, 2014","Wed, Jul 23, 2014"
3448,General Edward Lawrence Logan International,Boston,United States,BOS,KBOS,42.364347,-71.005181,19,-5,A,"Boston, MA",9917,9912,10098,10097,6.684682867802758,21.336864406779636,45.0,161.0,"Sat, Jul  5, 2014","Thu, Jul  3, 2014"
3612,Southeast Texas Regional,Beaumont,United States,BPT,KBPT,29.950833,-94.020694,15,-6,A,"Beaumont/Port Arthur, TX",89,88,93,93,4.078651685393259,11.079545454545455,18.0,57.0,"Fri, Jul 18, 2014","Mon, Jul 14, 2014"
5725,Brunswick Golden Isles Airport,Brunswick,United States,BQK,KBQK,31.2588,-81.4665,26,-5,A,"Brunswick, GA",84,84,86,86,3.5595238095238093,16.726190476190474,30.0,53.0,"Mon, Jul  7, 2014","Fri, Jul 11, 2014"
6957,Brainerd Lakes Regional,Brainerd,United States,BRD,KBRD,46.398308,-94.138078,1226,-6,U,"Brainerd, MN",85,84,85,85,5.588235294117647,13.166666666666666,10.0,56.0,"Wed, Jul 23, 2014","Fri, Jul 11, 2014"
3738,Brownsville South Padre Island International,Brownsville,United States,BRO,KBRO,25.906833,-97.425861,22,-6,A,"Brownsville, TX",202,202,208,208,4.75742574257426,11.851485148514852,31.0,24.0,"Fri, Jul 18, 2014","Thu, Jul 10, 2014"
3571,Wiley Post Will Rogers Memorial,Barrow,United States,BRW,PABR,71.285446,-156.766003,44,-9,A,"Barrow, AK",72,72,79,79,4.083333333333332,6.805555555555555,8.0,22.0,"Tue, Jul 29, 2014","Fri, Jul 18, 2014"
4022,Bert Mooney Airport,Butte,United States,BTM,KBTM,45.954806,-112.497472,5550,-7,A,"Butte, MT",83,83,83,83,4.16867469879518,9.168674698795183,7.0,25.0,"Sat, Jul 12, 2014","Thu, Jul 10, 2014"
3846,Baton Rouge Metro-Ryan Field,Baton Rouge,United States,BTR,KBTR,30.533167,-91.149639,70,-6,A,"Baton Rouge, LA",691,686,709,708,5.082489146164981,12.49854227405248,40.0,51.0,"Mon, Jul 28, 2014","Mon, Jul 14, 2014"
3711,Burlington International,Burlington,United States,BTV,KBTV,44.471861,-73.153278,335,-5,A,"Burlington, VT",365,362,381,384,4.761643835616439,15.044198895027629,36.0,54.0,"Tue, Jul  1, 2014","Tue, Jul  1, 2014"
3820,Buffalo Niagara International,Buffalo,United States,BUF,KBUF,42.940525,-78.732167,724,-5,A,"Buffalo, NY",1536,1536,1564,1563,3.902994791666668,11.27604166666667,48.0,62.0,"Thu, Jul  3, 2014","Tue, Jul 29, 2014"
3644,Bob Hope,Burbank,United States,BUR,KBUR,34.200667,-118.358667,778,-8,A,"Burbank, CA",1831,1830,1886,1886,2.933369743309668,11.669945355191262,33.0,74.0,"Sun, Jul 27, 2014","Wed, Jul 30, 2014"
3849,Baltimore Washington International,Baltimore,United States,BWI,KBWI,39.175361,-76.668333,146,-5,A,"Baltimore, MD",8080,8073,8173,8175,6.492698019801977,13.750402576489527,78.0,134.0,"Tue, Jul 15, 2014","Tue, Jul  8, 2014"
4020,Gallatin Field,Bozeman,United States,BZN,KBZN,45.777643,-111.160151,4500,-7,A,"Bozeman, MT",549,547,555,553,5.320582877959924,13.502742230347348,34.0,92.0,"Tue, Jul 29, 2014","Wed, Jul 16, 2014"
3561,Columbia Metropolitan,Colombia,United States,CAE,KCAE,33.938833,-81.119528,236,-5,A,"Columbia, SC",595,596,615,616,3.9680672268907546,13.60067114093959,12.0,61.0,"Wed, Jul  2, 2014","Wed, Jul 16, 2014"
4112,Akron Canton Regional Airport,Akron,United States,CAK,KCAK,40.9160833,-81.4421944,1228,-5,A,"Akron, OH",612,611,616,616,4.647058823529409,10.806873977086743,25.0,49.0,"Sat, Jul 26, 2014","Thu, Jul 24, 2014"
3824,Cedar City Regional,Cedar City,United States,CDC,KCDC,37.700967,-113.098847,5622,-7,A,"Cedar City, UT",54,54,54,54,3.9999999999999996,14.407407407407407,7.0,106.0,"Sun, Jul 13, 2014","Tue, Jul 15, 2014"
3610,Merle K. Mudhole Smith,Cordova,United States,CDV,PACV,60.491778,-145.477556,48,-9,A,"Cordova, AK",62,62,62,62,3.629032258064516,8.032258064516128,5.0,16.0,"Thu, Jul  3, 2014","Sat, Jul 12, 2014"
5727,Del Norte County Airport,Crescent City,United States,CEC,KCEC,41.7802,-124.237,57,-8,A,"Crescent City, CA",74,73,85,84,3.891891891891892,14.73972602739726,9.0,69.0,"Mon, Jul  7, 2014","Wed, Jul 30, 2014"
3578,Lovell Field,Chattanooga,United States,CHA,KCHA,35.035278,-85.203808,683,-5,A,"Chattanooga, TN",282,286,288,290,3.978723404255319,12.954545454545459,26.0,53.0,"Mon, Jul 14, 2014","Fri, Jul 11, 2014"
4015,Charlottesville-Albemarle,Charlottesville VA,United States,CHO,KCHO,38.138639,-78.452861,639,-5,A,"Charlottesville, VA",176,173,177,177,3.6079545454545454,12.271676300578036,9.0,60.0,"Thu, Jul 31, 2014","Thu, Jul 10, 2014"
3806,Charleston AFB International,Charleston,United States,CHS,KCHS,32.898647,-80.040528,45,-5,A,"Charleston, SC",1258,1257,1300,1301,6.0699523052464235,14.201272871917258,42.0,97.0,"Sun, Jul 20, 2014","Thu, Jul  3, 2014"
3710,Chico Municipal,Chico,United States,CIC,KCIC,39.795383,-121.858422,238,-8,A,"Chico, CA",77,78,92,92,3.9220779220779223,12.37179487179487,6.0,39.0,"Sat, Jul 19, 2014","Wed, Jul 16, 2014"
4043,Cedar Rapids,Cedar Rapids,United States,CID,KCID,41.884694,-91.710806,869,-6,A,"Cedar Rapids/Iowa City, IA",546,545,557,558,5.3791208791208796,11.355963302752297,30.0,49.0,"Wed, Jul 23, 2014","Thu, Jul  3, 2014"
5729,Chippewa County International Airport,Sault Ste. Marie,United States,CIU,KCIU,46.2508,-84.4724,800,-5,A,"Sault Ste. Marie, MI",54,53,58,58,5.037037037037038,17.56603773584905,15.0,31.0,"Fri, Jul 25, 2014","Wed, Jul  9, 2014"
4088,McClellan-Palomar Airport,Carlsbad,United States,CLD,KCRQ,33.0742,-117.1648,328,-8,A,"Carlsbad, CA",233,233,233,233,4.1545064377682435,11.965665236051507,7.0,33.0,"Wed, Jul  2, 2014","Tue, Jul 15, 2014"
3486,Cleveland Hopkins International,Cleveland,United States,CLE,KCLE,41.411689,-81.849794,791,-5,A,"Cleveland, OH",2933,2939,2996,2997,5.960450051142168,12.593058863559033,94.0,86.0,"Wed, Jul  2, 2014","Sun, Jul 27, 2014"
3715,Easterwood Field,College Station,United States,CLL,KCLL,30.588583,-96.363833,321,-6,A,"College Station/Bryan, TX",226,224,237,237,4.300884955752213,7.571428571428571,14.0,27.0,"Fri, Jul 11, 2014","Mon, Jul 14, 2014"
3876,Charlotte Douglas International,Charlotte,United States,CLT,KCLT,35.214,-80.943139,748,-5,A,"Charlotte, NC",9077,9092,9213,9210,10.111600749146145,18.737571491420965,98.0,102.0,"Thu, Jul  3, 2014","Sat, Jul 12, 2014"
3759,Port Columbus International,Columbus,United States,CMH,KCMH,39.997972,-82.891889,815,-5,A,"Columbus, OH",2389,2376,2437,2439,6.003348681456676,11.807659932659927,76.0,65.0,"Tue, Jul  1, 2014","Wed, Jul 23, 2014"
4049,Champaign,Champaign,United States,CMI,KCMI,40.03925,-88.278056,754,-6,A,"Champaign/Urbana, IL",208,207,211,211,4.009615384615383,10.222222222222213,13.0,62.0,"Sun, Jul 20, 2014","Tue, Jul  8, 2014"
5732,Houghton County Memorial Airport,Hancock,United States,CMX,KCMX,47.1684,-88.4891,1095,-5,A,"Hancock/Houghton, MI",60,60,62,62,4.300000000000001,13.4,6.0,30.0,"Thu, Jul 31, 2014","Sun, Jul 27, 2014"
7074,Canyonlands Field,Moab,United States,CNY,KCNY,38.755,-109.754722,4555,-7,A,"Moab, UT",52,52,52,52,4.557692307692308,9.307692307692305,8.0,19.0,"Thu, Jul  3, 2014","Sun, Jul 13, 2014"
4344,Yellowstone Regional,Cody,United States,COD,KCOD,44.520194,-109.023806,5102,-7,A,"Cody, WY",101,101,102,102,4.485148514851486,14.851485148514852,6.0,29.0,"Mon, Jul  7, 2014","Sun, Jul 13, 2014"
3819,City Of Colorado Springs Municipal,Colorado Springs,United States,COS,KCOS,38.805805,-104.700778,6187,-7,A,"Colorado Springs, CO",822,823,842,844,6.210462287104625,16.185905224787383,101.0,60.0,"Tue, Jul 29, 2014","Sat, Jul 19, 2014"
3719,Columbia Regional,Columbia,United States,COU,KCOU,38.818094,-92.219631,889,-6,A,"Columbia, MO",122,120,124,124,3.5163934426229506,12.35,15.0,46.0,"Sat, Jul 19, 2014","Wed, Jul 23, 2014"
3872,Natrona County International,Casper,United States,CPR,KCPR,42.908,-106.464417,5347,-7,A,"Casper, WY",195,194,203,204,4.502564102564102,11.618556701030924,8.0,62.0,"Sat, Jul  5, 2014","Wed, Jul  9, 2014"
3744,Corpus Christi International,Corpus Christi,United States,CRP,KCRP,27.770361,-97.501222,44,-6,A,"Corpus Christi, TX",584,583,601,601,4.520547945205481,11.262435677530016,31.0,65.0,"Sun, Jul  6, 2014","Sun, Jul  6, 2014"
4285,Yeager,Charleston,United States,CRW,KCRW,38.373147,-81.593189,981,-5,A,"Charleston/Dunbar, WV",302,302,311,311,3.3079470198675502,12.37748344370861,19.0,57.0,"Sat, Jul 26, 2014","Wed, Jul 30, 2014"
4255,Columbus Metropolitan Airport,Columbus,United States,CSG,KCSG,32.5163333,-84.9388611,397,-5,A,"Columbus, GA",116,116,116,116,2.8620689655172415,10.379310344827585,6.0,34.0,"Sat, Jul 26, 2014","Tue, Jul 15, 2014"
3488,Cincinnati Northern Kentucky International,Cincinnati,United States,CVG,KCVG,39.048836,-84.667822,896,-5,A,"Cincinnati, OH",1822,1809,1859,1858,6.404500548847427,13.249861802100616,84.0,72.0,"Tue, Jul  1, 2014","Mon, Jul  7, 2014"
4045,Central Wisconsin,Wassau,United States,CWA,KCWA,44.772726,-89.646635,840,-6,A,"Mosinee, WI",119,119,120,120,3.3361344537815127,10.100840336134455,31.0,24.0,"Wed, Jul 16, 2014","Tue, Jul 29, 2014"
3950,Daytona Beach International,Daytona Beach,United States,DAB,KDAB,29.179917,-81.058056,34,-5,A,"Daytona Beach, FL",152,152,152,152,4.085526315789473,14.796052631578947,11.0,50.0,"Fri, Jul 25, 2014","Mon, Jul 14, 2014"
3502,Dallas Love Field,Dallas,United States,DAL,KDAL,32.847111,-96.851778,487,-6,A,"Dallas, TX",3869,3870,3930,3931,5.312225381235446,10.789405684754518,28.0,101.0,"Mon, Jul 28, 2014","Thu, Jul 17, 2014"
3627,James M. Cox Dayton International,Dayton,United States,DAY,KDAY,39.902375,-84.219375,1009,-5,A,"Dayton, OH",887,877,911,910,5.759864712514092,12.971493728620297,38.0,86.0,"Wed, Jul  9, 2014","Wed, Jul 23, 2014"
4388,Dubuque Regional,Dubuque IA,United States,DBQ,KDBQ,42.402,-90.709472,1076,-6,A,"Dubuque, IA",84,82,84,84,4.130952380952383,12.195121951219514,7.0,60.0,"Fri, Jul 11, 2014","Thu, Jul  3, 2014"
3520,Ronald Reagan Washington National,Washington,United States,DCA,KDCA,38.852083,-77.037722,15,-5,A,"Washington, DC",5820,5813,5996,5998,5.6316151202749065,18.691725442972675,59.0,156.0,"Thu, Jul 10, 2014","Tue, Jul  8, 2014"
3751,Denver International,Denver,United States,DEN,KDEN,39.861656,-104.673178,5431,-7,A,"Denver, CO",20522,20557,20773,20788,8.270587662021185,15.032786885245907,108.0,110.0,"Fri, Jul 11, 2014","Wed, Jul 16, 2014"
3670,Dallas Fort Worth International,Dallas-fort Worth,United States,DFW,KDFW,32.896828,-97.037997,607,-6,A,"Dallas/Fort Worth, TX",23865,23916,24466,24464,11.168698931489605,15.06167419300887,112.0,127.0,"Mon, Jul 14, 2014","Thu, Jul 17, 2014"
3739,Dothan Regional,Dothan,United States,DHN,KDHN,31.321339,-85.449628,401,-6,A,"Dothan, AL",115,115,116,116,3.234782608695652,13.530434782608696,7.0,48.0,"Tue, Jul  8, 2014","Sun, Jul  6, 2014"
7064,Dickinson Theodore Roosevelt Regional Airport,Dickinson,United States,DIK,KDIK,46.7975,-102.801944,2592,-5,A,"Dickinson, ND",153,154,159,159,5.61437908496732,15.941558441558447,36.0,116.0,"Fri, Jul 18, 2014","Fri, Jul 11, 2014"
3460,Dillingham,Dillingham,United States,DLG,PADL,59.044667,-158.5055,74,-9,A,"Dillingham, AK",31,31,31,31,4.35483870967742,11.0,6.0,35.0,"Sun, Jul 13, 2014","Fri, Jul  4, 2014"
3598,Duluth International,Duluth,United States,DLH,KDLH,46.842091,-92.193649,1428,-6,A,"Duluth, MN",162,162,165,165,6.950617283950617,11.679012345679014,28.0,39.0,"Sun, Jul  6, 2014","Wed, Jul 16, 2014"
3713,Durango La Plata County,Durango,United States,DRO,KDRO,37.151516,-107.75377,6685,-7,A,"Durango, CO",218,216,227,226,4.7660550458715605,12.51388888888889,11.0,90.0,"Sun, Jul  6, 2014","Sun, Jul 20, 2014"
3729,Des Moines International,Des Moines,United States,DSM,KDSM,41.533972,-93.663083,958,-6,A,"Des Moines, IA",844,847,861,861,6.471563981042653,12.58677685950413,42.0,116.0,"Sat, Jul  5, 2014","Fri, Jul 11, 2014"
3645,Detroit Metro Wayne County,Detroit,United States,DTW,KDTW,42.212444,-83.353389,645,-5,A,"Detroit, MI",9561,9569,9693,9697,7.589164313356348,16.94231372139203,61.0,165.0,"Tue, Jul 22, 2014","Sun, Jul 27, 2014"
7063,Devils Lake Regional Airport,Devils Lake,United States,DVL,KDVL,48.114444,-98.908611,1445,-6,A,"Devils Lake, ND",49,49,49,49,5.510204081632653,12.04081632653061,8.0,22.0,"Mon, Jul 21, 2014","Thu, Jul 31, 2014"
5735,Chippewa Valley Regional Airport,Eau Claire,United States,EAU,KEAU,44.8658,-91.4843,913,-6,A,"Eau Claire, WI",61,61,62,62,4.131147540983603,12.721311475409836,19.0,21.0,"Sat, Jul 12, 2014","Tue, Jul  8, 2014"
7669,Northwest Florida Beaches International,Panama City,United States,ECP,KECP,30.3417,-85.7973,69,-6,A,"Panama City, FL",411,411,411,411,4.021897810218977,12.126520681265207,56.0,92.0,"Sat, Jul 26, 2014","Mon, Jul 14, 2014"
4250,Eagle County Regional,Vail,United States,EGE,KEGE,39.642556,-106.917694,6540,-7,A,"Eagle, CO",48,47,48,47,4.791666666666667,12.5531914893617,7.0,22.0,"Thu, Jul 31, 2014","Sun, Jul 20, 2014"
5736,Elko Regional Airport,Elko,United States,EKO,KEKO,40.8249,-115.792,5140,-8,A,"Elko, NV",82,82,82,82,5.365853658536585,10.695121951219514,17.0,33.0,"Tue, Jul  8, 2014","Thu, Jul 31, 2014"
3946,Elmira Corning Regional,Elmira,United States,ELM,KELM,42.159889,-76.891611,954,-5,A,"Elmira/Corning, NY",173,175,177,178,3.8265895953757227,12.228571428571433,9.0,65.0,"Fri, Jul  4, 2014","Mon, Jul  7, 2014"
3559,El Paso International,El Paso,United States,ELP,KELP,31.80725,-106.377583,3958,-7,A,"El Paso, TX",1615,1619,1636,1636,4.108978328173376,12.35021618282891,29.0,128.0,"Mon, Jul 21, 2014","Mon, Jul 14, 2014"
4276,Erie International-Tom Ridge Field,Erie,United States,ERI,KERI,42.082022,-80.176217,733,-5,A,"Erie, PA",60,60,62,62,3.4,12.25,7.0,33.0,"Mon, Jul 28, 2014","Tue, Jul  8, 2014"
4099,Mahlon Sweet Field,Eugene,United States,EUG,KEUG,44.124583,-123.211972,374,-8,A,"Eugene, OR",489,486,499,499,4.296523517382411,12.205761316872417,21.0,45.0,"Mon, Jul 21, 2014","Thu, Jul 17, 2014"
4018,Evansville Regional,Evansville,United States,EVV,KEVV,38.036997,-87.532364,418,-6,A,"Evansville, IN",286,286,293,293,3.884615384615383,14.073426573426575,11.0,44.0,"Thu, Jul 10, 2014","Thu, Jul 17, 2014"
3730,Craven County Regional,New Bern,United States,EWN,KEWN,35.072972,-77.042944,18,-5,A,"New Bern/Morehead/Beaufort, NC",89,89,92,91,2.943820224719101,8.629213483146065,7.0,22.0,"Tue, Jul 22, 2014","Wed, Jul 30, 2014"
3494,Newark Liberty International,Newark,United States,EWR,KEWR,40.6925,-74.168667,18,-5,A,"Newark, NJ",9359,9475,9847,9904,9.112939416604338,22.356306068601594,71.0,162.0,"Mon, Jul 14, 2014","Mon, Jul 14, 2014"
3875,Key West International,Key West,United States,EYW,KEYW,24.556111,-81.759556,3,-5,A,"Key West, FL",250,250,251,251,3.46,9.216000000000005,9.0,63.0,"Wed, Jul 16, 2014","Mon, Jul 21, 2014"
3832,Fairbanks International,Fairbanks,United States,FAI,PAFA,64.815114,-147.856267,434,-9,A,"Fairbanks, AK",298,300,301,300,3.906040268456375,10.856666666666667,11.0,42.0,"Wed, Jul  2, 2014","Wed, Jul 23, 2014"
4292,Hector International Airport,Fargo,United States,FAR,KFAR,46.92065,-96.8157639,902,-6,A,"Fargo, ND",423,420,425,426,5.139479905437352,13.104761904761906,53.0,58.0,"Sat, Jul  5, 2014","Fri, Jul 11, 2014"
3687,Fresno Yosemite International,Fresno,United States,FAT,KFAT,36.776194,-119.71814,336,-8,A,"Fresno, CA",955,956,971,971,4.782198952879578,13.145397489539754,24.0,64.0,"Tue, Jul  1, 2014","Sat, Jul 26, 2014"
5738,Fayetteville Regional-Grannis Field,Fayetteville,United States,FAY,KFAY,34.9912,-78.8803,189,-5,A,"Fayetteville, NC",169,169,169,169,4.153846153846154,13.999999999999996,9.0,75.0,"Thu, Jul  3, 2014","Sat, Jul 12, 2014"
4127,Glacier Park International,Kalispell,United States,FCA,KFCA,48.310472,-114.256,2977,-7,A,"Kalispell, MT",377,378,379,378,4.509283819628646,14.526455026455027,22.0,51.0,"Wed, Jul  2, 2014","Fri, Jul 11, 2014"
4261,Flagstaff Pulliam Airport,Flagstaff,United States,FLG,KFLG,35.140318,-111.6692392,7015,-7,N,"Flagstaff, AZ",171,171,180,180,4.076023391812863,12.871345029239775,13.0,44.0,"Tue, Jul 29, 2014","Sun, Jul 27, 2014"
3533,Fort Lauderdale Hollywood International,Fort Lauderdale,United States,FLL,KFLL,26.072583,-80.15275,9,-5,A,"Fort Lauderdale, FL",5141,5142,5205,5205,5.2939116903326235,18.08829249319325,64.0,161.0,"Tue, Jul  1, 2014","Wed, Jul  2, 2014"
4089,Bishop International,Flint,United States,FNT,KFNT,42.965424,-83.743629,782,-5,A,"Flint, MI",363,363,369,369,4.382920110192839,10.23140495867768,7.0,35.0,"Tue, Jul  8, 2014","Fri, Jul 18, 2014"
3843,Forbes Field,Topeka,United States,FOE,KFOE,38.950944,-95.663611,1078,-6,A,"Topeka, KS",55,56,56,56,5.836363636363636,17.964285714285705,15.0,72.0,"Tue, Jul  8, 2014","Thu, Jul  3, 2014"
4009,Sioux Falls,Sioux Falls,United States,FSD,KFSD,43.582014,-96.741914,1429,-6,A,"Sioux Falls, SD",604,602,623,623,4.970198675496689,13.362126245847175,35.0,68.0,"Wed, Jul 30, 2014","Wed, Jul 30, 2014"
3437,Fort Smith Regional,Fort Smith,United States,FSM,KFSM,35.336583,-94.367444,469,-6,A,"Fort Smith, AR",204,204,207,208,3.6813725490196076,9.612745098039218,13.0,24.0,"Tue, Jul  8, 2014","Mon, Jul 21, 2014"
4041,Fort Wayne,Fort Wayne,United States,FWA,KFWA,40.978472,-85.195139,815,-5,A,"Fort Wayne, IN",315,313,321,321,4.231746031746029,11.19169329073482,24.0,28.0,"Fri, Jul 25, 2014","Tue, Jul 22, 2014"
4296,Gillette-Campbell County Airport,Gillette,United States,GCC,KGCC,44.3489167,-105.5393611,4365,-7,A,"Gillette, WY",124,124,124,124,4.483870967741931,11.64516129032258,11.0,60.0,"Mon, Jul 21, 2014","Mon, Jul 14, 2014"
3497,Garden City Regional,Garden City,United States,GCK,KGCK,37.927528,-100.724417,2891,-6,A,"Garden City, KS",60,60,62,62,3.35,9.6,7.0,24.0,"Tue, Jul 29, 2014","Fri, Jul 25, 2014"
3467,Spokane International,Spokane,United States,GEG,KGEG,47.619861,-117.533833,2376,-8,A,"Spokane, WA",870,868,872,872,4.435632183908044,11.65783410138249,22.0,36.0,"Sat, Jul 19, 2014","Wed, Jul  9, 2014"
3442,Grand Forks International,Grand Forks,United States,GFK,KGFK,47.949256,-97.176111,845,-6,A,"Grand Forks, ND",116,115,117,116,4.896551724137934,12.565217391304348,9.0,36.0,"Tue, Jul 29, 2014","Mon, Jul 14, 2014"
3465,East Texas Regional,Longview,United States,GGG,KGGG,32.384014,-94.711486,365,-6,A,"Longview, TX",56,56,61,61,4.5178571428571415,7.964285714285714,9.0,14.0,"Tue, Jul 29, 2014","Tue, Jul  1, 2014"
4063,Grand Junction Regional,Grand Junction,United States,GJT,KGJT,39.122413,-108.526735,4858,-7,A,"Grand Junction, CO",322,323,329,330,3.798136645962733,12.36222910216718,24.0,84.0,"Sun, Jul 27, 2014","Thu, Jul 17, 2014"
3472,Gainesville Regional,Gainesville,United States,GNV,KGNV,29.690056,-82.271778,152,-5,A,"Gainesville, FL",207,207,209,209,3.473429951690821,12.932367149758456,18.0,50.0,"Thu, Jul  3, 2014","Tue, Jul 22, 2014"
4038,Gulfport-Biloxi,Gulfport,United States,GPT,KGPT,30.407278,-89.070111,28,-6,A,"Gulfport/Biloxi, MS",408,408,416,416,4.127450980392162,12.605392156862749,9.0,45.0,"Fri, Jul  4, 2014","Wed, Jul 23, 2014"
3653,Austin Straubel International,Green Bay,United States,GRB,KGRB,44.485072,-88.129589,695,-6,A,"Green Bay, WI",478,479,483,484,3.537656903765691,10.436325678496864,16.0,97.0,"Mon, Jul 28, 2014","Tue, Jul  8, 2014"
5740,Central Nebraska Regional Airport,Grand Island,United States,GRI,KGRI,40.9675,-98.3096,1847,-6,A,"Grand Island, NE",57,56,58,58,5.543859649122807,9.482142857142858,12.0,21.0,"Wed, Jul 23, 2014","Thu, Jul 10, 2014"
3775,Robert Gray AAF,Killeen,United States,GRK,KGRK,31.06725,-97.828917,1015,-6,A,"Killeen, TX",397,396,412,412,4.4382871536523965,11.32575757575758,67.0,88.0,"Wed, Jul 16, 2014","Thu, Jul 17, 2014"
3685,Gerald R. Ford International,Grand Rapids,United States,GRR,KGRR,42.880833,-85.522806,794,-5,A,"Grand Rapids, MI",1025,1016,1041,1041,4.39414634146341,12.032480314960623,34.0,50.0,"Sat, Jul 12, 2014","Wed, Jul 16, 2014"
4008,Piedmont Triad,Greensboro,United States,GSO,KGSO,36.09775,-79.937306,925,-5,A,"Greensboro/High Point, NC",804,793,827,827,4.150497512437806,14.698612862547286,35.0,69.0,"Tue, Jul  8, 2014","Sun, Jul 13, 2014"
4034,Greenville-Spartanburg International,Greenville,United States,GSP,KGSP,34.895556,-82.218889,964,-5,A,"Greer, SC",608,604,619,618,3.9555921052631637,12.38907284768212,24.0,53.0,"Tue, Jul 29, 2014","Wed, Jul 23, 2014"
5960,Gustavus Airport,Gustavus,United States,GST,PAGS,58.4253,-135.707,34,-9,A,"Gustavus, AK",26,26,31,31,4.5769230769230775,7.923076923076922,7.0,18.0,"Tue, Jul  8, 2014","Sat, Jul 19, 2014"
3880,Great Falls International,Great Falls,United States,GTF,KGTF,47.482,-111.370689,3677,-7,A,"Great Falls, MT",195,193,195,194,4.276923076923074,10.927461139896373,9.0,46.0,"Mon, Jul 21, 2014","Fri, Jul 11, 2014"
4273,Golden Triangle Regional Airport,Columbus Mississippi,United States,GTR,KGTR,33.450333,-88.591361,264,-6,A,"Columbus, MS",84,84,85,85,2.7023809523809526,12.464285714285719,5.0,37.0,"Fri, Jul 25, 2014","Thu, Jul 31, 2014"
7051,Gunnison - Crested Butte,Gunnison,United States,GUC,KGUC,38.533889,-106.933056,7678,-7,A,"Gunnison, CO",70,69,73,73,3.757142857142857,14.202898550724637,6.0,87.0,"Sat, Jul 12, 2014","Sun, Jul 20, 2014"
4339,Yampa Valley,Hayden,United States,HDN,KHDN,40.481181,-107.21766,6602,-7,A,"Hayden, CO",21,21,21,21,3.6666666666666665,12.476190476190476,11.0,19.0,"Sun, Jul  6, 2014","Sun, Jul 20, 2014"
3650,Chisholm Hibbing,Hibbing,United States,HIB,KHIB,47.3866,-92.838994,1353,-6,A,"Hibbing, MN",51,51,53,53,4.176470588235296,7.235294117647059,9.0,17.0,"Thu, Jul 17, 2014","Thu, Jul 17, 2014"
3504,Helena Regional,Helena,United States,HLN,KHLN,46.606806,-111.98275,3877,-7,A,"Helena, MT",148,148,150,150,3.824324324324324,11.108108108108105,7.0,31.0,"Mon, Jul 21, 2014","Fri, Jul 18, 2014"
3728,Honolulu International,Honolulu,United States,HNL,PHNL,21.318681,-157.922428,13,-10,N,"Honolulu, HI",4199,4196,4212,4212,6.848059061681353,14.43636796949476,52.0,67.0,"Tue, Jul 22, 2014","Tue, Jul 22, 2014"
3749,Lea County Regional,Hobbs,United States,HOB,KHOB,32.687528,-103.217028,3661,-7,A,"Hobbs, NM",57,57,57,57,4.8947368421052655,12.403508771929822,9.0,36.0,"Fri, Jul 25, 2014","Thu, Jul 17, 2014"
3566,William P. Hobby,Houston,United States,HOU,KHOU,29.645419,-95.278889,46,-6,A,"Houston, TX",5274,5280,5334,5334,6.450132726583247,9.40227272727276,54.0,89.0,"Sun, Jul 13, 2014","Thu, Jul 17, 2014"
3589,Westchester County,White Plains,United States,HPN,KHPN,41.066959,-73.707575,439,-5,A,"White Plains, NY",602,601,622,623,6.503322259136211,18.222961730449246,81.0,95.0,"Tue, Jul 15, 2014","Mon, Jul 14, 2014"
3560,Valley International,Harlingen,United States,HRL,KHRL,26.2285,-97.654389,36,-6,A,"Harlingen/San Benito, TX",290,290,293,293,2.7620689655172423,9.603448275862073,17.0,23.0,"Sun, Jul 13, 2014","Tue, Jul 15, 2014"
4113,Huntsville International Airport-Carl T. Jones Field,Huntsville,United States,HSV,KHSV,34.6371944,-86.7750556,629,-6,A,"Huntsville, AL",516,516,523,523,4.986434108527134,13.996124031007747,16.0,72.0,"Mon, Jul 28, 2014","Sun, Jul 13, 2014"
4278,Barnstable Municipal-Boardman Polando Field,Barnstable,United States,HYA,KHYA,41.669336,-70.280356,55,-5,A,"Hyannis, MA",30,30,31,31,3.7,16.33333333333333,11.0,82.0,"Fri, Jul 11, 2014","Sun, Jul 27, 2014"
3714,Washington Dulles International,Washington,United States,IAD,KIAD,38.944533,-77.455811,313,-5,A,"Washington, DC",4959,4926,5128,5101,6.594273038919135,17.625050751116525,75.0,144.0,"Thu, Jul 10, 2014","Tue, Jul  8, 2014"
3550,George Bush Intercontinental Houston,Houston,United States,IAH,KIAH,29.984433,-95.341442,97,-6,A,"Houston, TX",15344,15395,15611,15609,7.8536235662148055,17.565508281909615,49.0,138.0,"Thu, Jul  3, 2014","Thu, Jul 31, 2014"
3457,Wichita Mid Continent,Wichita,United States,ICT,KICT,37.649944,-97.433056,1333,-6,A,"Wichita, KS",687,686,703,705,4.838427947598246,11.214285714285715,38.0,34.0,"Thu, Jul 17, 2014","Mon, Jul  7, 2014"
4100,Idaho Falls Regional,Idaho Falls,United States,IDA,KIDA,43.514556,-112.07075,4744,-7,A,"Idaho Falls, ID",328,323,331,328,4.240853658536586,10.866873065015477,9.0,54.0,"Sun, Jul 27, 2014","Wed, Jul 30, 2014"
3859,New Castle,Wilmington,United States,ILG,KILG,39.678722,-75.606528,79,-5,A,"Wilmington, DE",80,80,80,80,7.075,15.587499999999997,15.0,141.0,"Wed, Jul 23, 2014","Sun, Jul 27, 2014"
3845,Wilmington International,Wilmington,United States,ILM,KILM,34.270615,-77.902569,32,-5,A,"Wilmington, NC",207,210,217,215,4.618357487922702,12.904761904761905,49.0,29.0,"Tue, Jul 15, 2014","Mon, Jul 14, 2014"
6837,Ford Airport,Iron Mountain,United States,IMT,KIMT,45.8183611,-88.1145556,1182,-5,A,"Iron Mountain/Kingsfd, MI",58,58,58,58,4.637931034482759,11.96551724137931,7.0,33.0,"Mon, Jul  7, 2014","Wed, Jul 23, 2014"
3585,Indianapolis International,Indianapolis,United States,IND,KIND,39.717331,-86.294383,797,-5,A,"Indianapolis, IN",2591,2586,2629,2628,5.526437668853724,12.472544470224285,56.0,85.0,"Sat, Jul 26, 2014","Wed, Jul 23, 2014"
3535,Falls International,International Falls,United States,INL,KINL,48.566186,-93.403067,1185,-6,A,"International Falls, MN",62,62,62,62,4.596774193548385,13.774193548387096,13.0,36.0,"Fri, Jul  4, 2014","Fri, Jul 25, 2014"
3659,Sloulin Field International,Williston,United States,ISN,KISN,48.177939,-103.642347,1982,-7,A,"Williston, ND",220,220,225,225,5.040909090909091,15.904545454545477,11.0,84.0,"Tue, Jul  8, 2014","Wed, Jul 16, 2014"
3857,Long Island MacArthur,Islip,United States,ISP,KISP,40.79525,-73.100222,99,-5,A,"Islip, NY",402,402,403,403,4.626865671641781,9.208955223880599,64.0,63.0,"Tue, Jul 22, 2014","Thu, Jul 10, 2014"
3415,Hilo International,Hilo,United States,ITO,PHTO,19.721375,-155.048469,38,-10,N,"Hilo, HI",522,522,524,524,5.291187739463602,8.544061302681996,17.0,23.0,"Thu, Jul 10, 2014","Sun, Jul 20, 2014"
4027,Jackson Hole Airport,Jacksn Hole,United States,JAC,KJAC,43.60733333,-110.73775,6451,-7,A,"Jackson, WY",477,475,478,475,3.8259958071278826,14.524210526315793,31.0,62.0,"Sat, Jul 19, 2014","Thu, Jul 31, 2014"
3580,Jackson Evers International,Jackson,United States,JAN,KJAN,32.311167,-90.075889,346,-6,A,"Jackson/Vicksburg, MS",662,660,674,674,5.067975830815713,13.298484848484854,40.0,93.0,"Fri, Jul 18, 2014","Thu, Jul 24, 2014"
3712,Jacksonville International,Jacksonville,United States,JAX,KJAX,30.494056,-81.687861,30,-5,A,"Jacksonville, FL",1851,1847,1877,1877,5.1431658562938924,13.39794260963725,60.0,84.0,"Wed, Jul  9, 2014","Mon, Jul 21, 2014"
3797,John F. Kennedy International,New York,United States,JFK,KJFK,40.639751,-73.778925,13,-5,A,"New York, NY",8750,8755,9085,9087,9.906057142857122,29.860651056539115,88.0,162.0,"Mon, Jul 14, 2014","Mon, Jul 14, 2014"
4354,Joplin Regional,Joplin,United States,JLN,KJLN,37.151814,-94.498269,981,-6,A,"Joplin, MO",60,59,62,62,3.35,11.0,6.0,70.0,"Thu, Jul 10, 2014","Fri, Jul 18, 2014"
5745,Jamestown Regional Airport,Jamestown,United States,JMS,KJMS,46.9297,-98.6782,1498,-6,A,"Jamestown, ND",76,76,76,76,4.578947368421054,12.039473684210526,10.0,34.0,"Tue, Jul  1, 2014","Tue, Jul  8, 2014"
3492,Juneau International,Juneau,United States,JNU,PAJN,58.354972,-134.576278,21,-9,A,"Juneau, AK",513,517,521,521,3.9746588693957117,13.063829787234043,16.0,56.0,"Mon, Jul 28, 2014","Mon, Jul 21, 2014"
3514,Kona International At Keahole,Kona,United States,KOA,PHKO,19.738767,-156.045631,47,-10,N,"Kona, HI",1044,1043,1045,1045,4.9741379310344875,10.125599232981779,12.0,59.0,"Sat, Jul  5, 2014","Tue, Jul 29, 2014"
3808,Ketchikan International,Ketchikan,United States,KTN,PAKT,55.355556,-131.71375,88,-9,A,"Ketchikan, AK",246,246,246,246,4.20731707317073,9.918699186991878,19.0,30.0,"Sat, Jul 12, 2014","Tue, Jul  8, 2014"
3544,Capital City,Lansing,United States,LAN,KLAN,42.7787,-84.587357,861,-5,A,"Lansing, MI",111,113,116,116,3.72972972972973,11.008849557522124,8.0,52.0,"Thu, Jul 31, 2014","Tue, Jul 15, 2014"
5746,Laramie Regional Airport,Laramie,United States,LAR,KLAR,41.3121,-105.675,7284,-7,A,"Laramie, WY",60,59,62,62,4.4333333333333345,13.0,10.0,53.0,"Wed, Jul 30, 2014","Thu, Jul 24, 2014"
3877,McCarran International,Las Vegas,United States,LAS,KLAS,36.080056,-115.15225,2141,-8,A,"Las Vegas, NV",11989,11975,12064,12063,7.016431729084993,14.74772442588727,61.0,109.0,"Sat, Jul  5, 2014","Tue, Jul  8, 2014"
4256,Lawton-Fort Sill Regional Airport,Lawton,United States,LAW,KLAW,34.5677144,-98.4166367,1110,-6,A,"Lawton/Fort Sill, OK",117,117,120,120,2.700854700854701,8.23931623931624,8.0,29.0,"Fri, Jul  4, 2014","Mon, Jul 28, 2014"
3484,Los Angeles International,Los Angeles,United States,LAX,KLAX,33.942536,-118.408075,126,-8,A,"Los Angeles, CA",20162,20170,20370,20363,11.38344410276762,16.66643529995056,92.0,129.0,"Sat, Jul  5, 2014","Thu, Jul 17, 2014"
3829,Lubbock Preston Smith International,Lubbock,United States,LBB,KLBB,33.663639,-101.822778,3282,-6,A,"Lubbock, TX",552,558,567,568,4.088768115942031,10.448028673835127,34.0,62.0,"Sat, Jul 12, 2014","Tue, Jul  1, 2014"
3513,Lake Charles Regional,Lake Charles,United States,LCH,KLCH,30.126112,-93.223335,15,-6,A,"Lake Charles, LA",175,175,179,179,4.845714285714286,10.32571428571428,20.0,46.0,"Thu, Jul 24, 2014","Wed, Jul  2, 2014"
4017,Blue Grass,Lexington KY,United States,LEX,KLEX,38.0365,-84.605889,979,-5,A,"Lexington, KY",460,457,467,466,4.273913043478258,14.575492341356673,25.0,120.0,"Mon, Jul 28, 2014","Mon, Jul 21, 2014"
3493,Lafayette Regional,Lafayette,United States,LFT,KLFT,30.205278,-91.987611,43,-6,A,"Lafayette, LA",548,547,559,560,4.866788321167885,13.071297989031077,31.0,90.0,"Thu, Jul 17, 2014","Thu, Jul 17, 2014"
3697,LaGuardia Airport,New York,United States,LGA,KLGA,40.777245,-73.872608,22,-5,A,"New York, NY",8830,8850,9376,9377,8.579501698754214,28.878757062146946,78.0,159.0,"Wed, Jul  2, 2014","Tue, Jul  8, 2014"
3582,Long Beach,Long Beach,United States,LGB,KLGB,33.817722,-118.151611,60,-8,A,"Long Beach, CA",1191,1191,1195,1195,4.017632241813606,13.33081444164567,21.0,64.0,"Sun, Jul  6, 2014","Mon, Jul  7, 2014"
3602,Lihue,Lihue,United States,LIH,PHLI,21.975983,-159.338958,153,-10,N,"Lihue, HI",1036,1033,1039,1039,5.5791505791505775,8.438528557599215,21.0,50.0,"Sun, Jul 20, 2014","Wed, Jul  2, 2014"
3660,Adams Field,Little Rock,United States,LIT,KLIT,34.729444,-92.224306,262,-6,A,"Little Rock, AR",1257,1258,1287,1289,6.249005568814642,11.821939586645483,73.0,54.0,"Thu, Jul 10, 2014","Wed, Jul 23, 2014"
3543,Lincoln,Lincoln,United States,LNK,KLNK,40.850971,-96.75925,1219,-6,A,"Lincoln, NE",201,200,204,204,4.577114427860698,11.175000000000004,35.0,50.0,"Sun, Jul  6, 2014","Wed, Jul  9, 2014"
3691,Laredo International,Laredo,United States,LRD,KLRD,27.54375,-99.461556,508,-6,A,"Laredo, TX",193,192,203,203,3.2901554404145066,10.874999999999995,10.0,27.0,"Fri, Jul  4, 2014","Thu, Jul  3, 2014"
4044,LaCrosse Municipal,LaCrosse,United States,LSE,KLSE,43.878986,-91.256711,654,-6,A,"La Crosse, WI",144,143,147,147,3.236111111111111,10.412587412587413,9.0,70.0,"Sun, Jul 27, 2014","Fri, Jul 18, 2014"
3945,Lewiston Nez Perce County,Lewiston,United States,LWS,KLWS,46.3745,-117.015389,1442,-8,A,"Lewiston, ID",32,32,32,32,4.749999999999999,9.84375,7.0,19.0,"Tue, Jul  8, 2014","Wed, Jul  9, 2014"
3652,Midland International,Midland,United States,MAF,KMAF,31.942528,-102.201914,2871,-6,A,"Midland/Odessa, TX",869,864,884,884,3.8481012658227853,11.368055555555559,47.0,107.0,"Thu, Jul  3, 2014","Mon, Jul 14, 2014"
4128,MBS International,Saginaw,United States,MBS,KMBS,43.532913,-84.079647,668,-5,A,"Saginaw/Bay City/Midland, MI",116,113,119,119,4.086206896551726,15.433628318584066,7.0,66.0,"Sat, Jul 26, 2014","Wed, Jul 23, 2014"
3458,Kansas City International,Kansas City,United States,MCI,KMCI,39.297606,-94.713905,1026,-6,A,"Kansas City, MO",4069,4067,4107,4108,5.171786679773898,11.281042537496933,38.0,93.0,"Mon, Jul  7, 2014","Mon, Jul 14, 2014"
3878,Orlando International,Orlando,United States,MCO,KMCO,28.429394,-81.308994,96,-5,A,"Orlando, FL",9679,9679,9781,9783,7.719495815683437,15.302097324103652,120.0,141.0,"Tue, Jul  8, 2014","Thu, Jul 10, 2014"
3542,Harrisburg International,Harrisburg,United States,MDT,KMDT,40.193494,-76.763403,310,-5,A,"Harrisburg, PA",326,324,329,328,4.938650306748464,12.63888888888889,24.0,97.0,"Tue, Jul 15, 2014","Tue, Jul  8, 2014"
3747,Chicago Midway International,Chicago,United States,MDW,KMDW,41.785972,-87.752417,620,-6,A,"Chicago, IL",8141,8155,8204,8203,6.823363223191249,11.629307173513196,85.0,104.0,"Tue, Jul 15, 2014","Sun, Jul 13, 2014"
3473,Memphis International,Memphis,United States,MEM,KMEM,35.042417,-89.976667,341,-6,A,"Memphis, TN",1265,1257,1283,1280,5.294071146245065,14.777247414478918,33.0,156.0,"Sun, Jul 13, 2014","Mon, Jul 14, 2014"
3826,McAllen Miller International,Mcallen,United States,MFE,KMFE,26.175833,-98.238611,107,-6,A,"Mission/McAllen/Edinburg, TX",386,386,391,391,4.748704663212434,11.59067357512953,28.0,32.0,"Wed, Jul 16, 2014","Tue, Jul 15, 2014"
4101,Rogue Valley International Medford,Medford,United States,MFR,KMFR,42.374228,-122.8735,1335,-8,A,"Medford, OR",233,233,248,248,4.377682403433475,13.068669527896995,8.0,90.0,"Mon, Jul 28, 2014","Wed, Jul  9, 2014"
4115,Montgomery Regional Airport ,MONTGOMERY,United States,MGM,KMGM,32.3006389,-86.3939722,221,-6,A,"Montgomery, AL",281,281,285,285,3.1494661921708187,13.391459074733095,26.0,54.0,"Wed, Jul 23, 2014","Fri, Jul 11, 2014"
4050,Manhattan Regional,Manhattan,United States,MHK,KMHK,39.140972,-96.670833,1057,-6,A,"Manhattan/Ft. Riley, KS",149,149,152,152,3.0671140939597317,10.174496644295308,16.0,29.0,"Tue, Jul  8, 2014","Wed, Jul 30, 2014"
4011,Manchester Regional Airport,Manchester NH,United States,MHT,KMHT,42.932556,-71.435667,266,-5,A,"Manchester, NH",626,627,634,635,4.5718849840255595,12.244019138755975,30.0,58.0,"Wed, Jul  9, 2014","Mon, Jul 14, 2014"
3576,Miami International,Miami,United States,MIA,KMIA,25.79325,-80.290556,8,-5,A,"Miami, FL",6897,6904,6956,6955,8.043932144410608,19.702780996523796,86.0,137.0,"Tue, Jul 15, 2014","Mon, Jul 14, 2014"
3717,General Mitchell International,Milwaukee,United States,MKE,KMKE,42.947222,-87.896583,723,-6,A,"Milwaukee, WI",3070,3069,3118,3118,5.27231270358307,11.978168784620392,53.0,91.0,"Mon, Jul 14, 2014","Wed, Jul 23, 2014"
5754,Muskegon County Airport,Muskegon,United States,MKG,KMKG,43.1695,-86.2382,628,-5,A,"Muskegon, MI",59,59,62,62,4.338983050847459,10.983050847457626,7.0,21.0,"Fri, Jul  4, 2014","Thu, Jul 10, 2014"
3671,Melbourne International,Melbourne,United States,MLB,KMLB,28.102753,-80.645258,33,-5,A,"Melbourne, FL",119,119,119,119,4.848739495798318,13.428571428571429,8.0,27.0,"Tue, Jul  8, 2014","Thu, Jul 24, 2014"
4072,Quad City International,Moline,United States,MLI,KMLI,41.448528,-90.507539,590,-6,A,"Moline, IL",382,382,387,388,4.007853403141361,10.890052356020947,38.0,44.0,"Tue, Jul  1, 2014","Wed, Jul 16, 2014"
3732,Monroe Regional,Monroe,United States,MLU,KMLU,32.510864,-92.037689,79,-6,A,"Monroe, LA",287,286,294,294,4.062717770034848,11.412587412587413,17.0,48.0,"Tue, Jul 15, 2014","Thu, Jul 24, 2014"
3782,Mobile Regional,Mobile,United States,MOB,KMOB,30.691231,-88.242814,219,-6,A,"Mobile, AL",486,483,491,491,4.2139917695473175,11.281573498964812,32.0,47.0,"Tue, Jul 22, 2014","Thu, Jul 24, 2014"
3498,Minot International,Minot,United States,MOT,KMOT,48.259378,-101.280333,1716,-6,A,"Minot, ND",127,126,129,129,5.417322834645671,14.579365079365079,33.0,110.0,"Thu, Jul 24, 2014","Tue, Jul 29, 2014"
6838,Sawyer International Airport,Marquette,United States,MQT,KMQT,46.353611,-87.395278,1221,-5,A,"Marquette, MI",27,26,27,27,4.148148148148149,8.576923076923077,8.0,12.0,"Tue, Jul  8, 2014","Wed, Jul  2, 2014"
3948,Monterey Peninsula,Monterey,United States,MRY,KMRY,36.587,-121.842944,257,-8,A,"Monterey, CA",371,371,400,400,3.6711590296495955,13.870619946091644,12.0,80.0,"Sun, Jul 27, 2014","Thu, Jul  3, 2014"
3459,Dane County Regional-Truax Field,Madison,United States,MSN,KMSN,43.139858,-89.337514,887,-6,A,"Madison, WI",845,845,871,870,5.218934911242603,12.603550295857993,36.0,63.0,"Sun, Jul 13, 2014","Thu, Jul  3, 2014"
4216,Missoula International,Missoula,United States,MSO,KMSO,46.916306,-114.090556,3205,-7,A,"Missoula, MT",472,472,481,483,6.262711864406779,12.233050847457623,32.0,33.0,"Sat, Jul  5, 2014","Sat, Jul 26, 2014"
3858,Minneapolis St. Paul International,Minneapolis,United States,MSP,KMSP,44.881956,-93.221767,841,-6,A,"Minneapolis, MN",10041,10064,10120,10130,5.9377552036649766,15.608704292527738,70.0,112.0,"Mon, Jul  7, 2014","Sun, Jul 13, 2014"
3861,Louis Armstrong New Orleans International,New Orleans,United States,MSY,KMSY,29.993389,-90.258028,4,-6,A,"New Orleans, LA",3382,3374,3418,3417,4.90124186871677,10.804979253112034,55.0,118.0,"Thu, Jul  3, 2014","Thu, Jul  3, 2014"
6880,Montrose Regional Airport,Montrose CO,United States,MTJ,KMTJ,38.509794,-107.894242,5759,-7,A,"Montrose/Delta, CO",60,60,60,61,4.85,11.416666666666664,10.0,18.0,"Fri, Jul 18, 2014","Mon, Jul 21, 2014"
4265,Martha's Vineyard,Vineyard Haven MA,United States,MVY,KMVY,41.391667,-70.615278,67,-5,A,"Martha's Vineyard, MA",42,41,44,44,3.142857142857143,14.658536585365853,5.0,37.0,"Wed, Jul 16, 2014","Sun, Jul 27, 2014"
3515,Myrtle Beach International,Myrtle Beach,United States,MYR,KMYR,33.67975,-78.928333,25,-5,A,"Myrtle Beach, SC",161,161,161,161,4.515527950310559,15.472049689440993,29.0,80.0,"Sun, Jul  6, 2014","Mon, Jul 14, 2014"
4386,Albert J. Ellis,Jacksonville NC,United States,OAJ,KOAJ,34.829164,-77.612139,94,-5,A,"Jacksonville/Camp Lejeune, NC",112,113,115,115,2.9107142857142847,11.814159292035399,7.0,67.0,"Sun, Jul 13, 2014","Wed, Jul 16, 2014"
3453,Metropolitan Oakland International,Oakland,United States,OAK,KOAK,37.721278,-122.220722,9,-8,A,"Oakland, CA",3890,3893,3965,3965,6.852699228791778,11.015412278448498,44.0,52.0,"Wed, Jul  9, 2014","Tue, Jul  8, 2014"
3456,Kahului,Kahului,United States,OGG,PHOG,20.89865,-156.430458,54,-10,N,"Kahului, HI",2055,2052,2059,2059,6.246715328467158,9.21491228070178,34.0,57.0,"Thu, Jul 17, 2014","Wed, Jul  2, 2014"
3863,Will Rogers World,Oklahoma City,United States,OKC,KOKC,35.393089,-97.600733,1295,-6,A,"Oklahoma City, OK",1971,1966,1994,1991,4.98173515981735,11.648016276703965,49.0,89.0,"Wed, Jul  9, 2014","Sat, Jul 26, 2014"
3454,Eppley Airfield,Omaha,United States,OMA,KOMA,41.303167,-95.894069,984,-6,A,"Omaha, NE",1771,1774,1795,1796,4.471485036702426,11.47012401352875,29.0,80.0,"Thu, Jul 24, 2014","Sat, Jul  5, 2014"
3615,Nome,Nome,United States,OME,PAOM,64.512203,-165.445247,37,-9,A,"Nome, AK",60,59,62,62,3.933333333333333,6.1525423728813555,7.0,17.0,"Thu, Jul  3, 2014","Fri, Jul  4, 2014"
3734,Ontario International,Ontario,United States,ONT,KONT,34.056,-117.601194,944,-8,A,"Ontario, CA",1780,1777,1803,1803,4.966853932584262,12.314575126617896,36.0,63.0,"Thu, Jul 31, 2014","Fri, Jul 25, 2014"
3830,Chicago O'Hare International,Chicago,United States,ORD,KORD,41.978603,-87.904842,668,-6,A,"Chicago, IL",25358,25447,25885,25838,11.820332833819732,18.522537037764756,122.0,171.0,"Sat, Jul 12, 2014","Sat, Jul 12, 2014"
3611,Norfolk International,Norfolk,United States,ORF,KORF,36.894611,-76.201222,26,-5,A,"Norfolk, VA",968,962,995,994,4.828512396694217,13.018711018711018,36.0,63.0,"Tue, Jul 15, 2014","Mon, Jul 28, 2014"
6426,Worcester Regional Airport,Worcester,United States,ORH,KORH,42.2673,-71.8757,1009,-5,U,"Worcester, MA",59,59,62,62,3.6610169491525424,11.779661016949152,7.0,43.0,"Mon, Jul 14, 2014","Wed, Jul  2, 2014"
5757,Southwest Oregon Regional Airport,North Bend,United States,OTH,KOTH,43.4171,-124.246,17,-8,A,"North Bend/Coos Bay, OR",50,50,60,60,3.78,14.7,5.0,44.0,"Sat, Jul 12, 2014","Thu, Jul 31, 2014"
3693,Ralph Wien Memorial,Kotzebue,United States,OTZ,PAOT,66.884678,-162.59855,11,-9,A,"Kotzebue, AK",62,62,62,62,3.5806451612903225,7.483870967741935,6.0,26.0,"Wed, Jul 16, 2014","Mon, Jul 21, 2014"
4117,Barkley Regional Airport,PADUCAH,United States,PAH,KPAH,37.0602875,-88.7729583,410,-6,A,"Paducah, KY",59,58,62,62,4.271186440677966,9.68965517241379,6.0,25.0,"Sun, Jul 13, 2014","Fri, Jul 18, 2014"
3722,Palm Beach International,West Palm Beach,United States,PBI,KPBI,26.683161,-80.095589,19,-5,A,"West Palm Beach/Palm Beach, FL",1472,1469,1490,1490,4.503396739130432,13.292716133424099,41.0,118.0,"Wed, Jul 30, 2014","Sat, Jul 12, 2014"
3720,Portland International,Portland,United States,PDX,KPDX,45.588722,-122.5975,30,-8,A,"Portland, OR",5035,5036,5053,5057,3.89553128103277,11.967235901509124,32.0,55.0,"Wed, Jul 30, 2014","Wed, Jul 30, 2014"
3633,Newport News Williamsburg International,Newport News,United States,PHF,KPHF,37.131894,-76.492989,43,-5,A,"Newport News/Williamsburg, VA",184,184,184,184,5.059782608695652,11.820652173913043,13.0,31.0,"Thu, Jul 24, 2014","Wed, Jul 23, 2014"
3752,Philadelphia International,Philadelphia,United States,PHL,KPHL,39.871944,-75.241139,36,-5,A,"Philadelphia, PA",6239,6245,6357,6355,6.943260137842603,23.486148919135275,107.0,161.0,"Mon, Jul 14, 2014","Sun, Jul 13, 2014"
3462,Phoenix Sky Harbor International,Phoenix,United States,PHX,KPHX,33.434278,-112.011583,1135,-7,N,"Phoenix, AZ",14086,14125,14270,14272,7.5763879028822885,14.719221238938065,125.0,101.0,"Fri, Jul 25, 2014","Sun, Jul 20, 2014"
4046,Peoria Regional,Peoria,United States,PIA,KPIA,40.664203,-89.693258,660,-6,A,"Peoria, IL",342,339,345,344,4.026315789473682,11.849557522123899,32.0,84.0,"Sun, Jul 13, 2014","Thu, Jul 17, 2014"
5760,Pocatello Regional Airport,Pocatello,United States,PIH,KPIH,42.9098,-112.596,4452,-7,A,"Pocatello, ID",116,116,116,116,3.422413793103449,7.7413793103448265,6.0,18.0,"Mon, Jul 28, 2014","Wed, Jul  9, 2014"
3570,Pittsburgh International,Pittsburgh (pennsylva),United States,PIT,KPIT,40.491467,-80.232872,1204,-5,A,"Pittsburgh, PA",2490,2475,2511,2510,6.3823293172690825,11.747878787878793,109.0,78.0,"Sat, Jul 26, 2014","Tue, Jul 15, 2014"
5762,Pellston Regional Airport of Emmet County Airport,Pellston,United States,PLN,KPLN,45.5709,-84.7967,720,-5,A,"Pellston, MI",116,116,117,117,5.732758620689655,13.568965517241379,15.0,68.0,"Mon, Jul  7, 2014","Mon, Jul  7, 2014"
3564,Pensacola Regional,Pensacola,United States,PNS,KPNS,30.473425,-87.186611,121,-6,A,"Pensacola, FL",733,729,738,738,4.42974079126876,13.285322359396439,37.0,72.0,"Wed, Jul  2, 2014","Sun, Jul 20, 2014"
6133,Tri Cities Airport,Pasco,United States,PSC,PSC,46.2647,-119.119,410,-8,A,"Pasco/Kennewick/Richland, WA",294,294,299,299,4.9659863945578255,11.244897959183673,10.0,40.0,"Thu, Jul 31, 2014","Thu, Jul 17, 2014"
4147,Petersburg James A. Johnson,Petersburg,United States,PSG,PAPG,56.801667,-132.945278,105,-9,A,"Petersburg, AK",62,62,62,62,3.629032258064516,7.096774193548387,6.0,21.0,"Sun, Jul 27, 2014","Tue, Jul  1, 2014"
3839,Palm Springs International,Palm Springs,United States,PSP,KPSP,33.829667,-116.506694,477,-8,A,"Palm Springs, CA",602,602,609,609,4.880398671096345,13.983388704318937,15.0,49.0,"Mon, Jul 28, 2014","Fri, Jul 25, 2014"
3527,Pueblo Memorial,Pueblo Memorial,United States,PUB,KPUB,38.289085,-104.496572,4726,-7,A,"Pueblo, CO",53,52,53,54,4.2452830188679265,11.48076923076923,15.0,24.0,"Tue, Jul 22, 2014","Tue, Jul  8, 2014"
3641,Theodore Francis Green State,Providence,United States,PVD,KPVD,41.732581,-71.420383,55,-5,A,"Providence, RI",1117,1117,1136,1137,4.983885407341091,11.719785138764545,33.0,45.0,"Thu, Jul  3, 2014","Fri, Jul  4, 2014"
3862,Portland International Jetport,Portland,United States,PWM,KPWM,43.646161,-70.309281,77,-5,A,"Portland, ME",535,536,558,559,3.663551401869158,12.602611940298514,38.0,58.0,"Wed, Jul  2, 2014","Tue, Jul  8, 2014"
4087,Rapid City Regional Airport,Rapid City,United States,RAP,KRAP,44.045278,-103.057222,3204,-7,A,"Rapid City, SD",538,545,562,560,5.485130111524165,13.675229357798164,30.0,76.0,"Sat, Jul 26, 2014","Sat, Jul 12, 2014"
4098,Redding Municipal,Redding,United States,RDD,KRDD,40.509,-122.293389,504,-8,A,"Redding, CA",81,79,93,93,3.7901234567901243,16.050632911392402,6.0,38.0,"Tue, Jul  1, 2014","Thu, Jul 24, 2014"
4103,Roberts Field,Redmond-Bend,United States,RDM,KRDM,44.254066,-121.149964,3077,-8,A,"Bend/Redmond, OR",328,330,335,335,4.246951219512198,10.672727272727272,12.0,32.0,"Tue, Jul 15, 2014","Mon, Jul 21, 2014"
3626,Raleigh Durham International,Raleigh-durham,United States,RDU,KRDU,35.877639,-78.787472,435,-5,A,"Raleigh/Durham, NC",3463,3438,3534,3534,5.000288766965046,14.311227457824325,113.0,140.0,"Tue, Jul 15, 2014","Mon, Jul 21, 2014"
5765,Rhinelander Oneida County Airport,Rhinelander,United States,RHI,KRHI,45.6312,-89.4675,1624,-6,A,"Rhinelander, WI",88,87,89,89,4.954545454545457,13.988505747126437,11.0,79.0,"Tue, Jul 22, 2014","Fri, Jul 11, 2014"
3608,Richmond International,Richmond,United States,RIC,KRIC,37.505167,-77.319667,167,-5,A,"Richmond, VA",1595,1597,1642,1640,4.742319749216303,14.445209768315596,47.0,86.0,"Thu, Jul 10, 2014","Thu, Jul 24, 2014"
5766,Rock Springs Sweetwater County Airport,Rock Springs,United States,RKS,KRKS,41.5942,-109.065,6760,-7,A,"Rock Springs, WY",154,154,155,155,3.3506493506493498,8.844155844155843,9.0,22.0,"Sun, Jul 27, 2014","Wed, Jul 16, 2014"
3807,Reno Tahoe International,Reno,United States,RNO,KRNO,39.499108,-119.768108,4415,-8,A,"Reno, NV",1529,1528,1546,1546,4.65860039241334,12.863874345549753,28.0,72.0,"Sat, Jul 19, 2014","Tue, Jul  8, 2014"
4016,Roanoke Regional,Roanoke VA,United States,ROA,KROA,37.325472,-79.975417,1175,-5,A,"Roanoke, VA",265,262,278,277,4.830188679245285,14.103053435114504,20.0,42.0,"Tue, Jul 29, 2014","Sat, Jul 12, 2014"
3622,Greater Rochester International,Rochester,United States,ROC,KROC,43.118866,-77.672389,559,-5,A,"Rochester, NY",689,687,705,704,5.452830188679239,12.3566229985444,22.0,56.0,"Sun, Jul 13, 2014","Sat, Jul  5, 2014"
3736,Roswell International Air Center,Roswell,United States,ROW,KROW,33.301556,-104.530556,3671,-7,A,"Roswell, NM",83,83,88,88,3.9518072289156625,8.746987951807235,9.0,17.0,"Fri, Jul 25, 2014","Thu, Jul 24, 2014"
4048,Rochester,Rochester,United States,RST,KRST,43.908283,-92.500014,1317,-6,A,"Rochester, MN",121,121,121,121,3.3140495867768593,11.702479338842975,7.0,43.0,"Sat, Jul 19, 2014","Fri, Jul 25, 2014"
3793,Southwest Florida International,Fort Myers,United States,RSW,KRSW,26.536167,-81.755167,30,-5,A,"Fort Myers, FL",1590,1587,1602,1602,4.769182389937101,12.64335223692501,49.0,109.0,"Sat, Jul 19, 2014","Sat, Jul 12, 2014"
3784,Santa Fe Municipal,Santa Fe,United States,SAF,KSAF,35.617108,-106.089422,6348,-7,A,"Santa Fe, NM",205,205,213,213,5.3170731707317085,12.95609756097561,26.0,38.0,"Mon, Jul  7, 2014","Wed, Jul 16, 2014"
3731,San Diego International,San Diego,United States,SAN,KSAN,32.733556,-117.189667,17,-8,A,"San Diego, CA",7117,7107,7193,7191,4.06365041450049,14.921345152666374,59.0,88.0,"Mon, Jul 28, 2014","Tue, Jul  8, 2014"
3621,San Antonio International,San Antonio,United States,SAT,KSAT,29.533694,-98.469778,809,-6,A,"San Antonio, TX",3020,3023,3056,3057,4.11258278145697,11.871650678134317,39.0,110.0,"Thu, Jul 17, 2014","Thu, Jul 17, 2014"
3613,Savannah Hilton Head International,Savannah,United States,SAV,KSAV,32.127583,-81.202139,51,-5,A,"Savannah, GA",730,728,757,758,5.309589041095892,14.686813186813183,39.0,92.0,"Sun, Jul 27, 2014","Fri, Jul  4, 2014"
3949,Santa Barbara Municipal,Santa Barbara,United States,SBA,KSBA,34.426211,-119.840372,10,-8,A,"Santa Barbara, CA",585,581,622,622,4.849572649572648,13.328743545611019,30.0,71.0,"Sat, Jul  5, 2014","Thu, Jul 24, 2014"
4359,South Bend Regional,South Bend,United States,SBN,KSBN,41.708661,-86.31725,799,-5,A,"South Bend, IN",479,479,494,493,4.584551148225467,13.881002087682672,34.0,50.0,"Thu, Jul  3, 2014","Thu, Jul  3, 2014"
5768,San Luis County Regional Airport,San Luis Obispo,United States,SBP,KSBP,35.2368,-120.642,212,-8,A,"San Luis Obispo, CA",390,388,410,410,3.41025641025641,13.783505154639176,11.0,64.0,"Mon, Jul 28, 2014","Sun, Jul  6, 2014"
3620,Deadhorse,Deadhorse,United States,SCC,PASC,70.19475,-148.465167,64,-9,A,"Deadhorse, AK",78,79,79,79,4.333333333333334,8.139240506329115,8.0,26.0,"Sun, Jul 13, 2014","Thu, Jul  3, 2014"
4318,University Park Airport,State College Pennsylvania,United States,SCE,KUNV,40.849278,-77.848694,1239,-5,A,"State College, PA",55,55,57,57,4.909090909090909,9.654545454545458,15.0,34.0,"Sat, Jul 19, 2014","Sun, Jul 27, 2014"
4014,Louisville International Airport,Louisville,United States,SDF,KSDF,38.1740858,-85.7364989,501,-5,A,"Louisville, KY",1238,1233,1271,1271,5.943457189014546,13.122465531224663,54.0,100.0,"Sun, Jul 20, 2014","Wed, Jul  9, 2014"
3577,Seattle Tacoma International,Seattle,United States,SEA,KSEA,47.449,-122.309306,433,-8,A,"Seattle, WA",10712,10718,10747,10746,7.198935772964901,15.965012129128658,63.0,85.0,"Thu, Jul 17, 2014","Thu, Jul 17, 2014"
3469,San Francisco International,San Francisco,United States,SFO,KSFO,37.618972,-122.374889,13,-8,A,"San Francisco, CA",14545,14569,14951,14954,7.33839807493984,20.698469352735266,68.0,99.0,"Sun, Jul 13, 2014","Sat, Jul  5, 2014"
4348,Springfield Branson National,Springfield,United States,SGF,KSGF,37.245667,-93.388639,1268,-6,A,"Springfield, MO",555,551,562,562,4.64684684684685,12.865698729582578,39.0,95.0,"Sun, Jul 20, 2014","Thu, Jul 24, 2014"
4064,St. George Municipal,Saint George,United States,SGU,KSGU,37.090583,-113.593056,2941,-7,A,"St. George, UT",146,146,146,146,4.1506849315068495,12.178082191780826,16.0,38.0,"Tue, Jul 29, 2014","Sun, Jul  6, 2014"
3609,Shreveport Regional,Shreveport,United States,SHV,KSHV,32.446629,-93.8256,258,-6,A,"Shreveport, LA",573,573,588,589,5.2547993019197206,10.483420593368244,28.0,119.0,"Mon, Jul 14, 2014","Thu, Jul 17, 2014"
3856,Sitka Rocky Gutierrez,Sitka,United States,SIT,PASI,57.047138,-135.361611,21,-9,A,"Sitka, AK",153,154,155,155,3.947712418300654,10.66883116883117,10.0,39.0,"Sun, Jul 27, 2014","Thu, Jul 31, 2014"
3748,Norman Y. Mineta San Jose International,San Jose,United States,SJC,KSJC,37.3626,-121.929022,62,-8,A,"San Jose, CA",3868,3869,3909,3909,4.112978283350569,11.942362367536823,39.0,64.0,"Tue, Jul 15, 2014","Thu, Jul 24, 2014"
3708,San Angelo Regional-Mathis Field,San Angelo,United States,SJT,KSJT,31.35775,-100.496306,1919,-6,A,"San Angelo, TX",142,142,148,148,2.760563380281689,8.943661971830988,6.0,37.0,"Mon, Jul 14, 2014","Wed, Jul  9, 2014"
3536,Salt Lake City International,Salt Lake City,United States,SLC,KSLC,40.788389,-111.977772,4227,-7,A,"Salt Lake City, UT",9995,10009,10031,10036,6.048224112056026,16.669897092616704,37.0,98.0,"Wed, Jul 16, 2014","Tue, Jul  8, 2014"
3817,Sacramento International,Sacramento,United States,SMF,KSMF,38.695417,-121.590778,27,-8,A,"Sacramento, CA",3756,3753,3826,3825,4.547923322683698,10.926458832933646,28.0,73.0,"Tue, Jul  1, 2014","Wed, Jul  9, 2014"
5772,Santa Maria Public-Captain G. Allan Hancock Airport,Santa Maria,United States,SMX,KSMX,34.8989,-120.457,261,-8,A,"Santa Maria, CA",116,116,116,116,3.9913793103448287,11.931034482758617,9.0,33.0,"Thu, Jul 17, 2014","Thu, Jul 24, 2014"
3867,John Wayne Airport Orange County,Santa Ana,United States,SNA,KSNA,33.675667,-117.868222,56,-8,A,"Santa Ana, CA",3403,3400,3430,3430,5.32882750514253,12.20382352941176,41.0,111.0,"Sun, Jul 27, 2014","Mon, Jul  7, 2014"
4336,Abraham Lincoln Capital,Springfield,United States,SPI,KSPI,39.8441,-89.677889,597,-6,A,"Springfield, IL",148,146,155,155,3.8445945945945947,11.897260273972606,7.0,70.0,"Mon, Jul 14, 2014","Thu, Jul 17, 2014"
3680,Sheppard AFB Wichita Falls Municipal,Wichita Falls,United States,SPS,KSPS,33.988797,-98.491894,1019,-6,A,"Wichita Falls, TX",113,113,119,119,5.5929203539823,11.061946902654865,18.0,34.0,"Wed, Jul  2, 2014","Wed, Jul  9, 2014"
4067,Sarasota Bradenton International,Sarasota,United States,SRQ,KSRQ,27.395444,-82.554389,30,-5,A,"Sarasota/Bradenton, FL",267,267,269,269,4.625468164794003,12.670411985018726,12.0,88.0,"Thu, Jul 10, 2014","Wed, Jul  2, 2014"
4271,Saint Cloud Regional Airport,Saint Cloud,United States,STC,KSTC,45.546556,-94.059889,1031,-6,A,"St. Cloud, MN",61,60,62,62,3.721311475409836,12.566666666666666,5.0,34.0,"Mon, Jul  7, 2014","Tue, Jul  1, 2014"
3678,Lambert St. Louis International,St. Louis,United States,STL,KSTL,38.748697,-90.370028,618,-6,A,"St. Louis, MO",4955,4951,5028,5029,4.639354187689211,10.80731165421127,52.0,91.0,"Tue, Jul  1, 2014","Mon, Jul 14, 2014"
6494,Friedman Memorial,Hailey,United States,SUN,KSUN,43.504444,-114.296194,5320,-7,A,"Sun Valley/Hailey/Ketchum, ID",147,144,148,146,3.4829931972789114,14.645833333333334,8.0,82.0,"Wed, Jul 16, 2014","Sun, Jul 13, 2014"
3753,Sioux Gateway-Colonel Bud Day Field,Sioux City,United States,SUX,KSUX,42.402603,-96.384367,1098,-6,A,"Sioux City, IA",72,69,72,71,4.125000000000001,12.478260869565217,9.0,42.0,"Thu, Jul 24, 2014","Wed, Jul 16, 2014"
3661,Stewart International,Newburgh,United States,SWF,KSWF,41.504094,-74.104839,491,-5,A,"Newburgh/Poughkeepsie, NY",62,61,62,62,5.338709677419355,14.262295081967213,8.0,39.0,"Mon, Jul 14, 2014","Mon, Jul  7, 2014"
3745,Syracuse Hancock International,Syracuse,United States,SYR,KSYR,43.111187,-76.106311,421,-5,A,"Syracuse, NY",535,532,550,550,4.521495327102805,13.325187969924816,26.0,108.0,"Thu, Jul 10, 2014","Sun, Jul 27, 2014"
3698,Tallahassee Regional,Tallahassee,United States,TLH,KTLH,30.396528,-84.350333,81,-5,A,"Tallahassee, FL",351,349,355,355,5.524216524216527,14.340974212034386,17.0,40.0,"Thu, Jul  3, 2014","Sat, Jul  5, 2014"
4040,Toledo,Toledo,United States,TOL,KTOL,41.586806,-83.807833,684,-5,A,"Toledo, OH",85,86,87,87,2.6352941176470583,12.395348837209305,6.0,39.0,"Fri, Jul 25, 2014","Tue, Jul  8, 2014"
3646,Tampa International,Tampa,United States,TPA,KTPA,27.975472,-82.53325,26,-5,A,"Tampa, FL",5351,5337,5382,5378,4.715940945617636,12.30504028480419,81.0,112.0,"Tue, Jul  8, 2014","Sat, Jul  5, 2014"
4116,Tri-Cities Regional Airport,BRISTOL,United States,TRI,KTRI,36.4752222,-82.4074167,1519,-5,A,"Bristol/Johnson City/Kingsport, TN",176,175,177,177,3.772727272727273,12.725714285714286,8.0,78.0,"Sun, Jul 13, 2014","Thu, Jul 24, 2014"
3447,Trenton Mercer,Trenton,United States,TTN,KTTN,40.276692,-74.813469,213,-5,A,"Trenton, NJ",321,320,324,323,7.414330218068536,13.253125,49.0,59.0,"Wed, Jul  2, 2014","Wed, Jul 16, 2014"
3855,Tulsa International,Tulsa,United States,TUL,KTUL,36.198389,-95.888111,677,-6,A,"Tulsa, OK",1640,1639,1671,1671,4.373170731707327,12.147040878584512,46.0,70.0,"Mon, Jul 14, 2014","Thu, Jul 31, 2014"
3636,Tucson International,Tucson,United States,TUS,KTUS,32.116083,-110.941028,2643,-7,N,"Tucson, AZ",1272,1271,1287,1287,4.824685534591191,12.062942564909523,29.0,64.0,"Thu, Jul  3, 2014","Fri, Jul 25, 2014"
4023,Cherry Capital Airport,Traverse City,United States,TVC,KTVC,44.741445,-85.582235,624,-5,A,"Traverse City, MI",367,365,369,367,5.57493188010899,12.331506849315064,60.0,88.0,"Sat, Jul  5, 2014","Thu, Jul  3, 2014"
4263,Magic Valley Regional Airport,Twin Falls,United States,TWF,KTWF,42.481803,-114.487733,4151,-7,A,"Twin Falls, ID",62,62,62,62,3.661290322580645,9.596774193548388,5.0,21.0,"Wed, Jul 30, 2014","Sun, Jul  6, 2014"
3770,Texarkana Regional-Webb Field,Texarkana,United States,TXK,KTXK,33.453722,-93.991028,390,-6,A,"Texarkana, AR",86,86,91,91,3.186046511627907,8.337209302325583,10.0,25.0,"Wed, Jul 16, 2014","Wed, Jul 16, 2014"
3848,Tyler Pounds Regional,Tyler,United States,TYR,KTYR,32.354139,-95.402386,544,-6,A,"Tyler, TX",221,222,233,233,3.9502262443438916,9.234234234234231,12.0,21.0,"Thu, Jul 31, 2014","Tue, Jul  1, 2014"
3676,McGhee Tyson,Knoxville,United States,TYS,KTYS,35.810972,-83.994028,981,-5,A,"Knoxville, TN",776,773,798,799,3.9007731958762877,12.197930142302711,38.0,85.0,"Wed, Jul 16, 2014","Mon, Jul 14, 2014"
6989,St. Augustine Airport,St. Augustine Airport,United States,UST,KSGJ,29.959167,-81.339722,10,-5,A,"St. Augustine, FL",13,13,13,13,6.3076923076923075,11.076923076923077,7.0,22.0,"Fri, Jul 25, 2014","Wed, Jul 23, 2014"
7076,Vernal Regional Airport,Vernal,United States,VEL,KVEL,40.440833,-109.51,5278,-7,A,"Vernal, UT",53,52,54,54,2.9245283018867925,7.326923076923077,7.0,23.0,"Thu, Jul 24, 2014","Thu, Jul  3, 2014"
5776,Valdosta Regional Airport,Valdosta,United States,VLD,KVLD,30.7825,-83.2767,203,-5,A,"Valdosta, GA",85,85,85,85,4.494117647058824,10.04705882352941,9.0,32.0,"Mon, Jul  7, 2014","Sun, Jul 13, 2014"
3873,Eglin AFB,Valparaiso,United States,VPS,KVPS,30.48325,-86.5254,87,-6,A,"Valparaiso, FL",496,493,503,503,7.42741935483871,13.959432048681542,48.0,64.0,"Thu, Jul 31, 2014","Mon, Jul 28, 2014"
5969,Wrangell Airport,Wrangell,United States,WRG,PAWG,56.4843,-132.37,44,-9,A,"Wrangell, AK",62,62,62,62,3.4516129032258065,6.758064516129032,6.0,15.0,"Sun, Jul  6, 2014","Mon, Jul  7, 2014"
7072,Yellowstone Airport,West Yellowstone,United States,WYS,KWYS,44.688333,-111.1175,6644,-7,A,"West Yellowstone, MT",70,70,70,70,3.7142857142857144,8.22857142857143,6.0,19.0,"Wed, Jul 16, 2014","Sat, Jul 12, 2014"
4356,NW Arkansas Regional,Bentonville,United States,XNA,KXNA,36.2818694,-94.3068111,1287,-6,A,"Fayetteville, AR",950,948,970,970,4.84421052631579,12.852320675105485,41.0,93.0,"Thu, Jul 17, 2014","Thu, Jul 24, 2014"
6803,Yakutat,Yakutat,United States,YAK,PAYA,59.3012,-139.3937,33,-9,A,"Yakutat, AK",62,62,62,62,3.838709677419355,7.225806451612903,6.0,16.0,"Tue, Jul 15, 2014","Mon, Jul  7, 2014"
3596,Yuma MCAS Yuma International,Yuma,United States,YUM,KYUM,32.656578,-114.60598,216,-7,N,"Yuma, AZ",232,232,239,239,3.7758620689655173,11.698275862068966,7.0,48.0,"Fri, Jul 25, 2014","Thu, Jul 24, 2014"
