airport_id,name,city,country,iata_faa,iaco,latitude,longitude,altitude,zone,dst,city_state,avg_able_landings,avg_able_takeoffs,total_landings,total_takeoffs,avg_taxi_in,avg_taxi_out,longest_taxi_in,longest_taxi_out,lng_tx_in_date,lng_tx_out_date
4355,Lehigh Valley International,Allentown,United States,ABE,KABE,40.652083,-75.440806,393,-5,A,"Allentown/Bethlehem/Easton, PA",229,232,232,232,4.0960698689956345,12.469827586206897,42.0,94.0,"Thu, Jul  2, 2015","Sat, Jul 18, 2015"
3718,Abilene Regional,Abilene,United States,ABI,KABI,32.411319,-99.681897,1791,-6,A,"Abilene, TX",209,210,211,211,3.889952153110047,8.252380952380955,35.0,39.0,"Sun, Jul 26, 2015","Mon, Jul  6, 2015"
4019,Albuquerque International Sunport,Albuquerque,United States,ABQ,KABQ,35.0402222,-106.6091944,5355,-7,A,"Albuquerque, NM",2033,2033,2045,2045,5.706837186424008,11.758976881455974,29.0,84.0,"Fri, Jul  3, 2015","Fri, Jul 31, 2015"
5714,Aberdeen Regional Airport,Aberdeen,United States,ABR,KABR,45.4491,-98.4218,1302,-6,A,"Aberdeen, SD",62,62,62,62,4.354838709677417,17.951612903225815,7.0,47.0,"Fri, Jul 10, 2015","Wed, Jul 22, 2015"
5715,Southwest Georgia Regional Airport,Albany,United States,ABY,KABY,31.5355,-84.1945,197,-5,A,"Albany, GA",77,77,77,77,3.5454545454545454,12.610389610389612,6.0,67.0,"Wed, Jul 15, 2015","Mon, Jul 27, 2015"
3517,Nantucket Memorial,Nantucket,United States,ACK,KACK,41.253053,-70.060181,48,-5,A,"Nantucket, MA",139,138,139,139,6.028776978417266,15.695652173913047,39.0,47.0,"Sat, Jul 18, 2015","Thu, Jul  9, 2015"
3700,Waco Regional,Waco,United States,ACT,KACT,31.611289,-97.230519,516,-6,A,"Waco, TX",148,148,149,149,4.195945945945945,8.73648648648649,15.0,28.0,"Fri, Jul 10, 2015","Fri, Jul 31, 2015"
4384,Arcata,Arcata CA,United States,ACV,KACV,40.978111,-124.108611,221,-8,A,"Arcata/Eureka, CA",120,119,123,122,5.374999999999998,12.487394957983195,19.0,72.0,"Thu, Jul 23, 2015","Mon, Jul  6, 2015"
3524,Atlantic City International,Atlantic City,United States,ACY,KACY,39.457583,-74.577167,75,-5,A,"Atlantic City, NJ",339,340,341,341,4.454277286135696,11.22058823529412,10.0,37.0,"Fri, Jul  3, 2015","Wed, Jul 29, 2015"
5959,Adak Airport,Adak Island,United States,ADK,PADK,51.878,-176.646,18,-10,A,"Adak Island, AK",9,9,9,9,4.222222222222222,6.777777777777778,5.0,14.0,"Sun, Jul 12, 2015","Thu, Jul  2, 2015"
3531,Kodiak,Kodiak,United States,ADQ,PADQ,57.749967,-152.493856,78,-9,A,"Kodiak, AK",55,55,58,58,2.9454545454545453,7.472727272727273,5.0,23.0,"Wed, Jul  1, 2015","Mon, Jul 27, 2015"
3852,Alexandria International,Alexandria,United States,AEX,KAEX,31.3274,-92.549833,89,-6,A,"Alexandria, LA",294,294,299,299,3.4353741496598635,13.003401360544217,24.0,95.0,"Sat, Jul  4, 2015","Wed, Jul  1, 2015"
3658,Augusta Regional At Bush Field,Bush Field,United States,AGS,KAGS,33.369944,-81.9645,144,-5,A,"Augusta, GA",222,221,222,221,3.8423423423423433,17.171945701357455,12.0,102.0,"Fri, Jul 31, 2015","Wed, Jul 22, 2015"
3794,King Salmon,King Salmon,United States,AKN,PAKN,58.676778,-156.649278,68,-9,A,"King Salmon, AK",31,31,31,31,3.129032258064516,7.483870967741935,6.0,20.0,"Tue, Jul  7, 2015","Mon, Jul 27, 2015"
3864,Albany International,Albany,United States,ALB,KALB,42.748267,-73.801692,285,-5,A,"Albany, NY",710,710,717,716,4.276056338028168,12.156338028169008,32.0,97.0,"Sun, Jul 19, 2015","Wed, Jul 29, 2015"
5718,Waterloo Regional Airport,Waterloo,United States,ALO,KALO,42.5571,-92.4003,873,-6,A,"Waterloo, IA",58,58,58,58,4.8103448275862055,10.862068965517242,9.0,30.0,"Fri, Jul 24, 2015","Sun, Jul 26, 2015"
3840,Rick Husband Amarillo International,Amarillo,United States,AMA,KAMA,35.219369,-101.705931,3607,-6,A,"Amarillo, TX",450,452,453,454,4.993333333333335,10.34292035398231,51.0,31.0,"Tue, Jul 28, 2015","Thu, Jul  2, 2015"
3774,Ted Stevens Anchorage International,Anchorage,United States,ANC,PANC,61.174361,-149.996361,152,-9,A,"Anchorage, AK",2073,2081,2086,2086,4.49011095031355,11.758289283998074,69.0,47.0,"Sat, Jul 25, 2015","Fri, Jul 17, 2015"
5720,Alpena County Regional Airport,Alpena,United States,APN,KAPN,45.0781,-83.5603,689,-5,A,"Alpena, MI",53,52,54,54,5.018867924528303,11.807692307692308,17.0,31.0,"Fri, Jul 31, 2015","Sun, Jul  5, 2015"
7001,Aspen/Pitkin County-Sardy Field,Aspen,United States,ASE,KASE,39.2232,-106.869,7820,-7,A,"Aspen, CO",254,253,262,261,3.251968503937007,13.146245059288537,14.0,53.0,"Sun, Jul 26, 2015","Mon, Jul  6, 2015"
3682,Hartsfield Jackson Atlanta International,Atlanta,United States,ATL,KATL,33.636719,-84.428067,1026,-5,A,"Atlanta, GA",33651,33650,33735,33735,8.526670827018588,18.936731054977667,97.0,141.0,"Thu, Jul 30, 2015","Sat, Jul 18, 2015"
4047,Appleton,Appleton,United States,ATW,KATW,44.257526,-88.507576,680,-6,A,"Appleton, WI",312,312,316,315,5.371794871794874,14.41666666666666,52.0,59.0,"Mon, Jul 13, 2015","Mon, Jul 27, 2015"
3673,Austin Bergstrom International,Austin,United States,AUS,KAUS,30.194528,-97.669889,542,-6,A,"Austin, TX",4281,4272,4302,4301,6.295024526979678,11.412687265917597,47.0,53.0,"Fri, Jul 24, 2015","Tue, Jul 14, 2015"
4007,Asheville Regional Airport,Asheville,United States,AVL,KAVL,35.436194,-82.541806,2165,-5,A,"Asheville, NC",339,333,342,342,3.9852507374631267,16.024024024024033,22.0,49.0,"Tue, Jul 14, 2015","Wed, Jul 29, 2015"
4286,Wilkes Barre Scranton International,Scranton,United States,AVP,KAVP,41.338478,-75.723403,962,-5,A,"Scranton/Wilkes-Barre, PA",145,142,146,145,3.4689655172413794,12.852112676056338,8.0,53.0,"Sun, Jul 19, 2015","Thu, Jul  9, 2015"
4039,Kalamazoo,Kalamazoo,United States,AZO,KAZO,42.234875,-85.552058,874,-5,A,"Kalamazoo, MI",124,124,130,130,3.2338709677419355,12.82258064516129,7.0,77.0,"Mon, Jul 27, 2015","Wed, Jul 29, 2015"
3825,Bradley International,Windsor Locks,United States,BDL,KBDL,41.938889,-72.683222,173,-5,A,"Hartford, CT",1833,1833,1842,1842,4.988543371522089,13.385706492089474,44.0,121.0,"Thu, Jul  9, 2015","Wed, Jul  8, 2015"
3599,Bethel,Bethel,United States,BET,PABE,60.779778,-161.838,121,-9,A,"Bethel, AK",85,85,85,85,3.623529411764706,5.647058823529412,6.0,17.0,"Mon, Jul 20, 2015","Sat, Jul 25, 2015"
3558,Meadows Field,Bakersfield,United States,BFL,KBFL,35.433598,-119.05677,507,-8,A,"Bakersfield, CA",253,252,257,257,4.75098814229249,15.825396825396826,8.0,113.0,"Wed, Jul  8, 2015","Wed, Jul  8, 2015"
4129,Greater Binghamton-Edwin A. Link Field,Binghamton,United States,BGM,KBGM,42.208689,-75.979839,1636,-5,A,"Binghamton, NY",60,61,60,61,3.433333333333333,11.819672131147541,5.0,25.0,"Sun, Jul 26, 2015","Sat, Jul  4, 2015"
3463,Bangor International,Bangor,United States,BGR,KBGR,44.807444,-68.828139,192,-5,A,"Bangor, ME",66,66,66,66,4.303030303030303,14.803030303030303,8.0,92.0,"Sat, Jul 25, 2015","Wed, Jul 29, 2015"
3811,Birmingham International,Birmingham,United States,BHM,KBHM,33.562942,-86.75355,644,-6,A,"Birmingham, AL",1183,1186,1202,1202,3.92561284868977,13.81871838111299,34.0,85.0,"Fri, Jul 31, 2015","Tue, Jul 28, 2015"
4021,Billings Logan International Airport,Billings,United States,BIL,KBIL,45.80921,-108.537654,3652,-7,A,"Billings, MT",337,336,338,337,4.207715133531153,11.467261904761903,17.0,47.0,"Thu, Jul  9, 2015","Fri, Jul 24, 2015"
4083,Bismarck Municipal Airport,Bismarck,United States,BIS,KBIS,46.775842,-100.757931,1661,-6,A,"Bismarck/Mandan, ND",357,354,359,358,4.336134453781513,14.844632768361581,30.0,84.0,"Wed, Jul  1, 2015","Wed, Jul  8, 2015"
4287,Bemidji Regional Airport,Bemidji,United States,BJI,KBJI,47.510722,-94.934722,1391,-6,A,"Bemidji, MN",61,61,62,62,4.950819672131148,15.573770491803279,8.0,67.0,"Sun, Jul  5, 2015","Sun, Jul 12, 2015"
4037,Central Illinois Regional,Bloomington,United States,BMI,KBMI,40.477111,-88.915917,871,-6,A,"Bloomington/Normal, IL",256,254,258,257,3.5195312500000004,11.79527559055118,10.0,62.0,"Sat, Jul  4, 2015","Wed, Jul 29, 2015"
3690,Nashville International,Nashville,United States,BNA,KBNA,36.124472,-86.678194,599,-6,A,"Nashville, TN",4704,4698,4752,4752,6.522534013605438,12.195189442315883,98.0,115.0,"Tue, Jul 28, 2015","Mon, Jul  6, 2015"
3495,Boise Air Terminal,Boise,United States,BOI,KBOI,43.564361,-116.222861,2871,-7,A,"Boise, ID",1191,1187,1198,1198,4.05793450881612,12.577085088458297,33.0,90.0,"Thu, Jul  9, 2015","Thu, Jul  9, 2015"
3448,General Edward Lawrence Logan International,Boston,United States,BOS,KBOS,42.364347,-71.005181,19,-5,A,"Boston, MA",10752,10759,10837,10837,7.232142857142863,19.799702574588665,66.0,151.0,"Tue, Jul 14, 2015","Wed, Jul 15, 2015"
3612,Southeast Texas Regional,Beaumont,United States,BPT,KBPT,29.950833,-94.020694,15,-6,A,"Beaumont/Port Arthur, TX",91,89,91,91,3.4945054945054945,11.20224719101124,10.0,25.0,"Wed, Jul 22, 2015","Mon, Jul 27, 2015"
5725,Brunswick Golden Isles Airport,Brunswick,United States,BQK,KBQK,31.2588,-81.4665,26,-5,A,"Brunswick, GA",78,78,78,78,3.3846153846153846,14.615384615384615,6.0,46.0,"Thu, Jul  9, 2015","Mon, Jul 20, 2015"
6957,Brainerd Lakes Regional,Brainerd,United States,BRD,KBRD,46.398308,-94.138078,1226,-6,U,"Brainerd, MN",61,61,62,62,5.3770491803278695,19.67213114754099,10.0,68.0,"Tue, Jul 21, 2015","Sun, Jul  5, 2015"
3738,Brownsville South Padre Island International,Brownsville,United States,BRO,KBRO,25.906833,-97.425861,22,-6,A,"Brownsville, TX",234,233,236,236,5.337606837606837,10.635193133047208,36.0,25.0,"Tue, Jul 21, 2015","Tue, Jul  7, 2015"
3571,Wiley Post Will Rogers Memorial,Barrow,United States,BRW,PABR,71.285446,-156.766003,44,-9,A,"Barrow, AK",70,70,79,79,4.114285714285714,7.042857142857143,7.0,19.0,"Thu, Jul  2, 2015","Tue, Jul 21, 2015"
4022,Bert Mooney Airport,Butte,United States,BTM,KBTM,45.954806,-112.497472,5550,-7,A,"Butte, MT",62,62,62,62,4.016129032258064,9.645161290322577,8.0,19.0,"Sat, Jul 25, 2015","Thu, Jul 16, 2015"
3846,Baton Rouge Metro-Ryan Field,Baton Rouge,United States,BTR,KBTR,30.533167,-91.149639,70,-6,A,"Baton Rouge, LA",671,671,675,675,5.481371087928466,12.268256333830102,35.0,80.0,"Sun, Jul 19, 2015","Thu, Jul 30, 2015"
3711,Burlington International,Burlington,United States,BTV,KBTV,44.471861,-73.153278,335,-5,A,"Burlington, VT",302,299,305,304,5.30132450331126,15.076923076923077,28.0,70.0,"Tue, Jul 21, 2015","Tue, Jul  7, 2015"
3820,Buffalo Niagara International,Buffalo,United States,BUF,KBUF,42.940525,-78.732167,724,-5,A,"Buffalo, NY",1661,1662,1683,1683,4.083684527393139,11.823706377858002,29.0,82.0,"Mon, Jul  6, 2015","Sat, Jul 18, 2015"
3644,Bob Hope,Burbank,United States,BUR,KBUR,34.200667,-118.358667,778,-8,A,"Burbank, CA",1794,1793,1821,1821,3.007803790412487,12.096486335750148,27.0,75.0,"Sat, Jul 18, 2015","Sat, Jul 18, 2015"
3849,Baltimore Washington International,Baltimore,United States,BWI,KBWI,39.175361,-76.668333,146,-5,A,"Baltimore, MD",8695,8693,8745,8745,8.203335250143773,14.570343954906244,119.0,145.0,"Thu, Jul 30, 2015","Mon, Jul  6, 2015"
4020,Gallatin Field,Bozeman,United States,BZN,KBZN,45.777643,-111.160151,4500,-7,A,"Bozeman, MT",512,509,513,512,5.390624999999998,13.223968565815323,49.0,67.0,"Tue, Jul 21, 2015","Mon, Jul  6, 2015"
3561,Columbia Metropolitan,Colombia,United States,CAE,KCAE,33.938833,-81.119528,236,-5,A,"Columbia, SC",457,456,461,460,4.214442013129105,14.024122807017545,20.0,72.0,"Fri, Jul 10, 2015","Tue, Jul 28, 2015"
4112,Akron Canton Regional Airport,Akron,United States,CAK,KCAK,40.9160833,-81.4421944,1228,-5,A,"Akron, OH",575,574,579,579,4.643478260869565,11.32578397212544,18.0,41.0,"Sun, Jul  5, 2015","Mon, Jul 20, 2015"
3824,Cedar City Regional,Cedar City,United States,CDC,KCDC,37.700967,-113.098847,5622,-7,A,"Cedar City, UT",54,54,54,54,3.8333333333333335,12.722222222222221,6.0,36.0,"Fri, Jul 31, 2015","Thu, Jul 16, 2015"
3610,Merle K. Mudhole Smith,Cordova,United States,CDV,PACV,60.491778,-145.477556,48,-9,A,"Cordova, AK",62,62,62,62,3.951612903225806,9.048387096774196,14.0,27.0,"Fri, Jul  3, 2015","Wed, Jul 29, 2015"
3578,Lovell Field,Chattanooga,United States,CHA,KCHA,35.035278,-85.203808,683,-5,A,"Chattanooga, TN",401,401,403,403,4.498753117206985,14.775561097256858,44.0,75.0,"Fri, Jul 24, 2015","Mon, Jul 27, 2015"
4015,Charlottesville-Albemarle,Charlottesville VA,United States,CHO,KCHO,38.138639,-78.452861,639,-5,A,"Charlottesville, VA",195,193,205,205,4.558974358974357,14.124352331606218,51.0,70.0,"Thu, Jul 30, 2015","Tue, Jul 28, 2015"
3806,Charleston AFB International,Charleston,United States,CHS,KCHS,32.898647,-80.040528,45,-5,A,"Charleston, SC",1167,1161,1182,1183,6.166238217652095,14.536606373815676,38.0,107.0,"Sat, Jul 18, 2015","Thu, Jul  2, 2015"
4043,Cedar Rapids,Cedar Rapids,United States,CID,KCID,41.884694,-91.710806,869,-6,A,"Cedar Rapids/Iowa City, IA",701,697,712,710,5.680456490727534,12.57819225251075,70.0,58.0,"Sun, Jul 26, 2015","Fri, Jul 10, 2015"
5729,Chippewa County International Airport,Sault Ste. Marie,United States,CIU,KCIU,46.2508,-84.4724,800,-5,A,"Sault Ste. Marie, MI",62,61,62,61,4.177419354838708,17.737704918032787,8.0,56.0,"Mon, Jul  6, 2015","Tue, Jul 14, 2015"
3486,Cleveland Hopkins International,Cleveland,United States,CLE,KCLE,41.411689,-81.849794,791,-5,A,"Cleveland, OH",3323,3310,3367,3364,6.240445380680106,12.780060422960727,45.0,99.0,"Thu, Jul  9, 2015","Sun, Jul 26, 2015"
3715,Easterwood Field,College Station,United States,CLL,KCLL,30.588583,-96.363833,321,-6,A,"College Station/Bryan, TX",215,214,216,215,4.734883720930232,8.686915887850468,13.0,22.0,"Thu, Jul  9, 2015","Wed, Jul  8, 2015"
3876,Charlotte Douglas International,Charlotte,United States,CLT,KCLT,35.214,-80.943139,748,-5,A,"Charlotte, NC",9309,9327,9370,9370,9.948222150606904,20.43186447946816,84.0,131.0,"Sat, Jul 18, 2015","Wed, Jul  8, 2015"
3759,Port Columbus International,Columbus,United States,CMH,KCMH,39.997972,-82.891889,815,-5,A,"Columbus, OH",2338,2333,2361,2360,6.051753635585968,12.319759965709373,62.0,107.0,"Sun, Jul 12, 2015","Mon, Jul  6, 2015"
4049,Champaign,Champaign,United States,CMI,KCMI,40.03925,-88.278056,754,-6,A,"Champaign/Urbana, IL",175,175,179,179,3.7657142857142856,10.582857142857144,17.0,48.0,"Thu, Jul 30, 2015","Thu, Jul 16, 2015"
5732,Houghton County Memorial Airport,Hancock,United States,CMX,KCMX,47.1684,-88.4891,1095,-5,A,"Hancock/Houghton, MI",60,60,62,63,4.816666666666666,13.716666666666667,12.0,30.0,"Wed, Jul 29, 2015","Sat, Jul 18, 2015"
4344,Yellowstone Regional,Cody,United States,COD,KCOD,44.520194,-109.023806,5102,-7,A,"Cody, WY",98,98,98,98,4.540816326530607,17.622448979591837,7.0,71.0,"Sun, Jul 12, 2015","Tue, Jul  7, 2015"
3819,City Of Colorado Springs Municipal,Colorado Springs,United States,COS,KCOS,38.805805,-104.700778,6187,-7,A,"Colorado Springs, CO",632,634,640,643,6.583860759493674,17.462145110410102,102.0,71.0,"Wed, Jul 15, 2015","Thu, Jul  2, 2015"
3719,Columbia Regional,Columbia,United States,COU,KCOU,38.818094,-92.219631,889,-6,A,"Columbia, MO",120,119,121,121,3.816666666666667,13.058823529411768,12.0,37.0,"Mon, Jul 27, 2015","Sun, Jul 12, 2015"
3872,Natrona County International,Casper,United States,CPR,KCPR,42.908,-106.464417,5347,-7,A,"Casper, WY",212,210,213,212,4.8066037735849045,12.261904761904763,12.0,31.0,"Thu, Jul  2, 2015","Tue, Jul 14, 2015"
3744,Corpus Christi International,Corpus Christi,United States,CRP,KCRP,27.770361,-97.501222,44,-6,A,"Corpus Christi, TX",365,365,367,367,5.147945205479451,11.20821917808219,36.0,34.0,"Wed, Jul  1, 2015","Wed, Jul  8, 2015"
4285,Yeager,Charleston,United States,CRW,KCRW,38.373147,-81.593189,981,-5,A,"Charleston/Dunbar, WV",221,220,223,223,3.941176470588236,12.945454545454545,22.0,42.0,"Fri, Jul 10, 2015","Fri, Jul 31, 2015"
4255,Columbus Metropolitan Airport,Columbus,United States,CSG,KCSG,32.5163333,-84.9388611,397,-5,A,"Columbus, GA",102,102,102,102,2.9901960784313735,12.245098039215685,6.0,52.0,"Mon, Jul 13, 2015","Mon, Jul 27, 2015"
3488,Cincinnati Northern Kentucky International,Cincinnati,United States,CVG,KCVG,39.048836,-84.667822,896,-5,A,"Cincinnati, OH",1895,1888,1918,1919,7.459102902374668,14.282838983050848,123.0,127.0,"Mon, Jul 13, 2015","Mon, Jul 13, 2015"
4045,Central Wisconsin,Wassau,United States,CWA,KCWA,44.772726,-89.646635,840,-6,A,"Mosinee, WI",114,114,118,118,3.9473684210526314,9.868421052631579,18.0,38.0,"Mon, Jul 13, 2015","Mon, Jul  6, 2015"
3950,Daytona Beach International,Daytona Beach,United States,DAB,KDAB,29.179917,-81.058056,34,-5,A,"Daytona Beach, FL",149,149,149,149,4.214765100671144,13.624161073825503,6.0,42.0,"Thu, Jul  2, 2015","Sun, Jul  5, 2015"
3502,Dallas Love Field,Dallas,United States,DAL,KDAL,32.847111,-96.851778,487,-6,A,"Dallas, TX",5539,5545,5582,5581,5.836793645062288,10.817132551848529,63.0,101.0,"Sun, Jul 12, 2015","Wed, Jul  8, 2015"
3627,James M. Cox Dayton International,Dayton,United States,DAY,KDAY,39.902375,-84.219375,1009,-5,A,"Dayton, OH",896,891,907,907,6.6004464285714315,14.519640852974192,117.0,74.0,"Mon, Jul 13, 2015","Wed, Jul 29, 2015"
4388,Dubuque Regional,Dubuque IA,United States,DBQ,KDBQ,42.402,-90.709472,1076,-6,A,"Dubuque, IA",87,87,88,88,4.137931034482758,11.091954022988505,8.0,25.0,"Thu, Jul 16, 2015","Mon, Jul 13, 2015"
3520,Ronald Reagan Washington National,Washington,United States,DCA,KDCA,38.852083,-77.037722,15,-5,A,"Washington, DC",6787,6786,6892,6891,5.8050685133343025,19.377689360447956,125.0,142.0,"Thu, Jul 30, 2015","Thu, Jul  9, 2015"
3751,Denver International,Denver,United States,DEN,KDEN,39.861656,-104.673178,5431,-7,A,"Denver, CO",18944,18958,19083,19076,7.952122043918956,14.94709357527159,96.0,151.0,"Fri, Jul 10, 2015","Thu, Jul 30, 2015"
3670,Dallas Fort Worth International,Dallas-fort Worth,United States,DFW,KDFW,32.896828,-97.037997,607,-6,A,"Dallas/Fort Worth, TX",22735,22800,22895,22895,11.948097646800036,16.657017543859542,92.0,136.0,"Sat, Jul 18, 2015","Thu, Jul 30, 2015"
3739,Dothan Regional,Dothan,United States,DHN,KDHN,31.321339,-85.449628,401,-6,A,"Dothan, AL",118,118,118,118,3.6440677966101696,13.872881355932204,11.0,68.0,"Wed, Jul 22, 2015","Wed, Jul  1, 2015"
7064,Dickinson Theodore Roosevelt Regional Airport,Dickinson,United States,DIK,KDIK,46.7975,-102.801944,2592,-5,A,"Dickinson, ND",64,64,64,64,5.265625,14.875,8.0,49.0,"Thu, Jul 30, 2015","Mon, Jul  6, 2015"
3460,Dillingham,Dillingham,United States,DLG,PADL,59.044667,-158.5055,74,-9,A,"Dillingham, AK",31,31,31,31,3.5806451612903225,8.129032258064516,6.0,26.0,"Sat, Jul  4, 2015","Mon, Jul 20, 2015"
3598,Duluth International,Duluth,United States,DLH,KDLH,46.842091,-92.193649,1428,-6,A,"Duluth, MN",150,148,153,153,5.466666666666667,13.952702702702704,11.0,68.0,"Wed, Jul  8, 2015","Sat, Jul 11, 2015"
3713,Durango La Plata County,Durango,United States,DRO,KDRO,37.151516,-107.75377,6685,-7,A,"Durango, CO",206,206,208,208,4.893203883495144,12.79611650485437,16.0,86.0,"Wed, Jul  8, 2015","Thu, Jul  2, 2015"
3729,Des Moines International,Des Moines,United States,DSM,KDSM,41.533972,-93.663083,958,-6,A,"Des Moines, IA",779,782,787,788,5.426187419768931,12.621483375959079,25.0,83.0,"Tue, Jul 28, 2015","Mon, Jul 13, 2015"
3645,Detroit Metro Wayne County,Detroit,United States,DTW,KDTW,42.212444,-83.353389,645,-5,A,"Detroit, MI",10436,10443,10494,10503,7.448064392487547,16.79795078042704,55.0,127.0,"Fri, Jul 17, 2015","Tue, Jul 21, 2015"
7063,Devils Lake Regional Airport,Devils Lake,United States,DVL,KDVL,48.114444,-98.908611,1445,-6,A,"Devils Lake, ND",48,49,50,50,5.166666666666667,14.204081632653061,8.0,33.0,"Thu, Jul  2, 2015","Sat, Jul  4, 2015"
5735,Chippewa Valley Regional Airport,Eau Claire,United States,EAU,KEAU,44.8658,-91.4843,913,-6,A,"Eau Claire, WI",60,58,62,62,3.783333333333333,12.431034482758621,6.0,68.0,"Thu, Jul  2, 2015","Mon, Jul 13, 2015"
7669,Northwest Florida Beaches International,Panama City,United States,ECP,KECP,30.3417,-85.7973,69,-6,A,"Panama City, FL",488,487,490,490,3.84016393442623,11.98562628336756,34.0,71.0,"Sat, Jul 25, 2015","Thu, Jul  9, 2015"
4250,Eagle County Regional,Vail,United States,EGE,KEGE,39.642556,-106.917694,6540,-7,A,"Eagle, CO",44,44,44,44,5.249999999999999,12.749999999999998,12.0,20.0,"Sat, Jul 11, 2015","Mon, Jul 13, 2015"
5736,Elko Regional Airport,Elko,United States,EKO,KEKO,40.8249,-115.792,5140,-8,A,"Elko, NV",57,57,58,58,4.5964912280701755,9.385964912280706,6.0,25.0,"Tue, Jul 21, 2015","Fri, Jul 24, 2015"
3946,Elmira Corning Regional,Elmira,United States,ELM,KELM,42.159889,-76.891611,954,-5,A,"Elmira/Corning, NY",197,197,201,201,3.979695431472083,15.578680203045673,15.0,92.0,"Thu, Jul 30, 2015","Wed, Jul 29, 2015"
3559,El Paso International,El Paso,United States,ELP,KELP,31.80725,-106.377583,3958,-7,A,"El Paso, TX",1136,1133,1142,1142,4.269366197183099,12.954986760812002,26.0,98.0,"Thu, Jul  2, 2015","Wed, Jul  8, 2015"
4276,Erie International-Tom Ridge Field,Erie,United States,ERI,KERI,42.082022,-80.176217,733,-5,A,"Erie, PA",60,58,61,61,5.616666666666668,13.862068965517242,9.0,42.0,"Wed, Jul  1, 2015","Thu, Jul  9, 2015"
6800,Delta County Airport,Escanaba,United States,ESC,KESC,45.722778,-87.093611,609,-5,A,"Escanaba, MI",54,53,54,54,4.907407407407406,11.39622641509434,10.0,27.0,"Sun, Jul  5, 2015","Fri, Jul 31, 2015"
4099,Mahlon Sweet Field,Eugene,United States,EUG,KEUG,44.124583,-123.211972,374,-8,A,"Eugene, OR",359,359,364,364,4.426183844011145,13.420612813370479,10.0,70.0,"Fri, Jul 31, 2015","Wed, Jul  8, 2015"
4018,Evansville Regional,Evansville,United States,EVV,KEVV,38.036997,-87.532364,418,-6,A,"Evansville, IN",395,390,398,397,4.243037974683548,15.771794871794876,21.0,93.0,"Tue, Jul 21, 2015","Mon, Jul  6, 2015"
3730,Craven County Regional,New Bern,United States,EWN,KEWN,35.072972,-77.042944,18,-5,A,"New Bern/Morehead/Beaufort, NC",57,57,57,57,3.0,10.964912280701755,6.0,31.0,"Sun, Jul 26, 2015","Thu, Jul  2, 2015"
3494,Newark Liberty International,Newark,United States,EWR,KEWR,40.6925,-74.168667,18,-5,A,"Newark, NJ",9670,9643,9908,9871,9.905584281282351,21.545680804728956,78.0,150.0,"Tue, Jul 21, 2015","Sat, Jul 18, 2015"
3875,Key West International,Key West,United States,EYW,KEYW,24.556111,-81.759556,3,-5,A,"Key West, FL",157,157,157,157,3.2484076433121003,10.07006369426752,15.0,71.0,"Thu, Jul  2, 2015","Wed, Jul 15, 2015"
3832,Fairbanks International,Fairbanks,United States,FAI,PAFA,64.815114,-147.856267,434,-9,A,"Fairbanks, AK",276,279,279,279,3.8224637681159406,10.709677419354838,22.0,30.0,"Sun, Jul  5, 2015","Tue, Jul 14, 2015"
4292,Hector International Airport,Fargo,United States,FAR,KFAR,46.92065,-96.8157639,902,-6,A,"Fargo, ND",622,619,627,626,5.381028938906756,15.79967689822293,30.0,77.0,"Sun, Jul 26, 2015","Thu, Jul 23, 2015"
3687,Fresno Yosemite International,Fresno,United States,FAT,KFAT,36.776194,-119.71814,336,-8,A,"Fresno, CA",657,654,662,662,5.042617960426181,16.524464831804245,18.0,90.0,"Sat, Jul 18, 2015","Mon, Jul  6, 2015"
5738,Fayetteville Regional-Grannis Field,Fayetteville,United States,FAY,KFAY,34.9912,-78.8803,189,-5,A,"Fayetteville, NC",149,149,149,149,4.181208053691273,14.026845637583893,11.0,76.0,"Fri, Jul 31, 2015","Sun, Jul 19, 2015"
4127,Glacier Park International,Kalispell,United States,FCA,KFCA,48.310472,-114.256,2977,-7,A,"Kalispell, MT",317,315,317,316,4.605678233438488,14.292063492063493,26.0,71.0,"Sat, Jul  4, 2015","Mon, Jul  6, 2015"
4261,Flagstaff Pulliam Airport,Flagstaff,United States,FLG,KFLG,35.140318,-111.6692392,7015,-7,N,"Flagstaff, AZ",178,179,182,182,4.415730337078649,15.212290502793296,28.0,60.0,"Sun, Jul  5, 2015","Fri, Jul 17, 2015"
3533,Fort Lauderdale Hollywood International,Fort Lauderdale,United States,FLL,KFLL,26.072583,-80.15275,9,-5,A,"Fort Lauderdale, FL",6413,6418,6444,6447,6.108529549352876,15.631660953568035,75.0,84.0,"Fri, Jul 31, 2015","Sun, Jul  5, 2015"
4089,Bishop International,Flint,United States,FNT,KFNT,42.965424,-83.743629,782,-5,A,"Flint, MI",459,460,468,468,4.4749455337690645,10.863043478260872,17.0,71.0,"Thu, Jul  9, 2015","Thu, Jul 16, 2015"
4009,Sioux Falls,Sioux Falls,United States,FSD,KFSD,43.582014,-96.741914,1429,-6,A,"Sioux Falls, SD",481,482,487,487,4.71933471933472,15.08713692946058,25.0,80.0,"Fri, Jul 10, 2015","Sat, Jul 18, 2015"
3437,Fort Smith Regional,Fort Smith,United States,FSM,KFSM,35.336583,-94.367444,469,-6,A,"Fort Smith, AR",171,172,172,172,4.029239766081871,10.412790697674417,10.0,29.0,"Wed, Jul 15, 2015","Sun, Jul 19, 2015"
4041,Fort Wayne,Fort Wayne,United States,FWA,KFWA,40.978472,-85.195139,815,-5,A,"Fort Wayne, IN",514,515,527,527,4.643968871595331,14.87378640776699,26.0,61.0,"Mon, Jul 27, 2015","Sat, Jul 11, 2015"
4296,Gillette-Campbell County Airport,Gillette,United States,GCC,KGCC,44.3489167,-105.5393611,4365,-7,A,"Gillette, WY",89,89,89,89,5.7078651685393265,14.03370786516854,16.0,38.0,"Sun, Jul  5, 2015","Tue, Jul  7, 2015"
3497,Garden City Regional,Garden City,United States,GCK,KGCK,37.927528,-100.724417,2891,-6,A,"Garden City, KS",62,62,62,62,5.612903225806452,9.225806451612904,11.0,24.0,"Tue, Jul 28, 2015","Fri, Jul 31, 2015"
3467,Spokane International,Spokane,United States,GEG,KGEG,47.619861,-117.533833,2376,-8,A,"Spokane, WA",928,928,929,929,4.7165948275862055,11.83836206896552,23.0,81.0,"Thu, Jul 30, 2015","Wed, Jul  8, 2015"
3442,Grand Forks International,Grand Forks,United States,GFK,KGFK,47.949256,-97.176111,845,-6,A,"Grand Forks, ND",33,34,33,34,4.424242424242424,16.58823529411765,9.0,38.0,"Thu, Jul 30, 2015","Sun, Jul 19, 2015"
3465,East Texas Regional,Longview,United States,GGG,KGGG,32.384014,-94.711486,365,-6,A,"Longview, TX",61,60,61,61,4.836065573770493,7.666666666666667,11.0,14.0,"Fri, Jul 17, 2015","Thu, Jul 16, 2015"
4063,Grand Junction Regional,Grand Junction,United States,GJT,KGJT,39.122413,-108.526735,4858,-7,A,"Grand Junction, CO",288,286,288,289,3.9548611111111125,13.650349650349655,21.0,61.0,"Sat, Jul 25, 2015","Fri, Jul 24, 2015"
3472,Gainesville Regional,Gainesville,United States,GNV,KGNV,29.690056,-82.271778,152,-5,A,"Gainesville, FL",242,243,243,243,3.458677685950413,13.761316872427983,23.0,51.0,"Fri, Jul 10, 2015","Sat, Jul 11, 2015"
4038,Gulfport-Biloxi,Gulfport,United States,GPT,KGPT,30.407278,-89.070111,28,-6,A,"Gulfport/Biloxi, MS",332,332,332,332,4.632530120481928,12.259036144578316,15.0,60.0,"Tue, Jul 21, 2015","Thu, Jul 30, 2015"
3653,Austin Straubel International,Green Bay,United States,GRB,KGRB,44.485072,-88.129589,695,-6,A,"Green Bay, WI",534,535,545,545,4.046816479400753,13.216822429906545,11.0,71.0,"Tue, Jul  7, 2015","Mon, Jul  6, 2015"
5740,Central Nebraska Regional Airport,Grand Island,United States,GRI,KGRI,40.9675,-98.3096,1847,-6,A,"Grand Island, NE",58,57,58,58,5.120689655172414,9.491228070175435,10.0,45.0,"Tue, Jul 21, 2015","Mon, Jul 27, 2015"
3775,Robert Gray AAF,Killeen,United States,GRK,KGRK,31.06725,-97.828917,1015,-6,A,"Killeen, TX",375,373,377,376,3.464,12.093833780160868,20.0,46.0,"Fri, Jul 31, 2015","Mon, Jul  6, 2015"
3685,Gerald R. Ford International,Grand Rapids,United States,GRR,KGRR,42.880833,-85.522806,794,-5,A,"Grand Rapids, MI",956,962,979,978,4.798117154811713,12.766112266112263,33.0,92.0,"Mon, Jul 13, 2015","Mon, Jul  6, 2015"
4008,Piedmont Triad,Greensboro,United States,GSO,KGSO,36.09775,-79.937306,925,-5,A,"Greensboro/High Point, NC",530,528,547,549,4.277358490566033,16.335227272727266,22.0,97.0,"Mon, Jul 20, 2015","Fri, Jul 31, 2015"
4034,Greenville-Spartanburg International,Greenville,United States,GSP,KGSP,34.895556,-82.218889,964,-5,A,"Greer, SC",588,588,591,591,4.22959183673469,14.005102040816327,42.0,59.0,"Sun, Jul 19, 2015","Tue, Jul 21, 2015"
5960,Gustavus Airport,Gustavus,United States,GST,PAGS,58.4253,-135.707,34,-9,A,"Gustavus, AK",30,30,31,31,4.366666666666666,9.8,8.0,29.0,"Wed, Jul  8, 2015","Sat, Jul 18, 2015"
3880,Great Falls International,Great Falls,United States,GTF,KGTF,47.482,-111.370689,3677,-7,A,"Great Falls, MT",230,230,233,233,4.573913043478261,12.530434782608696,10.0,42.0,"Fri, Jul  3, 2015","Wed, Jul  1, 2015"
4273,Golden Triangle Regional Airport,Columbus Mississippi,United States,GTR,KGTR,33.450333,-88.591361,264,-6,A,"Columbus, MS",87,87,87,87,2.9310344827586206,12.724137931034482,13.0,30.0,"Wed, Jul 15, 2015","Wed, Jul  1, 2015"
7051,Gunnison - Crested Butte,Gunnison,United States,GUC,KGUC,38.533889,-106.933056,7678,-7,A,"Gunnison, CO",50,49,50,50,4.279999999999999,14.73469387755102,6.0,31.0,"Mon, Jul  6, 2015","Mon, Jul 27, 2015"
4339,Yampa Valley,Hayden,United States,HDN,KHDN,40.481181,-107.21766,6602,-7,A,"Hayden, CO",31,31,31,31,4.064516129032258,14.0,8.0,29.0,"Fri, Jul  3, 2015","Sat, Jul 25, 2015"
3650,Chisholm Hibbing,Hibbing,United States,HIB,KHIB,47.3866,-92.838994,1353,-6,A,"Hibbing, MN",83,83,85,85,5.048192771084337,14.144578313253012,14.0,45.0,"Fri, Jul 24, 2015","Wed, Jul 29, 2015"
3504,Helena Regional,Helena,United States,HLN,KHLN,46.606806,-111.98275,3877,-7,A,"Helena, MT",146,146,146,146,3.9726027397260273,11.698630136986298,12.0,23.0,"Sat, Jul 18, 2015","Sat, Jul 25, 2015"
3728,Honolulu International,Honolulu,United States,HNL,PHNL,21.318681,-157.922428,13,-10,N,"Honolulu, HI",4291,4289,4308,4307,8.317874621300415,15.614595476801068,72.0,66.0,"Sat, Jul 25, 2015","Tue, Jul 28, 2015"
3749,Lea County Regional,Hobbs,United States,HOB,KHOB,32.687528,-103.217028,3661,-7,A,"Hobbs, NM",57,57,58,58,6.017543859649122,11.684210526315793,16.0,32.0,"Mon, Jul 20, 2015","Wed, Jul 15, 2015"
3566,William P. Hobby,Houston,United States,HOU,KHOU,29.645419,-95.278889,46,-6,A,"Houston, TX",5046,5052,5086,5086,6.8561236623067705,9.51959619952494,51.0,80.0,"Wed, Jul  1, 2015","Fri, Jul 31, 2015"
3589,Westchester County,White Plains,United States,HPN,KHPN,41.066959,-73.707575,439,-5,A,"White Plains, NY",692,692,698,699,4.843930635838157,16.832369942196536,49.0,96.0,"Thu, Jul 30, 2015","Thu, Jul  2, 2015"
3560,Valley International,Harlingen,United States,HRL,KHRL,26.2285,-97.654389,36,-6,A,"Harlingen/San Benito, TX",289,288,289,289,3.0173010380622842,9.944444444444452,8.0,52.0,"Tue, Jul  7, 2015","Thu, Jul  9, 2015"
4113,Huntsville International Airport-Carl T. Jones Field,Huntsville,United States,HSV,KHSV,34.6371944,-86.7750556,629,-6,A,"Huntsville, AL",422,421,424,424,4.834123222748817,14.562945368171022,12.0,64.0,"Thu, Jul 23, 2015","Fri, Jul  3, 2015"
4278,Barnstable Municipal-Boardman Polando Field,Barnstable,United States,HYA,KHYA,41.669336,-70.280356,55,-5,A,"Hyannis, MA",31,31,31,31,3.6451612903225805,10.64516129032258,9.0,33.0,"Sat, Jul 11, 2015","Sat, Jul 18, 2015"
7014,Hays Regional Airport,Hays,United States,HYS,KHYS,38.8422,-99.2732,1998,-5,A,"Hays, KS",52,52,54,54,5.249999999999999,12.75,16.0,79.0,"Fri, Jul 10, 2015","Wed, Jul 15, 2015"
3714,Washington Dulles International,Washington,United States,IAD,KIAD,38.944533,-77.455811,313,-5,A,"Washington, DC",3300,3298,3334,3334,6.809393939393937,17.49787750151611,48.0,117.0,"Mon, Jul 27, 2015","Sat, Jul 18, 2015"
3630,Niagara Falls International,Niagara Falls,United States,IAG,KIAG,43.107333,-78.946194,589,-5,A,"Niagara Falls, NY",27,27,27,27,7.185185185185185,14.185185185185185,13.0,26.0,"Fri, Jul 31, 2015","Fri, Jul 24, 2015"
3550,George Bush Intercontinental Houston,Houston,United States,IAH,KIAH,29.984433,-95.341442,97,-6,A,"Houston, TX",13874,13909,14037,14029,8.701600115323698,16.84082248903588,96.0,116.0,"Wed, Jul  8, 2015","Sat, Jul 18, 2015"
3457,Wichita Mid Continent,Wichita,United States,ICT,KICT,37.649944,-97.433056,1333,-6,A,"Wichita, KS",769,769,779,780,5.664499349804941,12.068920676202863,39.0,65.0,"Thu, Jul 16, 2015","Tue, Jul 14, 2015"
4100,Idaho Falls Regional,Idaho Falls,United States,IDA,KIDA,43.514556,-112.07075,4744,-7,A,"Idaho Falls, ID",264,263,265,265,4.34469696969697,10.441064638783272,9.0,54.0,"Mon, Jul 27, 2015","Thu, Jul  2, 2015"
3845,Wilmington International,Wilmington,United States,ILM,KILM,34.270615,-77.902569,32,-5,A,"Wilmington, NC",193,196,198,197,3.435233160621761,12.882653061224495,9.0,56.0,"Fri, Jul 10, 2015","Thu, Jul 23, 2015"
6837,Ford Airport,Iron Mountain,United States,IMT,KIMT,45.8183611,-88.1145556,1182,-5,A,"Iron Mountain/Kingsfd, MI",57,57,58,58,4.526315789473682,16.157894736842096,7.0,39.0,"Fri, Jul  3, 2015","Thu, Jul 16, 2015"
3585,Indianapolis International,Indianapolis,United States,IND,KIND,39.717331,-86.294383,797,-5,A,"Indianapolis, IN",2530,2516,2551,2553,6.052964426877471,12.95230524642291,111.0,108.0,"Fri, Jul 17, 2015","Fri, Jul 17, 2015"
3535,Falls International,International Falls,United States,INL,KINL,48.566186,-93.403067,1185,-6,A,"International Falls, MN",52,52,53,53,4.7115384615384635,16.403846153846153,16.0,54.0,"Fri, Jul 24, 2015","Mon, Jul 27, 2015"
3659,Sloulin Field International,Williston,United States,ISN,KISN,48.177939,-103.642347,1982,-7,A,"Williston, ND",248,248,249,249,5.584677419354839,18.685483870967747,13.0,74.0,"Mon, Jul 27, 2015","Thu, Jul  9, 2015"
3857,Long Island MacArthur,Islip,United States,ISP,KISP,40.79525,-73.100222,99,-5,A,"Islip, NY",405,404,406,406,4.540740740740742,9.799504950495047,14.0,93.0,"Wed, Jul 22, 2015","Tue, Jul 21, 2015"
3415,Hilo International,Hilo,United States,ITO,PHTO,19.721375,-155.048469,38,-10,N,"Hilo, HI",564,564,564,564,5.214539007092198,8.441489361702143,15.0,25.0,"Thu, Jul  9, 2015","Wed, Jul 29, 2015"
4027,Jackson Hole Airport,Jacksn Hole,United States,JAC,KJAC,43.60733333,-110.73775,6451,-7,A,"Jackson, WY",477,476,479,476,3.570230607966457,15.172268907563028,9.0,100.0,"Sun, Jul  5, 2015","Tue, Jul 14, 2015"
3580,Jackson Evers International,Jackson,United States,JAN,KJAN,32.311167,-90.075889,346,-6,A,"Jackson/Vicksburg, MS",695,694,699,699,4.889208633093524,11.90778097982709,29.0,52.0,"Fri, Jul  3, 2015","Sat, Jul  4, 2015"
3712,Jacksonville International,Jacksonville,United States,JAX,KJAX,30.494056,-81.687861,30,-5,A,"Jacksonville, FL",1734,1735,1747,1746,5.153402537485578,13.870893371757925,38.0,142.0,"Sat, Jul  4, 2015","Sat, Jul 18, 2015"
3797,John F. Kennedy International,New York,United States,JFK,KJFK,40.639751,-73.778925,13,-5,A,"New York, NY",9135,9146,9237,9238,8.287794198139014,30.5042641591953,82.0,152.0,"Thu, Jul 30, 2015","Thu, Jul 30, 2015"
4354,Joplin Regional,Joplin,United States,JLN,KJLN,37.151814,-94.498269,981,-6,A,"Joplin, MO",60,60,62,62,6.433333333333334,11.983333333333333,41.0,26.0,"Sat, Jul 18, 2015","Tue, Jul 21, 2015"
5745,Jamestown Regional Airport,Jamestown,United States,JMS,KJMS,46.9297,-98.6782,1498,-6,A,"Jamestown, ND",75,75,77,77,5.0,13.639999999999999,36.0,23.0,"Thu, Jul 23, 2015","Fri, Jul  3, 2015"
3492,Juneau International,Juneau,United States,JNU,PAJN,58.354972,-134.576278,21,-9,A,"Juneau, AK",520,521,523,523,4.921153846153846,14.481765834932819,20.0,47.0,"Sun, Jul 19, 2015","Wed, Jul  1, 2015"
3514,Kona International At Keahole,Kona,United States,KOA,PHKO,19.738767,-156.045631,47,-10,N,"Kona, HI",1172,1169,1173,1173,4.912969283276452,10.159965782720272,37.0,29.0,"Wed, Jul  8, 2015","Wed, Jul  1, 2015"
3808,Ketchikan International,Ketchikan,United States,KTN,PAKT,55.355556,-131.71375,88,-9,A,"Ketchikan, AK",280,279,280,279,4.2071428571428555,11.612903225806452,21.0,36.0,"Thu, Jul  9, 2015","Sat, Jul 11, 2015"
3544,Capital City,Lansing,United States,LAN,KLAN,42.7787,-84.587357,861,-5,A,"Lansing, MI",167,167,170,170,4.610778443113773,12.598802395209582,15.0,61.0,"Sat, Jul 25, 2015","Thu, Jul 16, 2015"
5746,Laramie Regional Airport,Laramie,United States,LAR,KLAR,41.3121,-105.675,7284,-7,A,"Laramie, WY",54,54,54,54,4.518518518518519,13.592592592592593,8.0,53.0,"Tue, Jul  7, 2015","Tue, Jul  7, 2015"
3877,McCarran International,Las Vegas,United States,LAS,KLAS,36.080056,-115.15225,2141,-8,A,"Las Vegas, NV",12636,12624,12692,12687,7.315527065527066,14.282715462610904,78.0,143.0,"Sun, Jul  5, 2015","Mon, Jul  6, 2015"
4256,Lawton-Fort Sill Regional Airport,Lawton,United States,LAW,KLAW,34.5677144,-98.4166367,1110,-6,A,"Lawton/Fort Sill, OK",122,120,123,123,4.327868852459014,8.924999999999999,12.0,29.0,"Thu, Jul  2, 2015","Wed, Jul  8, 2015"
3484,Los Angeles International,Los Angeles,United States,LAX,KLAX,33.942536,-118.408075,126,-8,A,"Los Angeles, CA",19073,19091,19365,19371,12.369317883919688,18.823372269655845,91.0,133.0,"Tue, Jul 14, 2015","Sat, Jul 18, 2015"
3829,Lubbock Preston Smith International,Lubbock,United States,LBB,KLBB,33.663639,-101.822778,3282,-6,A,"Lubbock, TX",419,419,422,423,4.620525059665869,10.572792362768496,13.0,36.0,"Sat, Jul 25, 2015","Sun, Jul 26, 2015"
5747,Arnold Palmer Regional Airport,Latrobe,United States,LBE,KLBE,40.2759,-79.4048,1185,-5,A,"Latrobe, PA",143,143,146,146,5.573426573426573,12.216783216783217,29.0,52.0,"Mon, Jul 20, 2015","Fri, Jul 17, 2015"
3513,Lake Charles Regional,Lake Charles,United States,LCH,KLCH,30.126112,-93.223335,15,-6,A,"Lake Charles, LA",155,155,156,156,5.090322580645158,12.096774193548388,24.0,36.0,"Wed, Jul 29, 2015","Sat, Jul 18, 2015"
4017,Blue Grass,Lexington KY,United States,LEX,KLEX,38.0365,-84.605889,979,-5,A,"Lexington, KY",606,606,611,611,4.704620462046204,14.615511551155118,24.0,82.0,"Thu, Jul 16, 2015","Wed, Jul  8, 2015"
3493,Lafayette Regional,Lafayette,United States,LFT,KLFT,30.205278,-91.987611,43,-6,A,"Lafayette, LA",471,469,473,473,6.072186836518051,13.588486140724946,28.0,59.0,"Thu, Jul  2, 2015","Wed, Jul  8, 2015"
3697,LaGuardia Airport,New York,United States,LGA,KLGA,40.777245,-73.872608,22,-5,A,"New York, NY",9129,9151,9475,9474,10.12761529192684,28.709102830291744,164.0,168.0,"Tue, Jul 21, 2015","Sat, Jul 18, 2015"
3582,Long Beach,Long Beach,United States,LGB,KLGB,33.817722,-118.151611,60,-8,A,"Long Beach, CA",910,910,920,920,3.7945054945054943,12.998901098901094,16.0,68.0,"Sat, Jul  4, 2015","Sun, Jul 26, 2015"
3602,Lihue,Lihue,United States,LIH,PHLI,21.975983,-159.338958,153,-10,N,"Lihue, HI",1083,1083,1086,1086,5.534626038781161,8.495844875346261,45.0,58.0,"Mon, Jul  6, 2015","Tue, Jul 21, 2015"
3660,Adams Field,Little Rock,United States,LIT,KLIT,34.729444,-92.224306,262,-6,A,"Little Rock, AR",1049,1049,1055,1057,6.080076263107721,12.36034318398475,48.0,80.0,"Thu, Jul 23, 2015","Wed, Jul 15, 2015"
3543,Lincoln,Lincoln,United States,LNK,KLNK,40.850971,-96.75925,1219,-6,A,"Lincoln, NE",229,230,237,236,4.633187772925764,11.686956521739129,23.0,56.0,"Sun, Jul 19, 2015","Tue, Jul 28, 2015"
3691,Laredo International,Laredo,United States,LRD,KLRD,27.54375,-99.461556,508,-6,A,"Laredo, TX",206,205,207,207,3.5436893203883497,10.243902439024392,11.0,25.0,"Thu, Jul 16, 2015","Wed, Jul  1, 2015"
4044,LaCrosse Municipal,LaCrosse,United States,LSE,KLSE,43.878986,-91.256711,654,-6,A,"La Crosse, WI",160,160,162,162,3.1125,11.731250000000005,7.0,73.0,"Thu, Jul  9, 2015","Tue, Jul 28, 2015"
3945,Lewiston Nez Perce County,Lewiston,United States,LWS,KLWS,46.3745,-117.015389,1442,-8,A,"Lewiston, ID",62,62,62,62,4.903225806451613,10.435483870967742,7.0,19.0,"Thu, Jul  9, 2015","Thu, Jul  9, 2015"
3652,Midland International,Midland,United States,MAF,KMAF,31.942528,-102.201914,2871,-6,A,"Midland/Odessa, TX",651,646,658,656,4.3072196620583725,12.235294117647054,42.0,91.0,"Wed, Jul 22, 2015","Sun, Jul 12, 2015"
4128,MBS International,Saginaw,United States,MBS,KMBS,43.532913,-84.079647,668,-5,A,"Saginaw/Bay City/Midland, MI",144,143,147,147,4.347222222222224,14.496503496503497,7.0,91.0,"Sun, Jul 26, 2015","Thu, Jul 16, 2015"
3458,Kansas City International,Kansas City,United States,MCI,KMCI,39.297606,-94.713905,1026,-6,A,"Kansas City, MO",3786,3793,3811,3810,5.898045430533546,12.073292907988403,34.0,70.0,"Sat, Jul 11, 2015","Mon, Jul  6, 2015"
3878,Orlando International,Orlando,United States,MCO,KMCO,28.429394,-81.308994,96,-5,A,"Orlando, FL",10460,10458,10514,10514,8.016156787762904,15.06263147829419,97.0,148.0,"Sat, Jul 25, 2015","Thu, Jul 30, 2015"
3542,Harrisburg International,Harrisburg,United States,MDT,KMDT,40.193494,-76.763403,310,-5,A,"Harrisburg, PA",276,274,280,280,4.576086956521739,12.733576642335768,20.0,76.0,"Wed, Jul  1, 2015","Thu, Jul 16, 2015"
3747,Chicago Midway International,Chicago,United States,MDW,KMDW,41.785972,-87.752417,620,-6,A,"Chicago, IL",8286,8294,8359,8359,8.681148925899123,13.111526404629856,87.0,112.0,"Mon, Jul 13, 2015","Mon, Jul  6, 2015"
4335,Key Field,Meridian,United States,MEI,KMEI,32.332624,-88.751868,297,-6,A,"Meridian, MS",85,85,85,85,3.411764705882353,9.917647058823531,6.0,20.0,"Mon, Jul 27, 2015","Thu, Jul 23, 2015"
3473,Memphis International,Memphis,United States,MEM,KMEM,35.042417,-89.976667,341,-6,A,"Memphis, TN",1347,1342,1354,1355,6.085374907201181,13.45603576751118,39.0,78.0,"Wed, Jul 29, 2015","Wed, Jul  8, 2015"
3826,McAllen Miller International,Mcallen,United States,MFE,KMFE,26.175833,-98.238611,107,-6,A,"Mission/McAllen/Edinburg, TX",252,254,259,261,4.769841269841268,10.905511811023626,14.0,46.0,"Tue, Jul 14, 2015","Wed, Jul  1, 2015"
4101,Rogue Valley International Medford,Medford,United States,MFR,KMFR,42.374228,-122.8735,1335,-8,A,"Medford, OR",243,242,245,245,4.975308641975309,14.433884297520661,31.0,45.0,"Thu, Jul  2, 2015","Thu, Jul 16, 2015"
4115,Montgomery Regional Airport ,MONTGOMERY,United States,MGM,KMGM,32.3006389,-86.3939722,221,-6,A,"Montgomery, AL",291,291,292,292,3.70446735395189,14.199312714776632,50.0,89.0,"Tue, Jul 21, 2015","Wed, Jul 22, 2015"
4050,Manhattan Regional,Manhattan,United States,MHK,KMHK,39.140972,-96.670833,1057,-6,A,"Manhattan/Ft. Riley, KS",151,151,153,153,3.543046357615894,11.55629139072848,15.0,89.0,"Wed, Jul  1, 2015","Sat, Jul 18, 2015"
4011,Manchester Regional Airport,Manchester NH,United States,MHT,KMHT,42.932556,-71.435667,266,-5,A,"Manchester, NH",588,588,594,593,4.729591836734694,11.61054421768707,15.0,41.0,"Sun, Jul 19, 2015","Wed, Jul 29, 2015"
3576,Miami International,Miami,United States,MIA,KMIA,25.79325,-80.290556,8,-5,A,"Miami, FL",6344,6341,6390,6391,10.086538461538488,18.753666614098808,106.0,115.0,"Fri, Jul  3, 2015","Tue, Jul  7, 2015"
3717,General Mitchell International,Milwaukee,United States,MKE,KMKE,42.947222,-87.896583,723,-6,A,"Milwaukee, WI",2872,2870,2897,2898,5.558495821727025,12.436236933797899,46.0,71.0,"Wed, Jul  8, 2015","Wed, Jul  1, 2015"
5754,Muskegon County Airport,Muskegon,United States,MKG,KMKG,43.1695,-86.2382,628,-5,A,"Muskegon, MI",59,60,62,62,4.762711864406778,14.083333333333334,8.0,69.0,"Tue, Jul 21, 2015","Wed, Jul 29, 2015"
3671,Melbourne International,Melbourne,United States,MLB,KMLB,28.102753,-80.645258,33,-5,A,"Melbourne, FL",131,131,132,132,5.000000000000002,14.618320610687023,20.0,75.0,"Thu, Jul  2, 2015","Wed, Jul 22, 2015"
4072,Quad City International,Moline,United States,MLI,KMLI,41.448528,-90.507539,590,-6,A,"Moline, IL",309,308,318,318,4.5307443365695805,11.76623376623376,16.0,56.0,"Thu, Jul 16, 2015","Sat, Jul 25, 2015"
3732,Monroe Regional,Monroe,United States,MLU,KMLU,32.510864,-92.037689,79,-6,A,"Monroe, LA",288,288,290,290,3.7708333333333335,11.788194444444445,11.0,41.0,"Sun, Jul  5, 2015","Thu, Jul 23, 2015"
3782,Mobile Regional,Mobile,United States,MOB,KMOB,30.691231,-88.242814,219,-6,A,"Mobile, AL",475,475,476,476,4.479999999999995,12.43578947368421,15.0,121.0,"Tue, Jul 28, 2015","Fri, Jul  3, 2015"
3498,Minot International,Minot,United States,MOT,KMOT,48.259378,-101.280333,1716,-6,A,"Minot, ND",216,213,220,218,5.060185185185187,13.732394366197184,9.0,41.0,"Fri, Jul  3, 2015","Wed, Jul 22, 2015"
6838,Sawyer International Airport,Marquette,United States,MQT,KMQT,46.353611,-87.395278,1221,-5,A,"Marquette, MI",27,27,27,27,4.962962962962963,12.37037037037037,7.0,35.0,"Fri, Jul  3, 2015","Tue, Jul 14, 2015"
3948,Monterey Peninsula,Monterey,United States,MRY,KMRY,36.587,-121.842944,257,-8,A,"Monterey, CA",291,290,303,303,4.037800687285221,16.082758620689646,19.0,67.0,"Thu, Jul  2, 2015","Sun, Jul 26, 2015"
3459,Dane County Regional-Truax Field,Madison,United States,MSN,KMSN,43.139858,-89.337514,887,-6,A,"Madison, WI",900,899,924,925,4.898888888888887,13.614015572858728,33.0,73.0,"Fri, Jul  3, 2015","Wed, Jul 29, 2015"
4216,Missoula International,Missoula,United States,MSO,KMSO,46.916306,-114.090556,3205,-7,A,"Missoula, MT",301,300,303,302,5.355481727574754,13.079999999999997,17.0,42.0,"Sat, Jul 25, 2015","Tue, Jul  7, 2015"
3858,Minneapolis St. Paul International,Minneapolis,United States,MSP,KMSP,44.881956,-93.221767,841,-6,A,"Minneapolis, MN",11749,11763,11805,11814,5.667120606009026,16.40508373714183,116.0,76.0,"Sun, Jul 12, 2015","Fri, Jul 24, 2015"
3861,Louis Armstrong New Orleans International,New Orleans,United States,MSY,KMSY,29.993389,-90.258028,4,-6,A,"New Orleans, LA",3567,3565,3576,3575,4.634707036725544,10.837868162692835,60.0,92.0,"Wed, Jul  1, 2015","Wed, Jul  1, 2015"
6880,Montrose Regional Airport,Montrose CO,United States,MTJ,KMTJ,38.509794,-107.894242,5759,-7,A,"Montrose/Delta, CO",118,118,123,124,4.56779661016949,13.516949152542374,11.0,74.0,"Wed, Jul  1, 2015","Thu, Jul  2, 2015"
4265,Martha's Vineyard,Vineyard Haven MA,United States,MVY,KMVY,41.391667,-70.615278,67,-5,A,"Martha's Vineyard, MA",62,62,62,62,3.32258064516129,9.661290322580648,5.0,37.0,"Fri, Jul  3, 2015","Sun, Jul 26, 2015"
3515,Myrtle Beach International,Myrtle Beach,United States,MYR,KMYR,33.67975,-78.928333,25,-5,A,"Myrtle Beach, SC",581,583,589,589,5.349397590361449,11.174957118353339,42.0,87.0,"Sat, Jul 18, 2015","Thu, Jul 23, 2015"
4386,Albert J. Ellis,Jacksonville NC,United States,OAJ,KOAJ,34.829164,-77.612139,94,-5,A,"Jacksonville/Camp Lejeune, NC",105,104,105,105,2.923809523809523,14.153846153846153,6.0,95.0,"Mon, Jul 20, 2015","Wed, Jul  1, 2015"
3453,Metropolitan Oakland International,Oakland,United States,OAK,KOAK,37.721278,-122.220722,9,-8,A,"Oakland, CA",4119,4121,4192,4192,6.411264870114102,10.906818733317152,41.0,95.0,"Mon, Jul 20, 2015","Sat, Jul 18, 2015"
3456,Kahului,Kahului,United States,OGG,PHOG,20.89865,-156.430458,54,-10,N,"Kahului, HI",1985,1981,1988,1987,6.5551637279597,9.481070166582546,51.0,55.0,"Sat, Jul  4, 2015","Thu, Jul  9, 2015"
3863,Will Rogers World,Oklahoma City,United States,OKC,KOKC,35.393089,-97.600733,1295,-6,A,"Oklahoma City, OK",1605,1607,1624,1623,5.280373831775703,12.495332918481648,73.0,97.0,"Mon, Jul 20, 2015","Wed, Jul 15, 2015"
3454,Eppley Airfield,Omaha,United States,OMA,KOMA,41.303167,-95.894069,984,-6,A,"Omaha, NE",1556,1553,1572,1571,4.373393316195362,12.44816484224082,35.0,77.0,"Fri, Jul 10, 2015","Mon, Jul  6, 2015"
3615,Nome,Nome,United States,OME,PAOM,64.512203,-165.445247,37,-9,A,"Nome, AK",59,62,62,62,3.847457627118644,7.403225806451613,8.0,18.0,"Thu, Jul  2, 2015","Tue, Jul 14, 2015"
3734,Ontario International,Ontario,United States,ONT,KONT,34.056,-117.601194,944,-8,A,"Ontario, CA",1710,1707,1730,1730,4.810526315789482,11.514938488576446,61.0,88.0,"Fri, Jul 31, 2015","Wed, Jul 22, 2015"
3830,Chicago O'Hare International,Chicago,United States,ORD,KORD,41.978603,-87.904842,668,-6,A,"Chicago, IL",27621,27745,28183,28223,12.504797074689552,20.479762119300823,114.0,154.0,"Wed, Jul  1, 2015","Mon, Jul  6, 2015"
3611,Norfolk International,Norfolk,United States,ORF,KORF,36.894611,-76.201222,26,-5,A,"Norfolk, VA",836,835,845,843,4.7547846889952154,12.335329341317362,112.0,73.0,"Thu, Jul 30, 2015","Fri, Jul  3, 2015"
6426,Worcester Regional Airport,Worcester,United States,ORH,KORH,42.2673,-71.8757,1009,-5,U,"Worcester, MA",61,61,62,62,3.540983606557377,12.770491803278688,7.0,66.0,"Wed, Jul 29, 2015","Tue, Jul 21, 2015"
5757,Southwest Oregon Regional Airport,North Bend,United States,OTH,KOTH,43.4171,-124.246,17,-8,A,"North Bend/Coos Bay, OR",39,39,40,40,4.128205128205129,12.384615384615385,7.0,29.0,"Sun, Jul 26, 2015","Sun, Jul 12, 2015"
3693,Ralph WienMemorial,Kotzebue,United States,OTZ,PAOT,66.884678,-162.59855,11,-9,A,"Kotzebue, AK",57,57,62,62,3.807017543859649,8.17543859649123,9.0,20.0,"Wed, Jul  8, 2015","Fri, Jul 24, 2015"
4117,Barkley Regional Airport,PADUCAH,United States,PAH,KPAH,37.0602875,-88.7729583,410,-6,A,"Paducah, KY",60,61,62,62,5.45,11.55737704918033,51.0,37.0,"Fri, Jul 17, 2015","Mon, Jul  6, 2015"
3771,Plattsburgh International,Plattsburgh,United States,PBG,KPBG,44.650944,-73.468139,234,-5,A,"Plattsburgh, NY",26,24,26,25,6.884615384615385,13.958333333333334,12.0,27.0,"Tue, Jul 28, 2015","Tue, Jul 28, 2015"
3722,Palm Beach International,West Palm Beach,United States,PBI,KPBI,26.683161,-80.095589,19,-5,A,"West Palm Beach/Palm Beach, FL",1666,1667,1681,1682,4.535414165666259,13.448110377924412,43.0,104.0,"Thu, Jul 16, 2015","Wed, Jul 15, 2015"
3720,Portland International,Portland,United States,PDX,KPDX,45.588722,-122.5975,30,-8,A,"Portland, OR",5101,5098,5111,5108,4.17486767300529,12.587877599058459,51.0,86.0,"Fri, Jul 31, 2015","Tue, Jul  7, 2015"
3633,Newport News Williamsburg International,Newport News,United States,PHF,KPHF,37.131894,-76.492989,43,-5,A,"Newport News/Williamsburg, VA",118,118,118,118,3.9322033898305087,11.43220338983051,13.0,26.0,"Sat, Jul 18, 2015","Fri, Jul 10, 2015"
3752,Philadelphia International,Philadelphia,United States,PHL,KPHL,39.871944,-75.241139,36,-5,A,"Philadelphia, PA",6419,6428,6450,6451,6.490730643402392,21.89234598630986,62.0,145.0,"Fri, Jul  3, 2015","Thu, Jul  9, 2015"
3462,Phoenix Sky Harbor International,Phoenix,United States,PHX,KPHX,33.434278,-112.011583,1135,-7,N,"Phoenix, AZ",14176,14213,14270,14274,7.747742663656875,15.249208471117992,68.0,107.0,"Fri, Jul 17, 2015","Wed, Jul  8, 2015"
4046,Peoria Regional,Peoria,United States,PIA,KPIA,40.664203,-89.693258,660,-6,A,"Peoria, IL",435,431,441,440,4.556321839080456,12.517401392111369,20.0,76.0,"Sun, Jul  5, 2015","Wed, Jul 29, 2015"
5759,Hattiesburg Laurel Regional Airport,Hattiesburg/Laurel,United States,PIB,KPIB,31.4671,-89.3371,298,-6,A,"Hattiesburg/Laurel, MS",54,54,54,54,4.018518518518518,12.092592592592593,13.0,53.0,"Mon, Jul 20, 2015","Wed, Jul  8, 2015"
5760,Pocatello Regional Airport,Pocatello,United States,PIH,KPIH,42.9098,-112.596,4452,-7,A,"Pocatello, ID",57,57,58,58,3.9649122807017543,9.298245614035084,6.0,19.0,"Fri, Jul 24, 2015","Fri, Jul 10, 2015"
3570,Pittsburgh International,Pittsburgh (pennsylva),United States,PIT,KPIT,40.491467,-80.232872,1204,-5,A,"Pittsburgh, PA",2342,2338,2367,2366,5.410333048676332,12.082121471343022,40.0,84.0,"Sat, Jul 11, 2015","Mon, Jul  6, 2015"
5762,Pellston Regional Airport of Emmet County Airport,Pellston,United States,PLN,KPLN,45.5709,-84.7967,720,-5,A,"Pellston, MI",118,118,120,120,5.372881355932202,14.516949152542374,13.0,41.0,"Fri, Jul  3, 2015","Fri, Jul 17, 2015"
3564,Pensacola Regional,Pensacola,United States,PNS,KPNS,30.473425,-87.186611,121,-6,A,"Pensacola, FL",746,745,749,749,4.290884718498652,13.715436241610739,26.0,63.0,"Thu, Jul 16, 2015","Thu, Jul  9, 2015"
6133,Tri Cities Airport,Pasco,United States,PSC,PSC,46.2647,-119.119,410,-8,A,"Pasco/Kennewick/Richland, WA",264,260,267,266,4.992424242424244,12.946153846153846,13.0,37.0,"Sun, Jul 26, 2015","Mon, Jul 20, 2015"
4147,Petersburg James A. Johnson,Petersburg,United States,PSG,PAPG,56.801667,-132.945278,105,-9,A,"Petersburg, AK",62,61,62,62,3.7903225806451615,8.655737704918034,6.0,22.0,"Fri, Jul 17, 2015","Tue, Jul 14, 2015"
3839,Palm Springs International,Palm Springs,United States,PSP,KPSP,33.829667,-116.506694,477,-8,A,"Palm Springs, CA",430,426,435,435,6.169767441860466,15.868544600938968,28.0,112.0,"Fri, Jul  3, 2015","Thu, Jul  9, 2015"
3641,Theodore Francis Green State,Providence,United States,PVD,KPVD,41.732581,-71.420383,55,-5,A,"Providence, RI",988,985,992,991,5.137651821862348,12.160406091370566,59.0,97.0,"Mon, Jul  6, 2015","Wed, Jul 29, 2015"
3862,Portland International Jetport,Portland,United States,PWM,KPWM,43.646161,-70.309281,77,-5,A,"Portland, ME",617,613,629,629,3.8995137763371153,12.957585644371932,27.0,94.0,"Fri, Jul 31, 2015","Tue, Jul 21, 2015"
4087,Rapid City Regional Airport,Rapid City,United States,RAP,KRAP,44.045278,-103.057222,3204,-7,A,"Rapid City, SD",516,515,516,515,5.03294573643411,14.184466019417476,22.0,96.0,"Mon, Jul 13, 2015","Sat, Jul 18, 2015"
4098,Redding Municipal,Redding,United States,RDD,KRDD,40.509,-122.293389,504,-8,A,"Redding, CA",61,61,62,62,4.655737704918033,17.65573770491803,7.0,30.0,"Thu, Jul 30, 2015","Thu, Jul  2, 2015"
4103,Roberts Field,Redmond-Bend,United States,RDM,KRDM,44.254066,-121.149964,3077,-8,A,"Bend/Redmond, OR",239,239,243,243,4.560669456066946,12.184100418410045,12.0,62.0,"Wed, Jul 22, 2015","Sat, Jul 18, 2015"
3626,Raleigh Durham International,Raleigh-durham,United States,RDU,KRDU,35.877639,-78.787472,435,-5,A,"Raleigh/Durham, NC",3195,3191,3245,3246,5.155242566510152,15.025070510811656,98.0,148.0,"Sun, Jul 19, 2015","Wed, Jul 29, 2015"
5765,Rhinelander Oneida County Airport,Rhinelander,United States,RHI,KRHI,45.6312,-89.4675,1624,-6,A,"Rhinelander, WI",88,88,89,89,5.1477272727272725,18.34090909090909,9.0,48.0,"Wed, Jul  1, 2015","Fri, Jul 24, 2015"
3608,Richmond International,Richmond,United States,RIC,KRIC,37.505167,-77.319667,167,-5,A,"Richmond, VA",1555,1556,1583,1583,6.022508038585206,15.403598971722364,81.0,141.0,"Sun, Jul 12, 2015","Wed, Jul  8, 2015"
5766,Rock Springs Sweetwater County Airport,Rock Springs,United States,RKS,KRKS,41.5942,-109.065,6760,-7,A,"Rock Springs, WY",58,58,58,58,3.9310344827586188,14.068965517241379,8.0,32.0,"Thu, Jul  9, 2015","Tue, Jul 28, 2015"
3807,Reno Tahoe International,Reno,United States,RNO,KRNO,39.499108,-119.768108,4415,-8,A,"Reno, NV",1383,1380,1395,1394,4.620390455531461,12.997101449275368,24.0,69.0,"Fri, Jul 24, 2015","Fri, Jul 24, 2015"
4016,Roanoke Regional,Roanoke VA,United States,ROA,KROA,37.325472,-79.975417,1175,-5,A,"Roanoke, VA",230,232,231,232,5.565217391304348,15.482758620689655,25.0,87.0,"Mon, Jul 20, 2015","Sat, Jul 18, 2015"
3622,Greater Rochester International,Rochester,United States,ROC,KROC,43.118866,-77.672389,559,-5,A,"Rochester, NY",685,683,688,687,5.689051094890516,12.573938506588568,23.0,80.0,"Sun, Jul 26, 2015","Sat, Jul 18, 2015"
3736,Roswell International Air Center,Roswell,United States,ROW,KROW,33.301556,-104.530556,3671,-7,A,"Roswell, NM",89,89,91,91,4.573033707865171,9.438202247191013,13.0,33.0,"Mon, Jul 13, 2015","Mon, Jul 27, 2015"
4048,Rochester,Rochester,United States,RST,KRST,43.908283,-92.500014,1317,-6,A,"Rochester, MN",210,210,215,215,3.4761904761904763,13.199999999999998,17.0,50.0,"Thu, Jul  9, 2015","Thu, Jul 30, 2015"
3793,Southwest Florida International,Fort Myers,United States,RSW,KRSW,26.536167,-81.755167,30,-5,A,"Fort Myers, FL",1700,1697,1709,1709,4.457647058823528,12.820271066588097,49.0,98.0,"Mon, Jul  6, 2015","Thu, Jul  2, 2015"
3784,Santa Fe Municipal,Santa Fe,United States,SAF,KSAF,35.617108,-106.089422,6348,-7,A,"Santa Fe, NM",149,150,155,156,5.731543624161074,13.246666666666671,28.0,39.0,"Tue, Jul 28, 2015","Fri, Jul 24, 2015"
3731,San Diego International,San Diego,United States,SAN,KSAN,32.733556,-117.189667,17,-8,A,"San Diego, CA",6973,6959,7031,7028,4.448300587982193,15.995545336973624,79.0,101.0,"Sat, Jul 18, 2015","Fri, Jul 31, 2015"
3621,San Antonio International,San Antonio,United States,SAT,KSAT,29.533694,-98.469778,809,-6,A,"San Antonio, TX",2986,2986,3004,3003,4.251841929002022,12.196918955123909,51.0,86.0,"Mon, Jul 13, 2015","Thu, Jul 23, 2015"
3613,Savannah Hilton Head International,Savannah,United States,SAV,KSAV,32.127583,-81.202139,51,-5,A,"Savannah, GA",731,732,745,746,5.6320109439124435,15.030054644808738,53.0,86.0,"Sun, Jul  5, 2015","Wed, Jul  1, 2015"
3949,Santa Barbara Municipal,Santa Barbara,United States,SBA,KSBA,34.426211,-119.840372,10,-8,A,"Santa Barbara, CA",616,610,624,624,5.37824675324675,16.2704918032787,35.0,71.0,"Sun, Jul 19, 2015","Wed, Jul 15, 2015"
4359,South Bend Regional,South Bend,United States,SBN,KSBN,41.708661,-86.31725,799,-5,A,"South Bend, IN",390,393,398,399,5.176923076923072,15.358778625954198,51.0,55.0,"Fri, Jul 17, 2015","Thu, Jul 16, 2015"
5768,San Luis County Regional Airport,San Luis Obispo,United States,SBP,KSBP,35.2368,-120.642,212,-8,A,"San Luis Obispo, CA",206,207,218,218,3.8058252427184467,15.671497584541063,6.0,98.0,"Thu, Jul  2, 2015","Thu, Jul 23, 2015"
3620,Deadhorse,Deadhorse,United States,SCC,PASC,70.19475,-148.465167,64,-9,A,"Deadhorse, AK",76,79,79,79,3.8552631578947367,6.582278481012659,7.0,17.0,"Fri, Jul  3, 2015","Fri, Jul 24, 2015"
4318,University Park Airport,State College Pennsylvania,United States,SCE,KUNV,40.849278,-77.848694,1239,-5,A,"State College, PA",147,145,148,148,4.442176870748299,11.903448275862067,17.0,94.0,"Sun, Jul  5, 2015","Sun, Jul 26, 2015"
4014,Louisville International Airport,Louisville,United States,SDF,KSDF,38.1740858,-85.7364989,501,-5,A,"Louisville, KY",899,904,912,912,6.105672969966627,12.993362831858406,48.0,62.0,"Sun, Jul 19, 2015","Thu, Jul  2, 2015"
3577,Seattle Tacoma International,Seattle,United States,SEA,KSEA,47.449,-122.309306,433,-8,A,"Seattle, WA",11953,11967,11989,11998,8.443821634736018,16.695328820924285,69.0,87.0,"Sat, Jul 18, 2015","Fri, Jul 10, 2015"
3469,San Francisco International,San Francisco,United States,SFO,KSFO,37.618972,-122.374889,13,-8,A,"San Francisco, CA",14240,14270,14435,14444,7.078300561797751,18.47883672039253,82.0,88.0,"Mon, Jul 20, 2015","Mon, Jul 20, 2015"
4348,Springfield Branson National,Springfield,United States,SGF,KSGF,37.245667,-93.388639,1268,-6,A,"Springfield, MO",469,469,472,474,5.437100213219618,13.823027718550106,27.0,61.0,"Mon, Jul 13, 2015","Sat, Jul 18, 2015"
4064,St. George Municipal,Saint George,United States,SGU,KSGU,37.090583,-113.593056,2941,-7,A,"St. George, UT",153,153,153,153,4.26797385620915,14.673202614379084,6.0,64.0,"Fri, Jul  3, 2015","Mon, Jul  6, 2015"
3609,Shreveport Regional,Shreveport,United States,SHV,KSHV,32.446629,-93.8256,258,-6,A,"Shreveport, LA",590,590,594,594,5.783050847457628,9.981355932203398,59.0,44.0,"Sun, Jul 12, 2015","Wed, Jul  1, 2015"
3856,Sitka Rocky Gutierrez,Sitka,United States,SIT,PASI,57.047138,-135.361611,21,-9,A,"Sitka, AK",185,184,187,186,4.037837837837836,11.760869565217396,9.0,46.0,"Tue, Jul  7, 2015","Fri, Jul 31, 2015"
3748,Norman Y. Mineta San Jose International,San Jose,United States,SJC,KSJC,37.3626,-121.929022,62,-8,A,"San Jose, CA",3755,3752,3828,3828,4.7035952063914745,13.257196162046919,47.0,145.0,"Wed, Jul  8, 2015","Sat, Jul 18, 2015"
3708,San Angelo Regional-Mathis Field,San Angelo,United States,SJT,KSJT,31.35775,-100.496306,1919,-6,A,"San Angelo, TX",150,149,151,151,3.4,8.637583892617451,30.0,22.0,"Thu, Jul 30, 2015","Wed, Jul 15, 2015"
3536,Salt Lake City International,Salt Lake City,United States,SLC,KSLC,40.788389,-111.977772,4227,-7,A,"Salt Lake City, UT",9476,9482,9502,9508,6.344976783452934,16.962349715249967,52.0,117.0,"Fri, Jul 31, 2015","Sat, Jul 18, 2015"
3817,Sacramento International,Sacramento,United States,SMF,KSMF,38.695417,-121.590778,27,-8,A,"Sacramento, CA",3600,3594,3644,3642,4.731666666666659,11.450473010573182,39.0,128.0,"Sun, Jul 12, 2015","Sun, Jul 19, 2015"
5772,Santa Maria Public-Captain G. Allan Hancock Airport,Santa Maria,United States,SMX,KSMX,34.8989,-120.457,261,-8,A,"Santa Maria, CA",61,62,62,62,4.442622950819674,16.14516129032258,8.0,32.0,"Sun, Jul  5, 2015","Fri, Jul 17, 2015"
3867,John Wayne Airport Orange County,Santa Ana,United States,SNA,KSNA,33.675667,-117.868222,56,-8,A,"Santa Ana, CA",3569,3568,3602,3601,5.4508265620622085,12.217208520179367,41.0,78.0,"Mon, Jul 27, 2015","Thu, Jul  2, 2015"
4336,Abraham Lincoln Capital,Springfield,United States,SPI,KSPI,39.8441,-89.677889,597,-6,A,"Springfield, IL",150,151,154,154,4.506666666666668,11.615894039735096,14.0,67.0,"Sun, Jul 12, 2015","Thu, Jul 16, 2015"
3680,Sheppard AFB Wichita Falls Municipal,Wichita Falls,United States,SPS,KSPS,33.988797,-98.491894,1019,-6,A,"Wichita Falls, TX",120,120,122,122,5.816666666666666,12.266666666666667,16.0,27.0,"Wed, Jul  1, 2015","Thu, Jul  9, 2015"
4067,Sarasota Bradenton International,Sarasota,United States,SRQ,KSRQ,27.395444,-82.554389,30,-5,A,"Sarasota/Bradenton, FL",241,241,241,241,4.045643153526973,11.838174273858924,13.0,87.0,"Sat, Jul 11, 2015","Wed, Jul 15, 2015"
3678,Lambert St. Louis International,St. Louis,United States,STL,KSTL,38.748697,-90.370028,618,-6,A,"St. Louis, MO",4595,4593,4612,4613,5.41697497279652,11.273895057696508,62.0,116.0,"Wed, Jul  1, 2015","Wed, Jul  8, 2015"
6494,Friedman Memorial,Hailey,United States,SUN,KSUN,43.504444,-114.296194,5320,-7,A,"Sun Valley/Hailey/Ketchum, ID",130,131,131,131,3.3,16.114503816793896,5.0,69.0,"Fri, Jul 17, 2015","Tue, Jul  7, 2015"
3753,Sioux Gateway-Colonel Bud Day Field,Sioux City,United States,SUX,KSUX,42.402603,-96.384367,1098,-6,A,"Sioux City, IA",58,58,58,58,3.706896551724138,13.068965517241379,7.0,45.0,"Wed, Jul 29, 2015","Mon, Jul  6, 2015"
3661,Stewart International,Newburgh,United States,SWF,KSWF,41.504094,-74.104839,491,-5,A,"Newburgh/Poughkeepsie, NY",62,62,62,62,5.951612903225805,13.67741935483871,11.0,29.0,"Thu, Jul 23, 2015","Sun, Jul  5, 2015"
3745,Syracuse Hancock International,Syracuse,United States,SYR,KSYR,43.111187,-76.106311,421,-5,A,"Syracuse, NY",528,528,539,538,4.672348484848488,13.84848484848485,25.0,116.0,"Thu, Jul 30, 2015","Tue, Jul 21, 2015"
3698,Tallahassee Regional,Tallahassee,United States,TLH,KTLH,30.396528,-84.350333,81,-5,A,"Tallahassee, FL",284,284,284,284,3.9366197183098586,14.140845070422538,13.0,98.0,"Sat, Jul 11, 2015","Fri, Jul 31, 2015"
4040,Toledo,Toledo,United States,TOL,KTOL,41.586806,-83.807833,684,-5,A,"Toledo, OH",87,87,91,91,2.505747126436782,11.689655172413795,5.0,55.0,"Fri, Jul 31, 2015","Sat, Jul 25, 2015"
3646,Tampa International,Tampa,United States,TPA,KTPA,27.975472,-82.53325,26,-5,A,"Tampa, FL",5830,5825,5852,5853,4.77975986277872,13.113304721030085,87.0,132.0,"Fri, Jul 10, 2015","Fri, Jul 24, 2015"
4116,Tri-Cities Regional Airport,BRISTOL,United States,TRI,KTRI,36.4752222,-82.4074167,1519,-5,A,"Bristol/Johnson City/Kingsport, TN",195,195,195,195,4.241025641025644,15.092307692307697,29.0,43.0,"Thu, Jul  9, 2015","Mon, Jul 20, 2015"
3447,Trenton Mercer,Trenton,United States,TTN,KTTN,40.276692,-74.813469,213,-5,A,"Trenton, NJ",273,274,279,279,8.989010989010985,13.75182481751825,47.0,77.0,"Wed, Jul 15, 2015","Thu, Jul  9, 2015"
3855,Tulsa International,Tulsa,United States,TUL,KTUL,36.198389,-95.888111,677,-6,A,"Tulsa, OK",1276,1272,1286,1285,4.5164576802507925,13.53930817610063,41.0,87.0,"Wed, Jul 29, 2015","Fri, Jul 10, 2015"
3636,Tucson International,Tucson,United States,TUS,KTUS,32.116083,-110.941028,2643,-7,N,"Tucson, AZ",1242,1241,1251,1251,4.5668276972624735,12.970185334407725,26.0,132.0,"Tue, Jul 28, 2015","Sat, Jul 18, 2015"
4023,Cherry Capital Airport,Traverse City,United States,TVC,KTVC,44.741445,-85.582235,624,-5,A,"Traverse City, MI",373,371,382,380,5.058981233243966,14.026954177897574,93.0,105.0,"Sat, Jul 18, 2015","Mon, Jul  6, 2015"
4263,Magic Valley Regional Airport,Twin Falls,United States,TWF,KTWF,42.481803,-114.487733,4151,-7,A,"Twin Falls, ID",89,89,89,89,3.797752808988764,9.988764044943823,7.0,31.0,"Sun, Jul  5, 2015","Fri, Jul 31, 2015"
3770,Texarkana Regional-Webb Field,Texarkana,United States,TXK,KTXK,33.453722,-93.991028,390,-6,A,"Texarkana, AR",92,92,92,92,3.358695652173913,8.94565217391304,7.0,43.0,"Fri, Jul 17, 2015","Mon, Jul 13, 2015"
3848,Tyler Pounds Regional,Tyler,United States,TYR,KTYR,32.354139,-95.402386,544,-6,A,"Tyler, TX",230,231,233,233,6.5130434782608715,10.207792207792208,12.0,44.0,"Wed, Jul 15, 2015","Wed, Jul 29, 2015"
3676,McGhee Tyson,Knoxville,United States,TYS,KTYS,35.810972,-83.994028,981,-5,A,"Knoxville, TN",693,700,705,706,5.069264069264067,14.36,38.0,74.0,"Sat, Jul 11, 2015","Thu, Jul 16, 2015"
6989,St. Augustine Airport,St. Augustine Airport,United States,UST,KSGJ,29.959167,-81.339722,10,-5,A,"St. Augustine, FL",12,11,13,13,5.75,8.272727272727273,7.0,11.0,"Tue, Jul 14, 2015","Tue, Jul 14, 2015"
5776,Valdosta Regional Airport,Valdosta,United States,VLD,KVLD,30.7825,-83.2767,203,-5,A,"Valdosta, GA",86,87,87,87,5.023255813953488,12.482758620689653,8.0,56.0,"Sat, Jul 18, 2015","Thu, Jul 23, 2015"
3873,Eglin AFB,Valparaiso,United States,VPS,KVPS,30.48325,-86.5254,87,-6,A,"Valparaiso, FL",539,539,540,540,7.447124304267162,13.56400742115028,17.0,47.0,"Fri, Jul 31, 2015","Tue, Jul 28, 2015"
5969,Wrangell Airport,Wrangell,United States,WRG,PAWG,56.4843,-132.37,44,-9,A,"Wrangell, AK",62,62,62,62,3.629032258064516,7.354838709677422,5.0,23.0,"Mon, Jul  6, 2015","Sat, Jul 18, 2015"
7072,Yellowstone Airport,West Yellowstone,United States,WYS,KWYS,44.688333,-111.1175,6644,-7,A,"West Yellowstone, MT",53,53,53,53,4.641509433962264,12.735849056603774,7.0,32.0,"Thu, Jul  2, 2015","Fri, Jul 10, 2015"
4356,NW Arkansas Regional,Bentonville,United States,XNA,KXNA,36.2818694,-94.3068111,1287,-6,A,"Fayetteville, AR",918,909,932,933,4.847494553376905,14.26072607260726,42.0,91.0,"Wed, Jul 22, 2015","Fri, Jul 31, 2015"
6803,Yakutat,Yakutat,United States,YAK,PAYA,59.3012,-139.3937,33,-9,A,"Yakutat, AK",62,62,62,62,3.774193548387097,7.8870967741935525,6.0,20.0,"Fri, Jul  3, 2015","Sat, Jul 11, 2015"
3596,Yuma MCAS Yuma International,Yuma,United States,YUM,KYUM,32.656578,-114.60598,216,-7,N,"Yuma, AZ",174,172,177,177,5.339080459770115,14.046511627906977,11.0,46.0,"Thu, Jul 23, 2015","Thu, Jul 30, 2015"
