airport_id,name,city,country,iata_faa,iaco,latitude,longitude,altitude,zone,dst,city_state,avg_able_landings,avg_able_takeoffs,total_landings,total_takeoffs,avg_taxi_in,avg_taxi_out,longest_taxi_in,longest_taxi_out,lng_tx_in_date,lng_tx_out_date
4355,Lehigh Valley International,Allentown,United States,ABE,KABE,40.652083,-75.440806,393,-5,A,"Allentown/Bethlehem/Easton, PA",119,120,126,128,4.571428571428571,16.508333333333333,11.0,160.0,"Thu, Feb 16, 2017","Thu, Feb  9, 2017"
3718,Abilene Regional,Abilene,United States,ABI,KABI,32.411319,-99.681897,1791,-6,A,"Abilene, TX",13,13,13,13,4.769230769230769,8.538461538461538,9.0,16.0,"Tue, Feb 14, 2017","Mon, Feb  6, 2017"
4019,Albuquerque International Sunport,Albuquerque,United States,ABQ,KABQ,35.0402222,-106.6091944,5355,-7,A,"Albuquerque, NM",1246,1241,1249,1247,5.124398073836271,11.971796937953265,40.0,81.0,"Sun, Feb 26, 2017","Fri, Feb 10, 2017"
5714,Aberdeen Regional Airport,Aberdeen,United States,ABR,KABR,45.4491,-98.4218,1302,-6,A,"Aberdeen, SD",56,56,56,56,4.660714285714283,18.107142857142858,20.0,39.0,"Fri, Feb 17, 2017","Tue, Feb 28, 2017"
5715,Southwest Georgia Regional Airport,Albany,United States,ABY,KABY,31.5355,-84.1945,197,-5,A,"Albany, GA",77,77,77,77,3.5194805194805197,11.844155844155846,5.0,31.0,"Sat, Feb 25, 2017","Thu, Feb 23, 2017"
3700,Waco Regional,Waco,United States,ACT,KACT,31.611289,-97.230519,516,-6,A,"Waco, TX",103,102,103,103,4.669902912621361,11.441176470588236,16.0,45.0,"Wed, Feb  8, 2017","Mon, Feb  6, 2017"
4384,Arcata,Arcata CA,United States,ACV,KACV,40.978111,-124.108611,221,-8,A,"Arcata/Eureka, CA",77,81,84,84,4.909090909090908,16.11111111111111,7.0,71.0,"Tue, Feb 21, 2017","Mon, Feb 13, 2017"
3524,Atlantic City International,Atlantic City,United States,ACY,KACY,39.457583,-74.577167,75,-5,A,"Atlantic City, NJ",283,281,288,288,5.106007067137807,10.722419928825621,17.0,30.0,"Tue, Feb 21, 2017","Thu, Feb  9, 2017"
5959,Adak Airport,Adak Island,United States,ADK,PADK,51.878,-176.646,18,-10,A,"Adak Island, AK",8,8,8,8,5.125,7.875,7.0,13.0,"Thu, Feb  9, 2017","Sun, Feb  5, 2017"
3531,Kodiak,Kodiak,United States,ADQ,PADQ,57.749967,-152.493856,78,-9,A,"Kodiak, AK",34,34,35,35,2.9705882352941178,5.823529411764706,8.0,11.0,"Thu, Feb 16, 2017","Sun, Feb  5, 2017"
3852,Alexandria International,Alexandria,United States,AEX,KAEX,31.3274,-92.549833,89,-6,A,"Alexandria, LA",240,240,240,240,3.5,14.279166666666669,14.0,36.0,"Sat, Feb 11, 2017","Mon, Feb 27, 2017"
3658,Augusta Regional At Bush Field,Bush Field,United States,AGS,KAGS,33.369944,-81.9645,144,-5,A,"Augusta, GA",179,179,179,179,4.290502793296087,18.39664804469274,30.0,127.0,"Tue, Feb  7, 2017","Wed, Feb  8, 2017"
3864,Albany International,Albany,United States,ALB,KALB,42.748267,-73.801692,285,-5,A,"Albany, NY",687,685,704,704,4.537117903930132,15.795620437956202,70.0,71.0,"Thu, Feb  9, 2017","Thu, Feb  9, 2017"
3840,Rick Husband Amarillo International,Amarillo,United States,AMA,KAMA,35.219369,-101.705931,3607,-6,A,"Amarillo, TX",234,235,235,236,4.62820512820513,11.795744680851064,12.0,61.0,"Thu, Feb 23, 2017","Tue, Feb 14, 2017"
3774,Ted Stevens Anchorage International,Anchorage,United States,ANC,PANC,61.174361,-149.996361,152,-9,A,"Anchorage, AK",1034,1034,1054,1053,4.718568665377174,17.279497098646054,29.0,81.0,"Wed, Feb 15, 2017","Wed, Feb 15, 2017"
5720,Alpena County Regional Airport,Alpena,United States,APN,KAPN,45.0781,-83.5603,689,-5,A,"Alpena, MI",40,47,48,48,5.55,16.276595744680847,15.0,33.0,"Fri, Feb 24, 2017","Wed, Feb 15, 2017"
7001,Aspen/Pitkin County-Sardy Field,Aspen,United States,ASE,KASE,39.2232,-106.869,7820,-7,A,"Aspen, CO",596,602,682,682,4.00838926174497,19.038205980066422,44.0,102.0,"Sat, Feb 25, 2017","Fri, Feb 24, 2017"
3682,Hartsfield Jackson Atlanta International,Atlanta,United States,ATL,KATL,33.636719,-84.428067,1026,-5,A,"Atlanta, GA",27485,27531,27594,27623,7.863780243769327,16.071773636990873,70.0,97.0,"Sun, Feb 26, 2017","Sun, Feb 12, 2017"
4047,Appleton,Appleton,United States,ATW,KATW,44.257526,-88.507576,680,-6,A,"Appleton, WI",146,147,151,151,5.205479452054795,19.047619047619058,18.0,93.0,"Fri, Feb 10, 2017","Fri, Feb 24, 2017"
3673,Austin Bergstrom International,Austin,United States,AUS,KAUS,30.194528,-97.669889,542,-6,A,"Austin, TX",3362,3359,3377,3379,6.034800713860786,12.637987496278665,63.0,66.0,"Sun, Feb 19, 2017","Mon, Feb 27, 2017"
4007,Asheville Regional Airport,Asheville,United States,AVL,KAVL,35.436194,-82.541806,2165,-5,A,"Asheville, NC",195,195,196,196,3.9948717948717953,18.44102564102562,9.0,86.0,"Sun, Feb 12, 2017","Thu, Feb 23, 2017"
4286,Wilkes Barre Scranton International,Scranton,United States,AVP,KAVP,41.338478,-75.723403,962,-5,A,"Scranton/Wilkes-Barre, PA",100,100,100,100,3.73,18.769999999999996,7.0,96.0,"Thu, Feb  9, 2017","Thu, Feb  9, 2017"
4039,Kalamazoo,Kalamazoo,United States,AZO,KAZO,42.234875,-85.552058,874,-5,A,"Kalamazoo, MI",193,191,194,191,4.507772020725391,17.198952879581142,15.0,44.0,"Thu, Feb 23, 2017","Wed, Feb 15, 2017"
3825,Bradley International,Windsor Locks,United States,BDL,KBDL,41.938889,-72.683222,173,-5,A,"Hartford, CT",1495,1492,1564,1562,5.725083612040131,15.254021447721195,38.0,104.0,"Sun, Feb 12, 2017","Sun, Feb 12, 2017"
3599,Bethel,Bethel,United States,BET,PABE,60.779778,-161.838,121,-9,A,"Bethel, AK",72,72,76,76,3.7222222222222223,8.208333333333334,6.0,20.0,"Wed, Feb  1, 2017","Tue, Feb  7, 2017"
3558,Meadows Field,Bakersfield,United States,BFL,KBFL,35.433598,-119.05677,507,-8,A,"Bakersfield, CA",147,148,148,148,4.91156462585034,17.148648648648663,9.0,47.0,"Wed, Feb 15, 2017","Thu, Feb 16, 2017"
4129,Greater Binghamton-Edwin A. Link Field,Binghamton,United States,BGM,KBGM,42.208689,-75.979839,1636,-5,A,"Binghamton, NY",52,51,52,52,5.788461538461537,24.784313725490197,35.0,92.0,"Sun, Feb  5, 2017","Mon, Feb 13, 2017"
3811,Birmingham International,Birmingham,United States,BHM,KBHM,33.562942,-86.75355,644,-6,A,"Birmingham, AL",823,821,827,827,3.7995139732685304,14.140073081607795,21.0,88.0,"Sat, Feb 11, 2017","Tue, Feb  7, 2017"
4021,Billings Logan International Airport,Billings,United States,BIL,KBIL,45.80921,-108.537654,3652,-7,A,"Billings, MT",219,219,219,219,3.776255707762557,15.159817351598166,8.0,58.0,"Wed, Feb 22, 2017","Wed, Feb  1, 2017"
4083,Bismarck Municipal Airport,Bismarck,United States,BIS,KBIS,46.775842,-100.757931,1661,-6,A,"Bismarck/Mandan, ND",112,111,113,112,4.0892857142857135,17.954954954954953,21.0,51.0,"Tue, Feb 28, 2017","Tue, Feb  7, 2017"
4287,Bemidji Regional Airport,Bemidji,United States,BJI,KBJI,47.510722,-94.934722,1391,-6,A,"Bemidji, MN",56,56,56,56,4.946428571428572,21.41071428571429,8.0,65.0,"Mon, Feb  6, 2017","Sat, Feb  4, 2017"
3777,Bellingham International,Bellingham,United States,BLI,KBLI,48.792694,-122.537528,170,-8,A,"Bellingham, WA",63,63,68,68,4.174603174603175,17.222222222222214,10.0,64.0,"Tue, Feb 28, 2017","Sun, Feb 26, 2017"
4037,Central Illinois Regional,Bloomington,United States,BMI,KBMI,40.477111,-88.915917,871,-6,A,"Bloomington/Normal, IL",102,103,104,105,4.235294117647059,14.41747572815534,32.0,56.0,"Tue, Feb 28, 2017","Sat, Feb 25, 2017"
3690,Nashville International,Nashville,United States,BNA,KBNA,36.124472,-86.678194,599,-6,A,"Nashville, TN",3798,3795,3823,3823,6.358083201685101,12.682213438735175,62.0,91.0,"Sat, Feb 25, 2017","Fri, Feb 24, 2017"
3495,Boise Air Terminal,Boise,United States,BOI,KBOI,43.564361,-116.222861,2871,-7,A,"Boise, ID",1091,1099,1107,1109,3.934005499541705,15.29117379435851,18.0,58.0,"Sun, Feb 19, 2017","Tue, Feb  7, 2017"
3448,General Edward Lawrence Logan International,Boston,United States,BOS,KBOS,42.364347,-71.005181,19,-5,A,"Boston, MA",8256,8250,8811,8803,6.819888565891474,21.23951515151514,72.0,138.0,"Fri, Feb 10, 2017","Sun, Feb 12, 2017"
5725,Brunswick Golden Isles Airport,Brunswick,United States,BQK,KBQK,31.2588,-81.4665,26,-5,A,"Brunswick, GA",77,77,77,77,3.4025974025974026,15.012987012987013,7.0,38.0,"Fri, Feb 10, 2017","Tue, Feb  7, 2017"
6957,Brainerd Lakes Regional,Brainerd,United States,BRD,KBRD,46.398308,-94.138078,1226,-6,U,"Brainerd, MN",48,48,48,48,4.124999999999999,14.583333333333334,9.0,43.0,"Tue, Feb 28, 2017","Mon, Feb 20, 2017"
3738,Brownsville South Padre Island International,Brownsville,United States,BRO,KBRO,25.906833,-97.425861,22,-6,A,"Brownsville, TX",79,80,79,80,4.746835443037975,11.8625,8.0,22.0,"Sun, Feb 19, 2017","Thu, Feb  9, 2017"
3571,Wiley Post Will RogersMemorial,Barrow,United States,BRW,PABR,71.285446,-156.766003,44,-9,A,"Barrow, AK",68,70,72,72,5.279411764705882,7.785714285714286,33.0,21.0,"Tue, Feb 28, 2017","Sat, Feb  4, 2017"
4022,Bert Mooney Airport,Butte,United States,BTM,KBTM,45.954806,-112.497472,5550,-7,A,"Butte, MT",50,51,52,52,4.219999999999998,16.058823529411764,8.0,35.0,"Fri, Feb 17, 2017","Thu, Feb  2, 2017"
3846,Baton Rouge Metro-Ryan Field,Baton Rouge,United States,BTR,KBTR,30.533167,-91.149639,70,-6,A,"Baton Rouge, LA",464,463,466,466,4.030172413793105,14.568034557235421,13.0,50.0,"Thu, Feb 23, 2017","Sat, Feb 25, 2017"
3711,Burlington International,Burlington,United States,BTV,KBTV,44.471861,-73.153278,335,-5,A,"Burlington, VT",247,245,261,260,5.218623481781375,20.232653061224497,34.0,58.0,"Sat, Feb 25, 2017","Wed, Feb 15, 2017"
3820,Buffalo Niagara International,Buffalo,United States,BUF,KBUF,42.940525,-78.732167,724,-5,A,"Buffalo, NY",1223,1222,1243,1244,4.3458708094848735,14.87152209492635,35.0,79.0,"Fri, Feb 24, 2017","Fri, Feb 24, 2017"
3644,Bob Hope,Burbank,United States,BUR,KBUR,34.200667,-118.358667,778,-8,A,"Burbank, CA",1640,1638,1729,1726,3.2225609756097566,13.210622710622724,27.0,73.0,"Sun, Feb  5, 2017","Fri, Feb  3, 2017"
3849,Baltimore Washington International,Baltimore,United States,BWI,KBWI,39.175361,-76.668333,146,-5,A,"Baltimore, MD",6648,6657,6763,6763,5.883122743682311,12.672975814931657,53.0,104.0,"Sat, Feb 25, 2017","Sat, Feb 25, 2017"
4020,Gallatin Field,Bozeman,United States,BZN,KBZN,45.777643,-111.160151,4500,-7,A,"Bozeman, MT",333,330,336,335,5.372372372372368,15.851515151515143,45.0,61.0,"Sat, Feb 18, 2017","Sat, Feb 25, 2017"
3561,Columbia Metropolitan,Colombia,United States,CAE,KCAE,33.938833,-81.119528,236,-5,A,"Columbia, SC",301,302,303,303,4.189368770764119,15.582781456953642,21.0,68.0,"Thu, Feb  9, 2017","Fri, Feb 17, 2017"
4112,Akron Canton Regional Airport,Akron,United States,CAK,KCAK,40.9160833,-81.4421944,1228,-5,A,"Akron, OH",473,474,479,481,5.879492600422833,16.685654008438814,32.0,59.0,"Thu, Feb 16, 2017","Thu, Feb 23, 2017"
3824,Cedar City Regional,Cedar City,United States,CDC,KCDC,37.700967,-113.098847,5622,-7,A,"Cedar City, UT",48,48,48,48,3.2291666666666665,16.27083333333333,6.0,62.0,"Thu, Feb  2, 2017","Fri, Feb 17, 2017"
3610,Merle K. Mudhole Smith,Cordova,United States,CDV,PACV,60.491778,-145.477556,48,-9,A,"Cordova, AK",54,54,56,56,4.12962962962963,8.018518518518514,25.0,26.0,"Wed, Feb 22, 2017","Fri, Feb 10, 2017"
3578,Lovell Field,Chattanooga,United States,CHA,KCHA,35.035278,-85.203808,683,-5,A,"Chattanooga, TN",386,388,389,391,5.145077720207255,17.886597938144313,23.0,96.0,"Thu, Feb 16, 2017","Wed, Feb  8, 2017"
4015,Charlottesville-Albemarle,Charlottesville VA,United States,CHO,KCHO,38.138639,-78.452861,639,-5,A,"Charlottesville, VA",194,196,197,197,3.6030927835051547,15.020408163265307,10.0,76.0,"Wed, Feb 15, 2017","Wed, Feb 22, 2017"
3806,Charleston AFB International,Charleston,United States,CHS,KCHS,32.898647,-80.040528,45,-5,A,"Charleston, SC",865,860,883,880,7.624277456647394,16.838372093023285,28.0,84.0,"Sun, Feb 12, 2017","Sat, Feb 25, 2017"
4043,Cedar Rapids,Cedar Rapids,United States,CID,KCID,41.884694,-91.710806,869,-6,A,"Cedar Rapids/Iowa City, IA",303,300,304,302,6.798679867986795,15.313333333333333,26.0,67.0,"Thu, Feb  2, 2017","Wed, Feb  8, 2017"
5729,Chippewa County International Airport,Sault Ste. Marie,United States,CIU,KCIU,46.2508,-84.4724,800,-5,A,"Sault Ste. Marie, MI",49,50,52,52,5.408163265306122,25.62,22.0,71.0,"Sat, Feb 11, 2017","Tue, Feb  7, 2017"
3486,Cleveland Hopkins International,Cleveland,United States,CLE,KCLE,41.411689,-81.849794,791,-5,A,"Cleveland, OH",2326,2329,2360,2361,7.19604471195185,14.515242593387716,47.0,117.0,"Wed, Feb  1, 2017","Fri, Feb 24, 2017"
3715,Easterwood Field,College Station,United States,CLL,KCLL,30.588583,-96.363833,321,-6,A,"College Station/Bryan, TX",75,75,76,76,4.773333333333335,10.613333333333337,8.0,30.0,"Mon, Feb 27, 2017","Fri, Feb 10, 2017"
3876,Charlotte Douglas International,Charlotte,United States,CLT,KCLT,35.214,-80.943139,748,-5,A,"Charlotte, NC",8275,8287,8367,8369,9.474078549848928,19.682756124049718,45.0,129.0,"Wed, Feb 15, 2017","Thu, Feb 16, 2017"
3759,Port Columbus International,Columbus,United States,CMH,KCMH,39.997972,-82.891889,815,-5,A,"Columbus, OH",1691,1688,1707,1706,5.417504435245416,11.817535545023699,44.0,89.0,"Fri, Feb 24, 2017","Sat, Feb 25, 2017"
5732,Houghton County Memorial Airport,Hancock,United States,CMX,KCMX,47.1684,-88.4891,1095,-5,A,"Hancock/Houghton, MI",53,53,56,56,4.811320754716982,20.58490566037736,7.0,54.0,"Sun, Feb 12, 2017","Sun, Feb 12, 2017"
4344,Yellowstone Regional,Cody,United States,COD,KCOD,44.520194,-109.023806,5102,-7,A,"Cody, WY",55,55,56,56,3.618181818181818,16.872727272727282,7.0,48.0,"Thu, Feb  2, 2017","Wed, Feb  1, 2017"
3819,City Of Colorado Springs Municipal,Colorado Springs,United States,COS,KCOS,38.805805,-104.700778,6187,-7,A,"Colorado Springs, CO",633,634,639,638,6.872037914691944,19.8564668769716,28.0,81.0,"Fri, Feb 10, 2017","Tue, Feb 21, 2017"
3872,Natrona County International,Casper,United States,CPR,KCPR,42.908,-106.464417,5347,-7,A,"Casper, WY",52,52,53,53,3.942307692307693,12.557692307692308,8.0,31.0,"Wed, Feb  1, 2017","Thu, Feb  2, 2017"
3744,Corpus Christi International,Corpus Christi,United States,CRP,KCRP,27.770361,-97.501222,44,-6,A,"Corpus Christi, TX",203,204,205,206,4.605911330049262,14.009803921568627,22.0,57.0,"Thu, Feb  9, 2017","Mon, Feb 27, 2017"
4285,Yeager,Charleston,United States,CRW,KCRW,38.373147,-81.593189,981,-5,A,"Charleston/Dunbar, WV",177,178,178,178,2.898305084745764,14.629213483146067,9.0,73.0,"Mon, Feb 27, 2017","Thu, Feb  9, 2017"
4255,Columbus Metropolitan Airport,Columbus,United States,CSG,KCSG,32.5163333,-84.9388611,397,-5,A,"Columbus, GA",83,83,83,83,2.9518072289156634,14.289156626506024,5.0,44.0,"Thu, Feb 23, 2017","Sun, Feb 26, 2017"
3488,Cincinnati Northern Kentucky International,Cincinnati,United States,CVG,KCVG,39.048836,-84.667822,896,-5,A,"Cincinnati, OH",982,979,986,983,6.172097759674134,13.278855975485186,45.0,91.0,"Tue, Feb 28, 2017","Fri, Feb 24, 2017"
4045,Central Wisconsin,Wassau,United States,CWA,KCWA,44.772726,-89.646635,840,-6,A,"Mosinee, WI",62,62,64,64,4.306451612903227,12.64516129032258,10.0,58.0,"Fri, Feb 24, 2017","Fri, Feb 24, 2017"
3950,Daytona Beach International,Daytona Beach,United States,DAB,KDAB,29.179917,-81.058056,34,-5,A,"Daytona Beach, FL",148,147,150,149,3.4594594594594597,14.45578231292517,8.0,45.0,"Sat, Feb 25, 2017","Tue, Feb  7, 2017"
3502,Dallas Love Field,Dallas,United States,DAL,KDAL,32.847111,-96.851778,487,-6,A,"Dallas, TX",5232,5232,5271,5271,5.597477064220166,11.00248470948013,34.0,76.0,"Mon, Feb  6, 2017","Sat, Feb 18, 2017"
3627,James M. Cox Dayton International,Dayton,United States,DAY,KDAY,39.902375,-84.219375,1009,-5,A,"Dayton, OH",366,363,367,366,5.191256830601091,13.43526170798898,56.0,48.0,"Wed, Feb 22, 2017","Thu, Feb  9, 2017"
3520,Ronald Reagan Washington National,Washington,United States,DCA,KDCA,38.852083,-77.037722,15,-5,A,"Washington, DC",5573,5576,5702,5703,5.941862551588011,18.501434720229543,61.0,129.0,"Tue, Feb 14, 2017","Wed, Feb  8, 2017"
3751,Denver International,Denver,United States,DEN,KDEN,39.861656,-104.673178,5431,-7,A,"Denver, CO",15419,15443,15545,15533,8.682599390362524,17.506896328433452,66.0,114.0,"Thu, Feb 23, 2017","Thu, Feb 23, 2017"
3670,Dallas Fort Worth International,Dallas-fort Worth,United States,DFW,KDFW,32.896828,-97.037997,607,-6,A,"Dallas/Fort Worth, TX",13668,13696,13751,13764,11.246488147497798,17.47692757009353,79.0,130.0,"Fri, Feb 17, 2017","Mon, Feb  6, 2017"
3739,Dothan Regional,Dothan,United States,DHN,KDHN,31.321339,-85.449628,401,-6,A,"Dothan, AL",102,102,102,102,3.284313725490196,15.794117647058819,6.0,56.0,"Fri, Feb  3, 2017","Sat, Feb 25, 2017"
3598,Duluth International,Duluth,United States,DLH,KDLH,46.842091,-92.193649,1428,-6,A,"Duluth, MN",151,150,151,151,5.377483443708609,18.386666666666674,10.0,66.0,"Fri, Feb  3, 2017","Tue, Feb  7, 2017"
3713,Durango La Plata County,Durango,United States,DRO,KDRO,37.151516,-107.75377,6685,-7,A,"Durango, CO",72,72,73,73,4.444444444444445,22.93055555555555,27.0,64.0,"Fri, Feb 10, 2017","Mon, Feb  6, 2017"
3729,Des Moines International,Des Moines,United States,DSM,KDSM,41.533972,-93.663083,958,-6,A,"Des Moines, IA",639,637,641,640,5.7198748043818535,13.901098901098898,68.0,92.0,"Tue, Feb  7, 2017","Wed, Feb  8, 2017"
3645,Detroit Metro Wayne County,Detroit,United States,DTW,KDTW,42.212444,-83.353389,645,-5,A,"Detroit, MI",9139,9121,9210,9183,7.698435277382647,18.72437232759564,53.0,117.0,"Fri, Feb 10, 2017","Fri, Feb 24, 2017"
7063,Devils Lake Regional Airport,Devils Lake,United States,DVL,KDVL,48.114444,-98.908611,1445,-6,A,"Devils Lake, ND",46,46,48,48,5.956521739130435,24.02173913043478,13.0,49.0,"Tue, Feb  7, 2017","Tue, Feb 21, 2017"
5735,Chippewa Valley Regional Airport,Eau Claire,United States,EAU,KEAU,44.8658,-91.4843,913,-6,A,"Eau Claire, WI",52,52,52,52,4.634615384615385,17.26923076923076,37.0,51.0,"Fri, Feb 24, 2017","Fri, Feb 24, 2017"
7669,Northwest Florida Beaches International,Panama City,United States,ECP,KECP,30.3417,-85.7973,69,-6,A,"Panama City, FL",250,250,250,250,3.52,12.812,18.0,47.0,"Mon, Feb 13, 2017","Tue, Feb  7, 2017"
4250,Eagle County Regional,Vail,United States,EGE,KEGE,39.642556,-106.917694,6540,-7,A,"Eagle, CO",275,275,280,280,5.30181818181818,15.501818181818182,58.0,63.0,"Fri, Feb  3, 2017","Wed, Feb  8, 2017"
5736,Elko Regional Airport,Elko,United States,EKO,KEKO,40.8249,-115.792,5140,-8,A,"Elko, NV",47,47,47,47,4.510638297872342,15.659574468085106,7.0,46.0,"Thu, Feb  9, 2017","Thu, Feb 23, 2017"
3946,Elmira Corning Regional,Elmira,United States,ELM,KELM,42.159889,-76.891611,954,-5,A,"Elmira/Corning, NY",15,15,15,15,3.466666666666667,13.266666666666667,6.0,22.0,"Fri, Feb 10, 2017","Sun, Feb 12, 2017"
3559,El Paso International,El Paso,United States,ELP,KELP,31.80725,-106.377583,3958,-7,A,"El Paso, TX",822,821,822,823,4.178832116788324,12.638246041412904,20.0,49.0,"Mon, Feb  6, 2017","Wed, Feb  1, 2017"
4276,Erie International-Tom Ridge Field,Erie,United States,ERI,KERI,42.082022,-80.176217,733,-5,A,"Erie, PA",104,105,104,105,3.7884615384615383,20.409523809523808,9.0,101.0,"Mon, Feb 13, 2017","Wed, Feb  1, 2017"
6800,Delta County Airport,Escanaba,United States,ESC,KESC,45.722778,-87.093611,609,-5,A,"Escanaba, MI",45,45,48,48,4.844444444444445,13.533333333333333,8.0,46.0,"Sat, Feb 25, 2017","Tue, Feb  7, 2017"
4099,Mahlon Sweet Field,Eugene,United States,EUG,KEUG,44.124583,-123.211972,374,-8,A,"Eugene, OR",242,243,242,243,3.822314049586777,16.419753086419753,16.0,63.0,"Mon, Feb 13, 2017","Fri, Feb  3, 2017"
4018,Evansville Regional,Evansville,United States,EVV,KEVV,38.036997,-87.532364,418,-6,A,"Evansville, IN",216,217,218,218,4.217592592592595,16.649769585253456,9.0,53.0,"Fri, Feb 17, 2017","Wed, Feb  8, 2017"
3730,Craven County Regional,New Bern,United States,EWN,KEWN,35.072972,-77.042944,18,-5,A,"New Bern/Morehead/Beaufort, NC",51,51,51,51,3.1176470588235294,15.196078431372545,6.0,46.0,"Sun, Feb 12, 2017","Wed, Feb  1, 2017"
3494,Newark Liberty International,Newark,United States,EWR,KEWR,40.6925,-74.168667,18,-5,A,"Newark, NJ",7943,7960,8320,8323,9.391917411557376,21.266080402010022,69.0,136.0,"Fri, Feb 24, 2017","Sat, Feb 25, 2017"
3875,Key West International,Key West,United States,EYW,KEYW,24.556111,-81.759556,3,-5,A,"Key West, FL",167,167,167,167,2.8562874251497017,9.000000000000004,6.0,33.0,"Wed, Feb 15, 2017","Wed, Feb  8, 2017"
3832,Fairbanks International,Fairbanks,United States,FAI,PAFA,64.815114,-147.856267,434,-9,A,"Fairbanks, AK",151,153,156,156,3.761589403973509,18.03921568627451,11.0,84.0,"Wed, Feb 22, 2017","Fri, Feb 24, 2017"
4292,Hector International Airport,Fargo,United States,FAR,KFAR,46.92065,-96.8157639,902,-6,A,"Fargo, ND",198,199,199,199,5.5050505050505025,19.236180904522605,43.0,51.0,"Tue, Feb  7, 2017","Mon, Feb 20, 2017"
3687,Fresno Yosemite International,Fresno,United States,FAT,KFAT,36.776194,-119.71814,336,-8,A,"Fresno, CA",588,589,593,594,5.13095238095238,17.12733446519527,26.0,106.0,"Mon, Feb 27, 2017","Mon, Feb 20, 2017"
5738,Fayetteville Regional-Grannis Field,Fayetteville,United States,FAY,KFAY,34.9912,-78.8803,189,-5,A,"Fayetteville, NC",127,126,128,128,4.299212598425195,15.015873015873016,8.0,46.0,"Mon, Feb 13, 2017","Tue, Feb  7, 2017"
4127,Glacier Park International,Kalispell,United States,FCA,KFCA,48.310472,-114.256,2977,-7,A,"Kalispell, MT",163,163,164,164,5.349693251533743,21.134969325153378,18.0,79.0,"Mon, Feb 20, 2017","Sat, Feb  4, 2017"
4261,Flagstaff Pulliam Airport,Flagstaff,United States,FLG,KFLG,35.140318,-111.6692392,7015,-7,N,"Flagstaff, AZ",92,92,97,97,3.97826086956522,20.749999999999996,7.0,59.0,"Fri, Feb  3, 2017","Thu, Feb 16, 2017"
3533,Fort Lauderdale Hollywood International,Fort Lauderdale,United States,FLL,KFLL,26.072583,-80.15275,9,-5,A,"Fort Lauderdale, FL",7145,7153,7266,7269,7.937158852344297,15.576541311337904,75.0,74.0,"Sat, Feb 25, 2017","Mon, Feb  6, 2017"
4089,Bishop International,Flint,United States,FNT,KFNT,42.965424,-83.743629,782,-5,A,"Flint, MI",365,364,369,369,4.627397260273979,13.467032967032962,9.0,54.0,"Wed, Feb 15, 2017","Fri, Feb 24, 2017"
4009,Sioux Falls,Sioux Falls,United States,FSD,KFSD,43.582014,-96.741914,1429,-6,A,"Sioux Falls, SD",330,330,333,333,5.775757575757578,18.236363636363638,27.0,66.0,"Sat, Feb  4, 2017","Thu, Feb 23, 2017"
3437,Fort Smith Regional,Fort Smith,United States,FSM,KFSM,35.336583,-94.367444,469,-6,A,"Fort Smith, AR",79,79,79,79,4.253164556962025,15.063291139240508,13.0,37.0,"Mon, Feb 20, 2017","Sun, Feb 19, 2017"
4041,Fort Wayne,Fort Wayne,United States,FWA,KFWA,40.978472,-85.195139,815,-5,A,"Fort Wayne, IN",403,403,408,408,6.285359801488836,16.930521091811443,30.0,68.0,"Fri, Feb  3, 2017","Fri, Feb 24, 2017"
4296,Gillette-Campbell County Airport,Gillette,United States,GCC,KGCC,44.3489167,-105.5393611,4365,-7,A,"Gillette, WY",80,80,80,80,5.425000000000002,16.525,11.0,64.0,"Fri, Feb  3, 2017","Thu, Feb 23, 2017"
3497,Garden City Regional,Garden City,United States,GCK,KGCK,37.927528,-100.724417,2891,-6,A,"Garden City, KS",56,56,56,56,4.910714285714284,15.178571428571429,14.0,41.0,"Tue, Feb 21, 2017","Mon, Feb  6, 2017"
3467,Spokane International,Spokane,United States,GEG,KGEG,47.619861,-117.533833,2376,-8,A,"Spokane, WA",815,814,823,823,4.59877300613497,19.24447174447174,22.0,144.0,"Sun, Feb  5, 2017","Thu, Feb  9, 2017"
3442,Grand Forks International,Grand Forks,United States,GFK,KGFK,47.949256,-97.176111,845,-6,A,"Grand Forks, ND",88,88,88,88,4.681818181818183,20.34090909090909,8.0,41.0,"Wed, Feb  1, 2017","Tue, Feb  7, 2017"
4063,Grand Junction Regional,Grand Junction,United States,GJT,KGJT,39.122413,-108.526735,4858,-7,A,"Grand Junction, CO",159,160,159,160,3.9119496855345903,16.243750000000002,31.0,59.0,"Sat, Feb 25, 2017","Tue, Feb 28, 2017"
3472,Gainesville Regional,Gainesville,United States,GNV,KGNV,29.690056,-82.271778,152,-5,A,"Gainesville, FL",180,180,180,180,4.105555555555555,15.877777777777784,39.0,117.0,"Tue, Feb 21, 2017","Tue, Feb  7, 2017"
4038,Gulfport-Biloxi,Gulfport,United States,GPT,KGPT,30.407278,-89.070111,28,-6,A,"Gulfport/Biloxi, MS",173,173,173,173,4.491329479768788,15.104046242774569,11.0,68.0,"Mon, Feb 20, 2017","Thu, Feb  2, 2017"
3653,Austin Straubel International,Green Bay,United States,GRB,KGRB,44.485072,-88.129589,695,-6,A,"Green Bay, WI",298,298,304,303,4.657718120805365,16.741610738255023,19.0,94.0,"Wed, Feb  1, 2017","Tue, Feb 28, 2017"
5740,Central Nebraska Regional Airport,Grand Island,United States,GRI,KGRI,40.9675,-98.3096,1847,-6,A,"Grand Island, NE",28,29,28,29,3.8214285714285716,19.241379310344822,8.0,40.0,"Tue, Feb  7, 2017","Tue, Feb  7, 2017"
3775,Robert Gray AAF,Killeen,United States,GRK,KGRK,31.06725,-97.828917,1015,-6,A,"Killeen, TX",117,116,117,116,4.418803418803421,15.956896551724144,16.0,42.0,"Sun, Feb 12, 2017","Sun, Feb  5, 2017"
3685,Gerald R. Ford International,Grand Rapids,United States,GRR,KGRR,42.880833,-85.522806,794,-5,A,"Grand Rapids, MI",890,893,904,902,4.821348314606743,15.086226203807396,43.0,102.0,"Sat, Feb 18, 2017","Tue, Feb 28, 2017"
4008,Piedmont Triad,Greensboro,United States,GSO,KGSO,36.09775,-79.937306,925,-5,A,"Greensboro/High Point, NC",388,387,398,397,4.1726804123711325,16.785529715762273,21.0,86.0,"Sat, Feb 11, 2017","Wed, Feb  8, 2017"
4034,Greenville-Spartanburg International,Greenville,United States,GSP,KGSP,34.895556,-82.218889,964,-5,A,"Greer, SC",391,391,393,394,3.833759590792839,16.352941176470587,27.0,50.0,"Thu, Feb 16, 2017","Sat, Feb 25, 2017"
3880,Great Falls International,Great Falls,United States,GTF,KGTF,47.482,-111.370689,3677,-7,A,"Great Falls, MT",112,111,112,111,4.562499999999999,18.891891891891888,23.0,52.0,"Thu, Feb 23, 2017","Mon, Feb  6, 2017"
4273,Golden Triangle Regional Airport,Columbus Mississippi,United States,GTR,KGTR,33.450333,-88.591361,264,-6,A,"Columbus, MS",76,76,76,76,3.25,20.342105263157897,7.0,61.0,"Tue, Feb 14, 2017","Sun, Feb 12, 2017"
7051,Gunnison - Crested Butte,Gunnison,United States,GUC,KGUC,38.533889,-106.933056,7678,-7,A,"Gunnison, CO",34,34,34,34,3.6470588235294117,12.852941176470589,6.0,34.0,"Fri, Feb 10, 2017","Tue, Feb  7, 2017"
4339,Yampa Valley,Hayden,United States,HDN,KHDN,40.481181,-107.21766,6602,-7,A,"Hayden, CO",160,160,161,161,4.906250000000002,20.499999999999993,32.0,118.0,"Sat, Feb 18, 2017","Thu, Feb  2, 2017"
3650,Chisholm Hibbing,Hibbing,United States,HIB,KHIB,47.3866,-92.838994,1353,-6,A,"Hibbing, MN",64,63,64,63,4.703124999999999,19.03174603174603,11.0,46.0,"Thu, Feb 16, 2017","Sun, Feb  5, 2017"
3504,Helena Regional,Helena,United States,HLN,KHLN,46.606806,-111.98275,3877,-7,A,"Helena, MT",110,110,110,110,3.536363636363636,22.57272727272728,8.0,114.0,"Mon, Feb  6, 2017","Fri, Feb 10, 2017"
3728,Honolulu International,Honolulu,United States,HNL,PHNL,21.318681,-157.922428,13,-10,N,"Honolulu, HI",3483,3486,3493,3495,7.837496411139822,15.499139414802066,41.0,80.0,"Tue, Feb 14, 2017","Mon, Feb  6, 2017"
3749,Lea County Regional,Hobbs,United States,HOB,KHOB,32.687528,-103.217028,3661,-7,A,"Hobbs, NM",47,47,48,48,5.340425531914893,9.829787234042554,11.0,32.0,"Sat, Feb 18, 2017","Fri, Feb 17, 2017"
3566,William P. Hobby,Houston,United States,HOU,KHOU,29.645419,-95.278889,46,-6,A,"Houston, TX",3973,3986,4014,4013,6.563805688396679,11.510536879076776,53.0,45.0,"Fri, Feb 17, 2017","Fri, Feb 17, 2017"
3589,Westchester County,White Plains,United States,HPN,KHPN,41.066959,-73.707575,439,-5,A,"White Plains, NY",460,461,492,491,4.478260869565213,14.739696312364424,25.0,57.0,"Fri, Feb 10, 2017","Sat, Feb 25, 2017"
3560,Valley International,Harlingen,United States,HRL,KHRL,26.2285,-97.654389,36,-6,A,"Harlingen/San Benito, TX",182,182,186,186,3.2142857142857144,10.142857142857135,8.0,34.0,"Mon, Feb 20, 2017","Wed, Feb 15, 2017"
4113,Huntsville International Airport-Carl T. Jones Field,Huntsville,United States,HSV,KHSV,34.6371944,-86.7750556,629,-6,A,"Huntsville, AL",254,254,254,254,4.5866141732283445,15.11811023622048,12.0,46.0,"Mon, Feb  6, 2017","Wed, Feb 15, 2017"
7014,Hays Regional Airport,Hays,United States,HYS,KHYS,38.8422,-99.2732,1998,-5,A,"Hays, KS",48,48,48,48,3.5833333333333335,14.875,7.0,36.0,"Thu, Feb  9, 2017","Sun, Feb  5, 2017"
3714,Washington Dulles International,Washington,United States,IAD,KIAD,38.944533,-77.455811,313,-5,A,"Washington, DC",2262,2258,2278,2276,5.860300618921308,15.687776793622675,34.0,98.0,"Thu, Feb  9, 2017","Sat, Feb 25, 2017"
3630,Niagara Falls International,Niagara Falls,United States,IAG,KIAG,43.107333,-78.946194,589,-5,A,"Niagara Falls, NY",62,62,64,64,6.451612903225806,12.5,10.0,32.0,"Mon, Feb 13, 2017","Wed, Feb  1, 2017"
3550,George Bush Intercontinental Houston,Houston,United States,IAH,KIAH,29.984433,-95.341442,97,-6,A,"Houston, TX",9836,9858,9886,9894,8.22478649857667,16.78758368837496,94.0,100.0,"Tue, Feb 14, 2017","Tue, Feb 14, 2017"
3457,Wichita Mid Continent,Wichita,United States,ICT,KICT,37.649944,-97.433056,1333,-6,A,"Wichita, KS",601,603,603,605,4.394342762063233,12.87230514096186,13.0,44.0,"Mon, Feb  6, 2017","Tue, Feb 28, 2017"
4100,Idaho Falls Regional,Idaho Falls,United States,IDA,KIDA,43.514556,-112.07075,4744,-7,A,"Idaho Falls, ID",167,168,167,168,4.413173652694612,18.589285714285715,9.0,51.0,"Wed, Feb  1, 2017","Thu, Feb 23, 2017"
6131,Laughlin-Bullhead International,Bullhead,United States,IFP,IFP,35.1574,-114.56,695,-7,A,"Bullhead City, AZ",13,13,13,13,6.3076923076923075,17.846153846153847,17.0,45.0,"Sun, Feb 19, 2017","Mon, Feb 27, 2017"
3845,Wilmington International,Wilmington,United States,ILM,KILM,34.270615,-77.902569,32,-5,A,"Wilmington, NC",192,192,193,192,3.71875,16.291666666666682,14.0,64.0,"Wed, Feb 15, 2017","Sat, Feb 11, 2017"
6837,Ford Airport,Iron Mountain,United States,IMT,KIMT,45.8183611,-88.1145556,1182,-5,A,"Iron Mountain/Kingsfd, MI",49,53,52,53,4.571428571428571,20.49056603773584,9.0,72.0,"Tue, Feb  7, 2017","Fri, Feb 24, 2017"
3585,Indianapolis International,Indianapolis,United States,IND,KIND,39.717331,-86.294383,797,-5,A,"Indianapolis, IN",1882,1879,1903,1900,6.342189160467587,12.839808408728043,79.0,77.0,"Tue, Feb 28, 2017","Mon, Feb 20, 2017"
3535,Falls International,International Falls,United States,INL,KINL,48.566186,-93.403067,1185,-6,A,"International Falls, MN",47,48,47,48,5.021276595744682,19.645833333333332,17.0,87.0,"Sat, Feb 11, 2017","Sun, Feb 12, 2017"
3659,Sloulin Field International,Williston,United States,ISN,KISN,48.177939,-103.642347,1982,-7,A,"Williston, ND",56,56,56,56,5.642857142857143,22.839285714285715,18.0,64.0,"Mon, Feb 13, 2017","Tue, Feb  7, 2017"
3857,Long Island MacArthur,Islip,United States,ISP,KISP,40.79525,-73.100222,99,-5,A,"Islip, NY",328,322,340,340,4.993902439024388,11.503105590062106,26.0,105.0,"Fri, Feb  3, 2017","Sat, Feb 25, 2017"
3947,Ithaca Tompkins Regional,Ithaca,United States,ITH,KITH,42.491028,-76.458444,1099,-5,A,"Ithaca/Cortland, NY",51,51,51,51,4.11764705882353,29.45098039215686,9.0,61.0,"Mon, Feb 27, 2017","Fri, Feb 17, 2017"
3415,Hilo International,Hilo,United States,ITO,PHTO,19.721375,-155.048469,38,-10,N,"Hilo, HI",469,441,469,441,5.379530916844351,9.219954648526073,9.0,65.0,"Sat, Feb 18, 2017","Mon, Feb  6, 2017"
4027,Jackson Hole Airport,Jacksn Hole,United States,JAC,KJAC,43.60733333,-110.73775,6451,-7,A,"Jackson, WY",298,295,315,315,4.724832214765098,25.24745762711865,141.0,131.0,"Mon, Feb  6, 2017","Mon, Feb 20, 2017"
3580,Jackson Evers International,Jackson,United States,JAN,KJAN,32.311167,-90.075889,346,-6,A,"Jackson/Vicksburg, MS",304,304,304,304,4.05592105263158,14.526315789473681,31.0,66.0,"Sun, Feb 26, 2017","Tue, Feb  7, 2017"
3712,Jacksonville International,Jacksonville,United States,JAX,KJAX,30.494056,-81.687861,30,-5,A,"Jacksonville, FL",1254,1254,1265,1265,4.966507177033494,13.706539074960121,42.0,109.0,"Sat, Feb  4, 2017","Tue, Feb  7, 2017"
3797,John F. Kennedy International,New York,United States,JFK,KJFK,40.639751,-73.778925,13,-5,A,"New York, NY",6909,6911,7186,7186,8.294688088001195,24.229923310664166,71.0,152.0,"Fri, Feb 10, 2017","Sat, Feb 25, 2017"
5745,Jamestown Regional Airport,Jamestown,United States,JMS,KJMS,46.9297,-98.6782,1498,-6,A,"Jamestown, ND",75,74,76,76,5.226666666666667,16.1891891891892,39.0,41.0,"Thu, Feb 16, 2017","Mon, Feb  6, 2017"
3492,Juneau International,Juneau,United States,JNU,PAJN,58.354972,-134.576278,21,-9,A,"Juneau, AK",289,289,296,296,4.152249134948098,13.449826989619377,9.0,52.0,"Fri, Feb  3, 2017","Sat, Feb 11, 2017"
3514,Kona International At Keahole,Kona,United States,KOA,PHKO,19.738767,-156.045631,47,-10,N,"Kona, HI",933,959,933,961,5.4737406216505855,11.265901981230439,78.0,47.0,"Sat, Feb 25, 2017","Mon, Feb  6, 2017"
3808,Ketchikan International,Ketchikan,United States,KTN,PAKT,55.355556,-131.71375,88,-9,A,"Ketchikan, AK",156,156,164,164,4.307692307692309,11.006410256410259,15.0,65.0,"Thu, Feb 16, 2017","Tue, Feb 28, 2017"
3544,Capital City,Lansing,United States,LAN,KLAN,42.7787,-84.587357,861,-5,A,"Lansing, MI",262,262,263,263,4.587786259541983,15.896946564885496,13.0,54.0,"Fri, Feb 24, 2017","Thu, Feb  9, 2017"
5746,Laramie Regional Airport,Laramie,United States,LAR,KLAR,41.3121,-105.675,7284,-7,A,"Laramie, WY",47,47,48,48,4.404255319148934,15.106382978723405,8.0,47.0,"Tue, Feb  7, 2017","Wed, Feb 22, 2017"
3877,McCarran International,Las Vegas,United States,LAS,KLAS,36.080056,-115.15225,2141,-8,A,"Las Vegas, NV",10972,10970,11072,11063,7.016405395552318,13.99216043755698,79.0,95.0,"Tue, Feb 28, 2017","Mon, Feb 20, 2017"
4256,Lawton-Fort Sill Regional Airport,Lawton,United States,LAW,KLAW,34.5677144,-98.4166367,1110,-6,A,"Lawton/Fort Sill, OK",13,13,13,13,3.0,10.692307692307692,8.0,14.0,"Sun, Feb 19, 2017","Sat, Feb 18, 2017"
3484,Los Angeles International,Los Angeles,United States,LAX,KLAX,33.942536,-118.408075,126,-8,A,"Los Angeles, CA",15311,15332,15577,15569,14.448697015217821,18.405557004957103,147.0,161.0,"Sat, Feb 18, 2017","Fri, Feb  3, 2017"
3829,Lubbock Preston Smith International,Lubbock,United States,LBB,KLBB,33.663639,-101.822778,3282,-6,A,"Lubbock, TX",310,310,310,311,4.841935483870966,10.903225806451612,22.0,36.0,"Tue, Feb  7, 2017","Fri, Feb 10, 2017"
5747,Arnold Palmer Regional Airport,Latrobe,United States,LBE,KLBE,40.2759,-79.4048,1185,-5,A,"Latrobe, PA",93,93,98,98,5.881720430107528,12.655913978494626,34.0,56.0,"Sun, Feb 26, 2017","Thu, Feb 16, 2017"
3513,Lake Charles Regional,Lake Charles,United States,LCH,KLCH,30.126112,-93.223335,15,-6,A,"Lake Charles, LA",121,121,121,121,4.826446280991733,13.512396694214877,10.0,40.0,"Fri, Feb 10, 2017","Fri, Feb 24, 2017"
4017,Blue Grass,Lexington KY,United States,LEX,KLEX,38.0365,-84.605889,979,-5,A,"Lexington, KY",453,453,461,461,4.98013245033113,16.679911699779247,23.0,66.0,"Tue, Feb 28, 2017","Sun, Feb 26, 2017"
3493,Lafayette Regional,Lafayette,United States,LFT,KLFT,30.205278,-91.987611,43,-6,A,"Lafayette, LA",268,269,269,270,5.638059701492537,13.587360594795536,35.0,49.0,"Fri, Feb  3, 2017","Wed, Feb  1, 2017"
3697,LaGuardia Airport,New York,United States,LGA,KLGA,40.777245,-73.872608,22,-5,A,"New York, NY",6582,6569,6921,6923,8.433151017927683,25.06317552138837,87.0,164.0,"Sun, Feb 12, 2017","Sun, Feb 12, 2017"
3582,Long Beach,Long Beach,United States,LGB,KLGB,33.817722,-118.151611,60,-8,A,"Long Beach, CA",1198,1191,1216,1218,4.056761268781285,13.041981528127627,33.0,62.0,"Sun, Feb  5, 2017","Wed, Feb 15, 2017"
3602,Lihue,Lihue,United States,LIH,PHLI,21.975983,-159.338958,153,-10,N,"Lihue, HI",885,882,887,887,5.324293785310728,9.250566893424043,20.0,35.0,"Wed, Feb  8, 2017","Thu, Feb  2, 2017"
3660,Adams Field,Little Rock,United States,LIT,KLIT,34.729444,-92.224306,262,-6,A,"Little Rock, AR",566,565,566,566,5.362190812720846,12.507964601769908,52.0,74.0,"Tue, Feb  7, 2017","Tue, Feb  7, 2017"
3543,Lincoln,Lincoln,United States,LNK,KLNK,40.850971,-96.75925,1219,-6,A,"Lincoln, NE",223,221,223,222,4.224215246636774,15.895927601809946,16.0,46.0,"Fri, Feb 17, 2017","Fri, Feb 24, 2017"
3691,Laredo International,Laredo,United States,LRD,KLRD,27.54375,-99.461556,508,-6,A,"Laredo, TX",179,179,179,179,3.5977653631284916,13.223463687150838,7.0,46.0,"Fri, Feb 10, 2017","Thu, Feb  2, 2017"
4044,LaCrosse Municipal,LaCrosse,United States,LSE,KLSE,43.878986,-91.256711,654,-6,A,"La Crosse, WI",53,51,53,51,3.9245283018867925,22.470588235294116,8.0,125.0,"Fri, Feb 24, 2017","Tue, Feb 21, 2017"
3945,Lewiston Nez Perce County,Lewiston,United States,LWS,KLWS,46.3745,-117.015389,1442,-8,A,"Lewiston, ID",42,42,44,43,4.714285714285713,16.642857142857142,12.0,39.0,"Fri, Feb  3, 2017","Thu, Feb  2, 2017"
3652,Midland International,Midland,United States,MAF,KMAF,31.942528,-102.201914,2871,-6,A,"Midland/Odessa, TX",431,427,432,429,5.180974477958236,11.449648711943798,45.0,110.0,"Thu, Feb  9, 2017","Sun, Feb  5, 2017"
4128,MBS International,Saginaw,United States,MBS,KMBS,43.532913,-84.079647,668,-5,A,"Saginaw/Bay City/Midland, MI",192,191,193,191,4.692708333333334,16.63350785340313,15.0,55.0,"Mon, Feb 13, 2017","Fri, Feb 24, 2017"
3458,Kansas City International,Kansas City,United States,MCI,KMCI,39.297606,-94.713905,1026,-6,A,"Kansas City, MO",3214,3211,3231,3231,5.3907902924704505,11.200872002491458,52.0,111.0,"Fri, Feb 24, 2017","Tue, Feb 28, 2017"
3878,Orlando International,Orlando,United States,MCO,KMCO,28.429394,-81.308994,96,-5,A,"Orlando, FL",9976,9974,10110,10105,9.014434643143556,14.454882695007004,62.0,105.0,"Tue, Feb 28, 2017","Mon, Feb 13, 2017"
3542,Harrisburg International,Harrisburg,United States,MDT,KMDT,40.193494,-76.763403,310,-5,A,"Harrisburg, PA",191,191,191,191,4.93717277486911,16.109947643979055,42.0,135.0,"Tue, Feb 28, 2017","Thu, Feb  9, 2017"
3747,Chicago Midway International,Chicago,United States,MDW,KMDW,41.785972,-87.752417,620,-6,A,"Chicago, IL",5735,5742,5814,5814,6.568788142981689,11.098920236851235,49.0,93.0,"Sat, Feb 11, 2017","Tue, Feb 28, 2017"
4335,Key Field,Meridian,United States,MEI,KMEI,32.332624,-88.751868,297,-6,A,"Meridian, MS",76,76,76,76,3.776315789473684,13.578947368421053,7.0,87.0,"Fri, Feb 17, 2017","Tue, Feb  7, 2017"
3473,Memphis International,Memphis,United States,MEM,KMEM,35.042417,-89.976667,341,-6,A,"Memphis, TN",1069,1071,1078,1078,5.194574368568749,14.536881419234385,19.0,59.0,"Sat, Feb 25, 2017","Fri, Feb 17, 2017"
3826,McAllen Miller International,Mcallen,United States,MFE,KMFE,26.175833,-98.238611,107,-6,A,"Mission/McAllen/Edinburg, TX",152,152,152,152,4.6118421052631575,12.138157894736842,19.0,52.0,"Thu, Feb 23, 2017","Sun, Feb  5, 2017"
4101,Rogue Valley International Medford,Medford,United States,MFR,KMFR,42.374228,-122.8735,1335,-8,A,"Medford, OR",179,181,193,193,4.016759776536311,17.353591160220983,18.0,48.0,"Fri, Feb 24, 2017","Fri, Feb  3, 2017"
4115,Montgomery Regional Airport ,MONTGOMERY,United States,MGM,KMGM,32.3006389,-86.3939722,221,-6,A,"Montgomery, AL",201,201,202,202,3.1343283582089554,16.815920398009943,9.0,53.0,"Wed, Feb  1, 2017","Tue, Feb 28, 2017"
4011,Manchester Regional Airport,Manchester NH,United States,MHT,KMHT,42.932556,-71.435667,266,-5,A,"Manchester, NH",416,419,446,448,5.019230769230766,16.386634844868745,36.0,96.0,"Fri, Feb  3, 2017","Wed, Feb  8, 2017"
3576,Miami International,Miami,United States,MIA,KMIA,25.79325,-80.290556,8,-5,A,"Miami, FL",5254,5261,5319,5322,10.237913970308313,18.89773807260979,102.0,149.0,"Sat, Feb  4, 2017","Sat, Feb 25, 2017"
3717,General Mitchell International,Milwaukee,United States,MKE,KMKE,42.947222,-87.896583,723,-6,A,"Milwaukee, WI",2300,2304,2327,2327,5.532173913043477,13.318142361111104,51.0,86.0,"Fri, Feb 17, 2017","Sat, Feb  4, 2017"
5754,Muskegon County Airport,Muskegon,United States,MKG,KMKG,43.1695,-86.2382,628,-5,A,"Muskegon, MI",51,51,52,52,4.6274509803921555,14.058823529411764,10.0,30.0,"Wed, Feb  8, 2017","Wed, Feb 15, 2017"
3671,Melbourne International,Melbourne,United States,MLB,KMLB,28.102753,-80.645258,33,-5,A,"Melbourne, FL",102,102,102,102,4.254901960784315,15.931372549019612,18.0,35.0,"Tue, Feb  7, 2017","Tue, Feb  7, 2017"
4072,Quad City International,Moline,United States,MLI,KMLI,41.448528,-90.507539,590,-6,A,"Moline, IL",208,207,209,208,4.249999999999999,15.222222222222221,24.0,46.0,"Sun, Feb 12, 2017","Wed, Feb  8, 2017"
3732,Monroe Regional,Monroe,United States,MLU,KMLU,32.510864,-92.037689,79,-6,A,"Monroe, LA",222,222,222,222,4.216216216216212,15.171171171171176,19.0,102.0,"Fri, Feb 24, 2017","Sat, Feb  4, 2017"
7081,Mammoth Yosemite Airport,Mammoth Lakes,United States,MMH,KMMH,37.624049,-118.837772,7128,-8,A,"Mammoth Lakes, CA",20,19,28,28,3.7,22.210526315789473,7.0,92.0,"Sun, Feb  5, 2017","Fri, Feb 10, 2017"
3782,Mobile Regional,Mobile,United States,MOB,KMOB,30.691231,-88.242814,219,-6,A,"Mobile, AL",369,370,370,371,4.111111111111112,15.610810810810813,44.0,65.0,"Wed, Feb 22, 2017","Wed, Feb  8, 2017"
3498,Minot International,Minot,United States,MOT,KMOT,48.259378,-101.280333,1716,-6,A,"Minot, ND",90,89,91,90,5.466666666666665,21.325842696629213,35.0,66.0,"Sat, Feb  4, 2017","Wed, Feb  8, 2017"
6838,Sawyer International Airport,Marquette,United States,MQT,KMQT,46.353611,-87.395278,1221,-5,A,"Marquette, MI",48,49,52,52,5.354166666666668,25.857142857142858,8.0,73.0,"Wed, Feb 22, 2017","Fri, Feb 24, 2017"
3948,Monterey Peninsula,Monterey,United States,MRY,KMRY,36.587,-121.842944,257,-8,A,"Monterey, CA",204,207,220,218,3.6029411764705883,17.193236714975853,6.0,59.0,"Mon, Feb 20, 2017","Tue, Feb 21, 2017"
3459,Dane County Regional-Truax Field,Madison,United States,MSN,KMSN,43.139858,-89.337514,887,-6,A,"Madison, WI",632,632,639,638,4.4003164556962,14.909810126582279,41.0,70.0,"Thu, Feb 23, 2017","Fri, Feb 24, 2017"
4216,Missoula International,Missoula,United States,MSO,KMSO,46.916306,-114.090556,3205,-7,A,"Missoula, MT",124,124,124,124,5.169354838709675,17.951612903225815,18.0,91.0,"Mon, Feb 27, 2017","Sat, Feb  4, 2017"
3858,Minneapolis St. Paul International,Minneapolis,United States,MSP,KMSP,44.881956,-93.221767,841,-6,A,"Minneapolis, MN",8892,8915,8934,8950,5.6298920377867665,17.25586090858106,61.0,127.0,"Thu, Feb 23, 2017","Tue, Feb  7, 2017"
3861,Louis Armstrong New Orleans International,New Orleans,United States,MSY,KMSY,29.993389,-90.258028,4,-6,A,"New Orleans, LA",3297,3292,3316,3312,5.015165301789519,11.419501822600246,45.0,70.0,"Tue, Feb  7, 2017","Sun, Feb  5, 2017"
6880,Montrose Regional Airport,Montrose CO,United States,MTJ,KMTJ,38.509794,-107.894242,5759,-7,A,"Montrose/Delta, CO",145,144,145,145,5.206896551724139,15.784722222222216,52.0,43.0,"Sat, Feb 25, 2017","Sat, Feb 25, 2017"
3515,Myrtle Beach International,Myrtle Beach,United States,MYR,KMYR,33.67975,-78.928333,25,-5,A,"Myrtle Beach, SC",312,312,321,321,4.44551282051282,11.679487179487177,13.0,43.0,"Sun, Feb 26, 2017","Tue, Feb 21, 2017"
4386,Albert J. Ellis,Jacksonville NC,United States,OAJ,KOAJ,34.829164,-77.612139,94,-5,A,"Jacksonville/Camp Lejeune, NC",78,78,78,78,3.551282051282051,16.32051282051282,10.0,44.0,"Thu, Feb  9, 2017","Thu, Feb  9, 2017"
3453,Metropolitan Oakland International,Oakland,United States,OAK,KOAK,37.721278,-122.220722,9,-8,A,"Oakland, CA",3446,3469,3514,3524,6.378409750435285,12.458345344479683,47.0,99.0,"Fri, Feb 17, 2017","Thu, Feb 16, 2017"
3456,Kahului,Kahului,United States,OGG,PHOG,20.89865,-156.430458,54,-10,N,"Kahului, HI",1822,1819,1825,1825,6.3600439077936315,10.302913688840016,82.0,73.0,"Mon, Feb  6, 2017","Sun, Feb 19, 2017"
3863,Will Rogers World,Oklahoma City,United States,OKC,KOKC,35.393089,-97.600733,1295,-6,A,"Oklahoma City, OK",1041,1043,1043,1045,4.657060518731987,11.769894534995212,39.0,61.0,"Sun, Feb 26, 2017","Thu, Feb  2, 2017"
3454,Eppley Airfield,Omaha,United States,OMA,KOMA,41.303167,-95.894069,984,-6,A,"Omaha, NE",1447,1447,1457,1456,4.415342087076712,14.899792674498958,25.0,146.0,"Fri, Feb 24, 2017","Wed, Feb  8, 2017"
3615,Nome,Nome,United States,OME,PAOM,64.512203,-165.445247,37,-9,A,"Nome, AK",50,51,56,56,4.02,6.2745098039215685,6.0,19.0,"Wed, Feb  1, 2017","Wed, Feb  1, 2017"
3734,Ontario International,Ontario,United States,ONT,KONT,34.056,-117.601194,944,-8,A,"Ontario, CA",1506,1500,1534,1534,4.7456839309429055,11.516000000000005,23.0,68.0,"Mon, Feb  6, 2017","Tue, Feb 21, 2017"
3830,Chicago O'Hare International,Chicago,United States,ORD,KORD,41.978603,-87.904842,668,-6,A,"Chicago, IL",17567,17574,17773,17775,11.121648545568393,18.591100489359143,92.0,156.0,"Tue, Feb 28, 2017","Tue, Feb 28, 2017"
3611,Norfolk International,Norfolk,United States,ORF,KORF,36.894611,-76.201222,26,-5,A,"Norfolk, VA",660,661,663,664,4.037878787878787,12.173978819969749,20.0,53.0,"Thu, Feb  2, 2017","Tue, Feb  7, 2017"
6426,Worcester Regional Airport,Worcester,United States,ORH,KORH,42.2673,-71.8757,1009,-5,U,"Worcester, MA",50,50,56,54,3.6,11.84,5.0,24.0,"Thu, Feb  2, 2017","Sat, Feb 18, 2017"
5757,Southwest Oregon Regional Airport,North Bend,United States,OTH,KOTH,43.4171,-124.246,17,-8,A,"North Bend/Coos Bay, OR",11,11,17,16,3.6363636363636362,15.454545454545455,5.0,36.0,"Mon, Feb 27, 2017","Sun, Feb 19, 2017"
3693,Ralph WienMemorial,Kotzebue,United States,OTZ,PAOT,66.884678,-162.59855,11,-9,A,"Kotzebue, AK",51,52,56,56,4.078431372549021,6.576923076923077,7.0,24.0,"Mon, Feb 13, 2017","Sat, Feb 11, 2017"
4117,Barkley Regional Airport,PADUCAH,United States,PAH,KPAH,37.0602875,-88.7729583,410,-6,A,"Paducah, KY",51,52,52,52,4.117647058823531,11.173076923076922,7.0,29.0,"Mon, Feb 13, 2017","Sun, Feb 26, 2017"
3771,Plattsburgh International,Plattsburgh,United States,PBG,KPBG,44.650944,-73.468139,234,-5,A,"Plattsburgh, NY",53,53,56,56,5.113207547169812,17.905660377358483,10.0,47.0,"Mon, Feb 27, 2017","Tue, Feb  7, 2017"
3722,Palm Beach International,West Palm Beach,United States,PBI,KPBI,26.683161,-80.095589,19,-5,A,"West Palm Beach/Palm Beach, FL",2225,2226,2283,2283,5.00674157303368,15.810871518418704,31.0,147.0,"Mon, Feb 13, 2017","Wed, Feb 22, 2017"
3720,Portland International,Portland,United States,PDX,KPDX,45.588722,-122.5975,30,-8,A,"Portland, OR",4084,4092,4121,4124,4.827130264446619,13.756842619745857,55.0,126.0,"Fri, Feb  3, 2017","Fri, Feb  3, 2017"
7056,Charlotte County-Punta Gorda Airport,Punta Gorda,United States,PGD,KPGD,26.919722,-81.990556,26,-5,A,"Punta Gorda, FL",50,50,53,54,7.920000000000001,13.4,13.0,31.0,"Mon, Feb  6, 2017","Sun, Feb 19, 2017"
3633,Newport News Williamsburg International,Newport News,United States,PHF,KPHF,37.131894,-76.492989,43,-5,A,"Newport News/Williamsburg, VA",78,78,78,78,3.8974358974358982,13.128205128205128,7.0,36.0,"Mon, Feb 20, 2017","Fri, Feb 17, 2017"
3752,Philadelphia International,Philadelphia,United States,PHL,KPHL,39.871944,-75.241139,36,-5,A,"Philadelphia, PA",5117,5104,5208,5205,5.585303888997457,18.33581504702194,67.0,158.0,"Sat, Feb 25, 2017","Sat, Feb 25, 2017"
3462,Phoenix Sky Harbor International,Phoenix,United States,PHX,KPHX,33.434278,-112.011583,1135,-7,N,"Phoenix, AZ",11804,11829,11908,11915,7.608946119959298,15.38067461323866,95.0,100.0,"Thu, Feb  9, 2017","Mon, Feb 13, 2017"
4046,Peoria Regional,Peoria,United States,PIA,KPIA,40.664203,-89.693258,660,-6,A,"Peoria, IL",232,229,233,232,5.064655172413793,18.100436681222714,43.0,76.0,"Wed, Feb  8, 2017","Wed, Feb  8, 2017"
5759,Hattiesburg Laurel Regional Airport,Hattiesburg/Laurel,United States,PIB,KPIB,31.4671,-89.3371,298,-6,A,"Hattiesburg/Laurel, MS",48,48,48,48,3.6666666666666665,20.47916666666667,7.0,147.0,"Mon, Feb 20, 2017","Wed, Feb 22, 2017"
5760,Pocatello Regional Airport,Pocatello,United States,PIH,KPIH,42.9098,-112.596,4452,-7,A,"Pocatello, ID",71,71,71,71,3.6901408450704225,17.690140845070417,10.0,58.0,"Tue, Feb  7, 2017","Fri, Feb 17, 2017"
3570,Pittsburgh International,Pittsburgh (pennsylva),United States,PIT,KPIT,40.491467,-80.232872,1204,-5,A,"Pittsburgh, PA",1889,1887,1909,1908,5.779777660137639,14.42183359830419,36.0,140.0,"Mon, Feb 27, 2017","Tue, Feb 28, 2017"
5762,Pellston Regional Airport of Emmet County Airport,Pellston,United States,PLN,KPLN,45.5709,-84.7967,720,-5,A,"Pellston, MI",51,51,68,68,6.529411764705882,18.01960784313725,11.0,73.0,"Wed, Feb  1, 2017","Fri, Feb 24, 2017"
3564,Pensacola Regional,Pensacola,United States,PNS,KPNS,30.473425,-87.186611,121,-6,A,"Pensacola, FL",373,373,373,373,4.168900804289543,13.67828418230563,11.0,35.0,"Tue, Feb  7, 2017","Mon, Feb 27, 2017"
6133,Tri Cities Airport,Pasco,United States,PSC,PSC,46.2647,-119.119,410,-8,A,"Pasco/Kennewick/Richland, WA",257,260,267,268,4.945525291828795,21.32692307692308,13.0,78.0,"Tue, Feb  7, 2017","Wed, Feb 15, 2017"
4147,Petersburg James A. Johnson,Petersburg,United States,PSG,PAPG,56.801667,-132.945278,105,-9,A,"Petersburg, AK",53,53,56,56,3.7547169811320753,7.3584905660377355,6.0,29.0,"Sat, Feb 18, 2017","Tue, Feb 28, 2017"
3839,Palm Springs International,Palm Springs,United States,PSP,KPSP,33.829667,-116.506694,477,-8,A,"Palm Springs, CA",958,963,982,984,5.563674321503133,14.37694704049844,52.0,105.0,"Fri, Feb 17, 2017","Fri, Feb 17, 2017"
3641,Theodore Francis Green State,Providence,United States,PVD,KPVD,41.732581,-71.420383,55,-5,A,"Providence, RI",853,852,907,907,5.137162954279009,14.171361502347427,43.0,85.0,"Sun, Feb 12, 2017","Sat, Feb 11, 2017"
3862,Portland International Jetport,Portland,United States,PWM,KPWM,43.646161,-70.309281,77,-5,A,"Portland, ME",314,312,342,342,4.178343949044584,18.564102564102555,30.0,82.0,"Fri, Feb 10, 2017","Sat, Feb 11, 2017"
4087,Rapid City Regional Airport,Rapid City,United States,RAP,KRAP,44.045278,-103.057222,3204,-7,A,"Rapid City, SD",144,145,146,146,5.159722222222223,18.068965517241374,21.0,58.0,"Sun, Feb 19, 2017","Thu, Feb 23, 2017"
4098,Redding Municipal,Redding,United States,RDD,KRDD,40.509,-122.293389,504,-8,A,"Redding, CA",75,73,82,82,4.24,16.506849315068497,7.0,46.0,"Thu, Feb  2, 2017","Sun, Feb 19, 2017"
4103,Roberts Field,Redmond-Bend,United States,RDM,KRDM,44.254066,-121.149964,3077,-8,A,"Bend/Redmond, OR",208,209,217,216,3.701923076923077,18.578947368421055,8.0,84.0,"Tue, Feb  7, 2017","Sun, Feb 19, 2017"
3626,Raleigh Durham International,Raleigh-durham,United States,RDU,KRDU,35.877639,-78.787472,435,-5,A,"Raleigh/Durham, NC",2409,2411,2432,2434,4.701535907015354,14.73247615097467,53.0,109.0,"Wed, Feb 22, 2017","Mon, Feb 13, 2017"
5765,Rhinelander Oneida County Airport,Rhinelander,United States,RHI,KRHI,45.6312,-89.4675,1624,-6,A,"Rhinelander, WI",60,59,71,70,5.3166666666666655,17.67796610169492,17.0,101.0,"Mon, Feb 13, 2017","Tue, Feb 21, 2017"
3608,Richmond International,Richmond,United States,RIC,KRIC,37.505167,-77.319667,167,-5,A,"Richmond, VA",1142,1140,1174,1174,6.094570928196144,15.935087719298258,27.0,98.0,"Mon, Feb 20, 2017","Mon, Feb 20, 2017"
5766,Rock Springs Sweetwater County Airport,Rock Springs,United States,RKS,KRKS,41.5942,-109.065,6760,-7,A,"Rock Springs, WY",51,51,52,52,3.8235294117647043,19.941176470588232,10.0,53.0,"Wed, Feb  1, 2017","Thu, Feb 23, 2017"
3807,Reno Tahoe International,Reno,United States,RNO,KRNO,39.499108,-119.768108,4415,-8,A,"Reno, NV",1048,1044,1077,1075,5.121183206106874,14.433908045977011,23.0,72.0,"Mon, Feb 27, 2017","Fri, Feb 17, 2017"
4016,Roanoke Regional,Roanoke VA,United States,ROA,KROA,37.325472,-79.975417,1175,-5,A,"Roanoke, VA",154,155,154,155,4.766233766233766,15.561290322580644,14.0,62.0,"Thu, Feb  9, 2017","Sun, Feb 12, 2017"
3622,Greater Rochester International,Rochester,United States,ROC,KROC,43.118866,-77.672389,559,-5,A,"Rochester, NY",497,499,506,508,6.004024144869217,16.262525050100198,16.0,114.0,"Thu, Feb  9, 2017","Mon, Feb 13, 2017"
3736,Roswell International Air Center,Roswell,United States,ROW,KROW,33.301556,-104.530556,3671,-7,A,"Roswell, NM",31,30,31,30,5.935483870967742,18.5,10.0,41.0,"Tue, Feb 21, 2017","Thu, Feb 16, 2017"
4048,Rochester,Rochester,United States,RST,KRST,43.908283,-92.500014,1317,-6,A,"Rochester, MN",121,120,125,124,4.25619834710744,16.241666666666667,30.0,69.0,"Thu, Feb 23, 2017","Thu, Feb 23, 2017"
3793,Southwest Florida International,Fort Myers,United States,RSW,KRSW,26.536167,-81.755167,30,-5,A,"Fort Myers, FL",3064,3058,3099,3096,5.382832898172324,13.22269457161543,68.0,71.0,"Sat, Feb 25, 2017","Mon, Feb 27, 2017"
3784,Santa Fe Municipal,Santa Fe,United States,SAF,KSAF,35.617108,-106.089422,6348,-7,A,"Santa Fe, NM",107,107,108,108,4.429906542056075,19.364485981308423,18.0,53.0,"Sun, Feb 19, 2017","Sat, Feb 25, 2017"
3731,San Diego International,San Diego,United States,SAN,KSAN,32.733556,-117.189667,17,-8,A,"San Diego, CA",5591,5569,5711,5711,4.470935431944212,15.40492009337403,44.0,95.0,"Mon, Feb 27, 2017","Mon, Feb 13, 2017"
3621,San Antonio International,San Antonio,United States,SAT,KSAT,29.533694,-98.469778,809,-6,A,"San Antonio, TX",2212,2213,2224,2223,5.867088607594942,12.465883416177142,38.0,70.0,"Sun, Feb 19, 2017","Fri, Feb  3, 2017"
3613,Savannah Hilton Head International,Savannah,United States,SAV,KSAV,32.127583,-81.202139,51,-5,A,"Savannah, GA",440,437,448,446,5.5636363636363635,17.116704805492002,26.0,72.0,"Mon, Feb 20, 2017","Fri, Feb 10, 2017"
3949,Santa Barbara Municipal,Santa Barbara,United States,SBA,KSBA,34.426211,-119.840372,10,-8,A,"Santa Barbara, CA",348,349,377,377,4.178160919540236,18.094555873925504,13.0,53.0,"Wed, Feb  8, 2017","Fri, Feb 24, 2017"
4359,South Bend Regional,South Bend,United States,SBN,KSBN,41.708661,-86.31725,799,-5,A,"South Bend, IN",347,349,351,351,4.691642651296835,18.315186246418325,19.0,59.0,"Thu, Feb  2, 2017","Wed, Feb 15, 2017"
5768,San Luis County Regional Airport,San Luis Obispo,United States,SBP,KSBP,35.2368,-120.642,212,-8,A,"San Luis Obispo, CA",251,252,259,259,3.8406374501992033,17.85317460317462,7.0,95.0,"Wed, Feb 15, 2017","Wed, Feb  1, 2017"
3620,Deadhorse,Deadhorse,United States,SCC,PASC,70.19475,-148.465167,64,-9,A,"Deadhorse, AK",52,52,56,56,5.346153846153846,7.961538461538462,64.0,28.0,"Sun, Feb  5, 2017","Sun, Feb  5, 2017"
4318,University Park Airport,State College Pennsylvania,United States,SCE,KUNV,40.849278,-77.848694,1239,-5,A,"State College, PA",90,90,92,92,6.155555555555556,15.588888888888889,31.0,46.0,"Sun, Feb  5, 2017","Thu, Feb  9, 2017"
4014,Louisville International Airport,Louisville,United States,SDF,KSDF,38.1740858,-85.7364989,501,-5,A,"Louisville, KY",689,687,692,691,6.143686502177066,13.759825327510923,26.0,75.0,"Tue, Feb 28, 2017","Tue, Feb 28, 2017"
3577,Seattle Tacoma International,Seattle,United States,SEA,KSEA,47.449,-122.309306,433,-8,A,"Seattle, WA",8976,9005,9156,9157,9.830548128342231,20.083620210993857,158.0,175.0,"Sun, Feb  5, 2017","Sun, Feb  5, 2017"
3469,San Francisco International,San Francisco,United States,SFO,KSFO,37.618972,-122.374889,13,-8,A,"San Francisco, CA",11450,11475,11987,11975,8.224978165938873,20.34867102396522,75.0,112.0,"Tue, Feb 28, 2017","Sun, Feb  5, 2017"
4348,Springfield Branson National,Springfield,United States,SGF,KSGF,37.245667,-93.388639,1268,-6,A,"Springfield, MO",180,180,183,183,5.005555555555552,14.95,26.0,48.0,"Fri, Feb 10, 2017","Thu, Feb  9, 2017"
4064,St. George Municipal,Saint George,United States,SGU,KSGU,37.090583,-113.593056,2941,-7,A,"St. George, UT",176,176,176,176,3.409090909090909,16.17045454545454,7.0,68.0,"Tue, Feb  7, 2017","Fri, Feb 17, 2017"
3609,Shreveport Regional,Shreveport,United States,SHV,KSHV,32.446629,-93.8256,258,-6,A,"Shreveport, LA",423,422,424,424,4.886524822695031,12.07109004739336,27.0,85.0,"Thu, Feb  2, 2017","Wed, Feb  8, 2017"
3856,Sitka Rocky Gutierrez,Sitka,United States,SIT,PASI,57.047138,-135.361611,21,-9,A,"Sitka, AK",78,78,81,81,4.384615384615385,14.846153846153847,8.0,62.0,"Thu, Feb  9, 2017","Tue, Feb 28, 2017"
3748,Norman Y. Mineta San Jose International,San Jose,United States,SJC,KSJC,37.3626,-121.929022,62,-8,A,"San Jose, CA",3207,3211,3254,3255,4.812909260991579,12.018997197134851,34.0,99.0,"Tue, Feb 21, 2017","Thu, Feb  9, 2017"
3536,Salt Lake City International,Salt Lake City,United States,SLC,KSLC,40.788389,-111.977772,4227,-7,A,"Salt Lake City, UT",8302,8312,8369,8345,6.4490484220669755,18.979066410009693,52.0,101.0,"Fri, Feb 24, 2017","Wed, Feb  8, 2017"
3817,Sacramento International,Sacramento,United States,SMF,KSMF,38.695417,-121.590778,27,-8,A,"Sacramento, CA",2996,2994,3047,3048,5.532710280373844,12.598530394121582,31.0,71.0,"Thu, Feb 16, 2017","Thu, Feb  2, 2017"
3867,John Wayne Airport Orange County,Santa Ana,United States,SNA,KSNA,33.675667,-117.868222,56,-8,A,"Santa Ana, CA",2846,2842,2923,2922,5.2765284609978895,12.447220267417302,39.0,58.0,"Sat, Feb 25, 2017","Sat, Feb 25, 2017"
4336,Abraham Lincoln Capital,Springfield,United States,SPI,KSPI,39.8441,-89.677889,597,-6,A,"Springfield, IL",125,126,127,127,4.352,13.26984126984127,9.0,39.0,"Sat, Feb 18, 2017","Wed, Feb  8, 2017"
3680,Sheppard AFB Wichita Falls Municipal,Wichita Falls,United States,SPS,KSPS,33.988797,-98.491894,1019,-6,A,"Wichita Falls, TX",82,81,82,82,7.780487804878049,13.407407407407407,15.0,34.0,"Thu, Feb  2, 2017","Sat, Feb 25, 2017"
4067,Sarasota Bradenton International,Sarasota,United States,SRQ,KSRQ,27.395444,-82.554389,30,-5,A,"Sarasota/Bradenton, FL",296,297,300,300,4.064189189189192,12.787878787878787,17.0,64.0,"Sun, Feb 26, 2017","Fri, Feb 17, 2017"
3678,Lambert St. Louis International,St. Louis,United States,STL,KSTL,38.748697,-90.370028,618,-6,A,"St. Louis, MO",4146,4152,4186,4186,5.378437047756882,10.99518304431599,40.0,54.0,"Wed, Feb  1, 2017","Wed, Feb  1, 2017"
6992,Charles M. Schulz Sonoma County,Santa Rosa,United States,STS,KSTS,38.508978,-122.81288,125,-8,A,"Santa Rosa, CA",13,13,13,13,6.538461538461538,14.538461538461538,30.0,25.0,"Mon, Feb 20, 2017","Sun, Feb 26, 2017"
6494,Friedman Memorial,Hailey,United States,SUN,KSUN,43.504444,-114.296194,5320,-7,A,"Sun Valley/Hailey/Ketchum, ID",83,83,136,135,3.0963855421686746,19.795180722891565,20.0,59.0,"Sun, Feb 26, 2017","Sun, Feb 26, 2017"
3661,Stewart International,Newburgh,United States,SWF,KSWF,41.504094,-74.104839,491,-5,A,"Newburgh/Poughkeepsie, NY",81,80,83,83,5.765432098765431,12.6125,11.0,49.0,"Thu, Feb  9, 2017","Tue, Feb  7, 2017"
3745,Syracuse Hancock International,Syracuse,United States,SYR,KSYR,43.111187,-76.106311,421,-5,A,"Syracuse, NY",392,393,400,401,4.783163265306121,21.089058524173023,40.0,78.0,"Mon, Feb 13, 2017","Thu, Feb  9, 2017"
3698,Tallahassee Regional,Tallahassee,United States,TLH,KTLH,30.396528,-84.350333,81,-5,A,"Tallahassee, FL",163,162,164,163,3.6503067484662575,13.746913580246913,12.0,45.0,"Mon, Feb 20, 2017","Tue, Feb 21, 2017"
3646,Tampa International,Tampa,United States,TPA,KTPA,27.975472,-82.53325,26,-5,A,"Tampa, FL",5376,5374,5431,5428,4.9486607142857055,12.482136211388177,32.0,99.0,"Wed, Feb 22, 2017","Tue, Feb  7, 2017"
4116,Tri-Cities Regional Airport,BRISTOL,United States,TRI,KTRI,36.4752222,-82.4074167,1519,-5,A,"Bristol/Johnson City/Kingsport, TN",149,149,150,150,3.8993288590604025,15.228187919463087,8.0,55.0,"Tue, Feb 28, 2017","Thu, Feb  9, 2017"
3447,Trenton Mercer,Trenton,United States,TTN,KTTN,40.276692,-74.813469,213,-5,A,"Trenton, NJ",158,160,171,169,8.829113924050633,11.762500000000005,110.0,39.0,"Fri, Feb 10, 2017","Mon, Feb 27, 2017"
3855,Tulsa International,Tulsa,United States,TUL,KTUL,36.198389,-95.888111,677,-6,A,"Tulsa, OK",1045,1042,1045,1043,4.506220095693782,12.94721689059501,23.0,48.0,"Wed, Feb 22, 2017","Wed, Feb  1, 2017"
3636,Tucson International,Tucson,United States,TUS,KTUS,32.116083,-110.941028,2643,-7,N,"Tucson, AZ",1341,1338,1352,1350,4.706189410887401,14.342301943198809,47.0,80.0,"Fri, Feb 24, 2017","Thu, Feb  2, 2017"
4023,Cherry Capital Airport,Traverse City,United States,TVC,KTVC,44.741445,-85.582235,624,-5,A,"Traverse City, MI",189,189,192,193,4.486772486772488,19.788359788359788,19.0,64.0,"Wed, Feb 22, 2017","Fri, Feb 24, 2017"
4263,Magic Valley Regional Airport,Twin Falls,United States,TWF,KTWF,42.481803,-114.487733,4151,-7,A,"Twin Falls, ID",78,121,79,122,3.6025641025641026,12.950413223140496,7.0,33.0,"Thu, Feb 23, 2017","Thu, Feb 23, 2017"
3770,Texarkana Regional-Webb Field,Texarkana,United States,TXK,KTXK,33.453722,-93.991028,390,-6,A,"Texarkana, AR",23,24,23,24,5.3478260869565215,17.416666666666668,12.0,28.0,"Fri, Feb 10, 2017","Wed, Feb 15, 2017"
3848,Tyler Pounds Regional,Tyler,United States,TYR,KTYR,32.354139,-95.402386,544,-6,A,"Tyler, TX",13,13,13,13,6.6923076923076925,13.076923076923077,11.0,22.0,"Sat, Feb 25, 2017","Sun, Feb 19, 2017"
3676,McGhee Tyson,Knoxville,United States,TYS,KTYS,35.810972,-83.994028,981,-5,A,"Knoxville, TN",482,479,486,485,3.875518672199174,16.69728601252609,14.0,130.0,"Mon, Feb 27, 2017","Tue, Feb  7, 2017"
5776,Valdosta Regional Airport,Valdosta,United States,VLD,KVLD,30.7825,-83.2767,203,-5,A,"Valdosta, GA",78,78,78,78,4.448717948717949,15.97435897435897,8.0,47.0,"Wed, Feb 22, 2017","Sat, Feb 25, 2017"
3873,Eglin AFB,Valparaiso,United States,VPS,KVPS,30.48325,-86.5254,87,-6,A,"Valparaiso, FL",206,206,206,206,6.737864077669903,16.33980582524272,13.0,42.0,"Fri, Feb 17, 2017","Tue, Feb 21, 2017"
5969,Wrangell Airport,Wrangell,United States,WRG,PAWG,56.4843,-132.37,44,-9,A,"Wrangell, AK",54,54,56,56,3.7037037037037037,6.62962962962963,5.0,27.0,"Fri, Feb  3, 2017","Tue, Feb 28, 2017"
4356,NW Arkansas Regional,Bentonville,United States,XNA,KXNA,36.2818694,-94.3068111,1287,-6,A,"Fayetteville, AR",376,376,382,382,5.425531914893618,14.638297872340425,38.0,85.0,"Fri, Feb 24, 2017","Tue, Feb  7, 2017"
6803,Yakutat,Yakutat,United States,YAK,PAYA,59.3012,-139.3937,33,-9,A,"Yakutat, AK",53,54,56,56,4.339622641509434,8.0,7.0,23.0,"Wed, Feb  8, 2017","Mon, Feb 20, 2017"
3596,Yuma MCAS Yuma International,Yuma,United States,YUM,KYUM,32.656578,-114.60598,216,-7,N,"Yuma, AZ",110,109,110,109,4.045454545454546,15.009174311926605,13.0,49.0,"Sun, Feb 19, 2017","Sat, Feb 18, 2017"
