airport_id,name,city,country,iata_faa,iaco,latitude,longitude,altitude,zone,dst,city_state,avg_able_landings,avg_able_takeoffs,total_landings,total_takeoffs,avg_taxi_in,avg_taxi_out,longest_taxi_in,longest_taxi_out,lng_tx_in_date,lng_tx_out_date
4355,Lehigh Valley International,Allentown,United States,ABE,KABE,40.652083,-75.440806,393,-5,A,"Allentown/Bethlehem/Easton, PA",132,132,139,139,5.31060606060606,14.022727272727273,25.0,31.0,"Fri, Apr  7, 2017","Wed, Apr 26, 2017"
4019,Albuquerque International Sunport,Albuquerque,United States,ABQ,KABQ,35.0402222,-106.6091944,5355,-7,A,"Albuquerque, NM",1459,1459,1471,1470,5.274160383824542,11.50376970527759,22.0,70.0,"Wed, Apr 12, 2017","Sat, Apr  8, 2017"
5714,Aberdeen Regional Airport,Aberdeen,United States,ABR,KABR,45.4491,-98.4218,1302,-6,A,"Aberdeen, SD",60,60,60,60,4.549999999999998,15.766666666666667,15.0,44.0,"Fri, Apr  7, 2017","Wed, Apr 26, 2017"
5715,Southwest Georgia Regional Airport,Albany,United States,ABY,KABY,31.5355,-84.1945,197,-5,A,"Albany, GA",73,73,76,76,3.356164383561644,11.945205479452055,7.0,40.0,"Sun, Apr  9, 2017","Fri, Apr 14, 2017"
3700,Waco Regional,Waco,United States,ACT,KACT,31.611289,-97.230519,516,-6,A,"Waco, TX",11,12,11,12,4.636363636363637,9.583333333333334,7.0,16.0,"Sun, Apr  2, 2017","Sat, Apr  1, 2017"
4384,Arcata,Arcata CA,United States,ACV,KACV,40.978111,-124.108611,221,-8,A,"Arcata/Eureka, CA",85,86,93,93,5.317647058823532,13.523255813953488,8.0,59.0,"Wed, Apr  5, 2017","Mon, Apr 17, 2017"
3524,Atlantic City International,Atlantic City,United States,ACY,KACY,39.457583,-74.577167,75,-5,A,"Atlantic City, NJ",291,295,299,300,4.814432989690721,10.840677966101689,16.0,41.0,"Thu, Apr 20, 2017","Thu, Apr 27, 2017"
5959,Adak Airport,Adak Island,United States,ADK,PADK,51.878,-176.646,18,-10,A,"Adak Island, AK",9,9,9,9,4.333333333333333,9.666666666666666,5.0,14.0,"Thu, Apr 13, 2017","Sun, Apr  9, 2017"
3531,Kodiak,Kodiak,United States,ADQ,PADQ,57.749967,-152.493856,78,-9,A,"Kodiak, AK",54,54,55,55,3.7037037037037037,6.962962962962963,8.0,20.0,"Thu, Apr  6, 2017","Mon, Apr 24, 2017"
3852,Alexandria International,Alexandria,United States,AEX,KAEX,31.3274,-92.549833,89,-6,A,"Alexandria, LA",205,205,212,212,3.2536585365853656,14.04390243902439,8.0,47.0,"Thu, Apr 27, 2017","Wed, Apr 26, 2017"
3658,Augusta Regional At Bush Field,Bush Field,United States,AGS,KAGS,33.369944,-81.9645,144,-5,A,"Augusta, GA",224,225,230,231,5.2767857142857135,16.533333333333335,68.0,45.0,"Wed, Apr  5, 2017","Mon, Apr  3, 2017"
3864,Albany International,Albany,United States,ALB,KALB,42.748267,-73.801692,285,-5,A,"Albany, NY",811,810,819,819,4.1356350184956865,12.271604938271619,40.0,61.0,"Sun, Apr 23, 2017","Tue, Apr  4, 2017"
5718,Waterloo Regional Airport,Waterloo,United States,ALO,KALO,42.5571,-92.4003,873,-6,A,"Waterloo, IA",50,49,50,49,4.12,15.408163265306122,8.0,31.0,"Fri, Apr 28, 2017","Fri, Apr 28, 2017"
3840,Rick Husband Amarillo International,Amarillo,United States,AMA,KAMA,35.219369,-101.705931,3607,-6,A,"Amarillo, TX",246,246,255,254,4.646341463414633,12.126016260162602,20.0,132.0,"Tue, Apr 25, 2017","Sun, Apr 30, 2017"
3774,Ted Stevens Anchorage International,Anchorage,United States,ANC,PANC,61.174361,-149.996361,152,-9,A,"Anchorage, AK",1197,1198,1202,1200,4.258980785296583,11.524207011686144,36.0,39.0,"Sun, Apr 16, 2017","Mon, Apr 24, 2017"
5720,Alpena County Regional Airport,Alpena,United States,APN,KAPN,45.0781,-83.5603,689,-5,A,"Alpena, MI",50,51,51,51,4.56,13.0,9.0,29.0,"Wed, Apr 19, 2017","Wed, Apr 12, 2017"
7001,Aspen/Pitkin County-Sardy Field,Aspen,United States,ASE,KASE,39.2232,-106.869,7820,-7,A,"Aspen, CO",162,168,167,173,3.4444444444444446,16.428571428571427,24.0,85.0,"Sun, Apr  2, 2017","Sat, Apr  8, 2017"
3682,Hartsfield Jackson Atlanta International,Atlanta,United States,ATL,KATL,33.636719,-84.428067,1026,-5,A,"Atlanta, GA",29634,29699,31131,31122,8.739083485185834,16.715781676150815,161.0,143.0,"Wed, Apr  5, 2017","Wed, Apr  5, 2017"
4047,Appleton,Appleton,United States,ATW,KATW,44.257526,-88.507576,680,-6,A,"Appleton, WI",191,190,194,194,4.272251308900521,17.342105263157897,18.0,53.0,"Thu, Apr 27, 2017","Wed, Apr 19, 2017"
3673,Austin Bergstrom International,Austin,United States,AUS,KAUS,30.194528,-97.669889,542,-6,A,"Austin, TX",4217,4209,4261,4258,6.9404790135167165,13.115704442860537,78.0,105.0,"Mon, Apr 17, 2017","Mon, Apr  3, 2017"
4007,Asheville Regional Airport,Asheville,United States,AVL,KAVL,35.436194,-82.541806,2165,-5,A,"Asheville, NC",301,303,313,313,4.465116279069766,17.696369636963702,8.0,107.0,"Fri, Apr 28, 2017","Mon, Apr 10, 2017"
4286,Wilkes Barre Scranton International,Scranton,United States,AVP,KAVP,41.338478,-75.723403,962,-5,A,"Scranton/Wilkes-Barre, PA",81,81,84,84,3.6790123456790123,15.197530864197532,5.0,46.0,"Fri, Apr 14, 2017","Wed, Apr 19, 2017"
4039,Kalamazoo,Kalamazoo,United States,AZO,KAZO,42.234875,-85.552058,874,-5,A,"Kalamazoo, MI",223,221,229,230,4.2556053811659185,14.927601809954751,7.0,68.0,"Sat, Apr  8, 2017","Thu, Apr  6, 2017"
3825,Bradley International,Windsor Locks,United States,BDL,KBDL,41.938889,-72.683222,173,-5,A,"Hartford, CT",1824,1823,1857,1859,5.549890350877195,13.358749314317059,38.0,99.0,"Sun, Apr  9, 2017","Sat, Apr  1, 2017"
3599,Bethel,Bethel,United States,BET,PABE,60.779778,-161.838,121,-9,A,"Bethel, AK",80,80,80,80,3.7875,6.95,8.0,17.0,"Wed, Apr 26, 2017","Sun, Apr  2, 2017"
3558,Meadows Field,Bakersfield,United States,BFL,KBFL,35.433598,-119.05677,507,-8,A,"Bakersfield, CA",165,168,171,171,4.90909090909091,20.011904761904752,8.0,80.0,"Mon, Apr 10, 2017","Mon, Apr  3, 2017"
4129,Greater Binghamton-Edwin A. Link Field,Binghamton,United States,BGM,KBGM,42.208689,-75.979839,1636,-5,A,"Binghamton, NY",83,83,85,85,4.3855421686747,14.168674698795181,6.0,50.0,"Wed, Apr  5, 2017","Fri, Apr  7, 2017"
3811,Birmingham International,Birmingham,United States,BHM,KBHM,33.562942,-86.75355,644,-6,A,"Birmingham, AL",889,890,913,911,4.448818897637793,14.421348314606737,26.0,80.0,"Sun, Apr 23, 2017","Sun, Apr 23, 2017"
4021,Billings Logan International Airport,Billings,United States,BIL,KBIL,45.80921,-108.537654,3652,-7,A,"Billings, MT",257,257,257,257,3.7509727626459144,11.9727626459144,9.0,65.0,"Sun, Apr 30, 2017","Sun, Apr  9, 2017"
4083,Bismarck Municipal Airport,Bismarck,United States,BIS,KBIS,46.775842,-100.757931,1661,-6,A,"Bismarck/Mandan, ND",163,162,166,165,4.496932515337426,15.475308641975312,32.0,38.0,"Sat, Apr  1, 2017","Fri, Apr 21, 2017"
4287,Bemidji Regional Airport,Bemidji,United States,BJI,KBJI,47.510722,-94.934722,1391,-6,A,"Bemidji, MN",60,60,60,60,4.300000000000001,16.066666666666674,9.0,63.0,"Sun, Apr  2, 2017","Wed, Apr 26, 2017"
3777,Bellingham International,Bellingham,United States,BLI,KBLI,48.792694,-122.537528,170,-8,A,"Bellingham, WA",61,61,61,61,4.049180327868853,11.704918032786885,7.0,27.0,"Sat, Apr 15, 2017","Mon, Apr  3, 2017"
4037,Central Illinois Regional,Bloomington,United States,BMI,KBMI,40.477111,-88.915917,871,-6,A,"Bloomington/Normal, IL",211,209,220,218,3.9810426540284403,13.84688995215311,8.0,44.0,"Fri, Apr 21, 2017","Tue, Apr 11, 2017"
3690,Nashville International,Nashville,United States,BNA,KBNA,36.124472,-86.678194,599,-6,A,"Nashville, TN",4286,4279,4336,4334,6.720018665422306,12.325543351250278,45.0,110.0,"Fri, Apr 14, 2017","Wed, Apr  5, 2017"
3495,Boise Air Terminal,Boise,United States,BOI,KBOI,43.564361,-116.222861,2871,-7,A,"Boise, ID",1180,1179,1186,1185,3.9627118644067796,13.865139949109416,26.0,79.0,"Sat, Apr 22, 2017","Sun, Apr  9, 2017"
3448,General Edward Lawrence Logan International,Boston,United States,BOS,KBOS,42.364347,-71.005181,19,-5,A,"Boston, MA",10386,10392,10541,10537,7.4984594646639735,18.530985373364125,112.0,171.0,"Thu, Apr 13, 2017","Thu, Apr 20, 2017"
5725,Brunswick Golden Isles Airport,Brunswick,United States,BQK,KBQK,31.2588,-81.4665,26,-5,A,"Brunswick, GA",78,78,83,83,3.717948717948718,21.474358974358967,8.0,85.0,"Sun, Apr  2, 2017","Fri, Apr 28, 2017"
6957,Brainerd Lakes Regional,Brainerd,United States,BRD,KBRD,46.398308,-94.138078,1226,-6,U,"Brainerd, MN",50,50,50,50,5.240000000000001,17.719999999999995,9.0,47.0,"Mon, Apr 24, 2017","Wed, Apr 26, 2017"
3738,Brownsville South Padre Island International,Brownsville,United States,BRO,KBRO,25.906833,-97.425861,22,-6,A,"Brownsville, TX",106,106,107,107,4.971698113207546,14.235849056603774,10.0,41.0,"Thu, Apr 13, 2017","Thu, Apr 20, 2017"
3571,Wiley Post Will RogersMemorial,Barrow,United States,BRW,PABR,71.285446,-156.766003,44,-9,A,"Barrow, AK",76,77,77,77,4.4342105263157885,6.181818181818182,10.0,20.0,"Tue, Apr 11, 2017","Tue, Apr 11, 2017"
4022,Bert Mooney Airport,Butte,United States,BTM,KBTM,45.954806,-112.497472,5550,-7,A,"Butte, MT",54,54,55,55,4.055555555555555,15.407407407407407,7.0,34.0,"Wed, Apr  5, 2017","Thu, Apr 27, 2017"
3846,Baton Rouge Metro-Ryan Field,Baton Rouge,United States,BTR,KBTR,30.533167,-91.149639,70,-6,A,"Baton Rouge, LA",570,566,583,581,4.373684210526319,15.019434628975265,38.0,96.0,"Fri, Apr 14, 2017","Wed, Apr  5, 2017"
3711,Burlington International,Burlington,United States,BTV,KBTV,44.471861,-73.153278,335,-5,A,"Burlington, VT",296,295,307,306,4.881756756756756,16.386440677966103,32.0,51.0,"Sat, Apr  1, 2017","Sat, Apr  1, 2017"
3820,Buffalo Niagara International,Buffalo,United States,BUF,KBUF,42.940525,-78.732167,724,-5,A,"Buffalo, NY",1475,1467,1506,1504,4.218983050847451,11.713701431492828,37.0,87.0,"Fri, Apr  7, 2017","Wed, Apr 19, 2017"
3644,Bob Hope,Burbank,United States,BUR,KBUR,34.200667,-118.358667,778,-8,A,"Burbank, CA",2031,2033,2062,2061,3.709502708025603,12.980324643384163,29.0,95.0,"Wed, Apr 26, 2017","Sat, Apr  8, 2017"
3849,Baltimore Washington International,Baltimore,United States,BWI,KBWI,39.175361,-76.668333,146,-5,A,"Baltimore, MD",8139,8139,8209,8205,6.425482245976168,13.624646762501541,57.0,146.0,"Thu, Apr 20, 2017","Thu, Apr  6, 2017"
4020,Gallatin Field,Bozeman,United States,BZN,KBZN,45.777643,-111.160151,4500,-7,A,"Bozeman, MT",226,227,228,229,4.30088495575221,14.215859030837004,8.0,89.0,"Thu, Apr 27, 2017","Sat, Apr 15, 2017"
3561,Columbia Metropolitan,Colombia,United States,CAE,KCAE,33.938833,-81.119528,236,-5,A,"Columbia, SC",334,335,353,354,4.476047904191621,15.522388059701488,28.0,81.0,"Mon, Apr  3, 2017","Wed, Apr  5, 2017"
4112,Akron Canton Regional Airport,Akron,United States,CAK,KCAK,40.9160833,-81.4421944,1228,-5,A,"Akron, OH",561,559,573,573,5.392156862745098,14.500894454382829,31.0,89.0,"Fri, Apr 28, 2017","Mon, Apr 10, 2017"
3824,Cedar City Regional,Cedar City,United States,CDC,KCDC,37.700967,-113.098847,5622,-7,A,"Cedar City, UT",50,50,50,50,3.9000000000000004,14.6,7.0,49.0,"Tue, Apr  4, 2017","Fri, Apr 28, 2017"
3610,Merle K. Mudhole Smith,Cordova,United States,CDV,PACV,60.491778,-145.477556,48,-9,A,"Cordova, AK",60,60,60,60,3.4833333333333334,7.916666666666667,5.0,23.0,"Thu, Apr  6, 2017","Sat, Apr 15, 2017"
3578,Lovell Field,Chattanooga,United States,CHA,KCHA,35.035278,-85.203808,683,-5,A,"Chattanooga, TN",428,432,453,454,6.021028037383178,15.812500000000004,42.0,58.0,"Thu, Apr 20, 2017","Fri, Apr 28, 2017"
4015,Charlottesville-Albemarle,Charlottesville VA,United States,CHO,KCHO,38.138639,-78.452861,639,-5,A,"Charlottesville, VA",161,161,168,168,3.546583850931677,14.105590062111801,7.0,100.0,"Thu, Apr 20, 2017","Mon, Apr 10, 2017"
3806,Charleston AFB International,Charleston,United States,CHS,KCHS,32.898647,-80.040528,45,-5,A,"Charleston, SC",1157,1156,1184,1184,7.783059636992212,16.939446366781986,44.0,91.0,"Thu, Apr  6, 2017","Wed, Apr  5, 2017"
4043,Cedar Rapids,Cedar Rapids,United States,CID,KCID,41.884694,-91.710806,869,-6,A,"Cedar Rapids/Iowa City, IA",439,432,446,441,6.548974943052395,14.583333333333334,34.0,73.0,"Sun, Apr  2, 2017","Thu, Apr 20, 2017"
5729,Chippewa County International Airport,Sault Ste. Marie,United States,CIU,KCIU,46.2508,-84.4724,800,-5,A,"Sault Ste. Marie, MI",54,54,55,55,4.537037037037036,16.333333333333336,16.0,50.0,"Thu, Apr 20, 2017","Thu, Apr 13, 2017"
3486,Cleveland Hopkins International,Cleveland,United States,CLE,KCLE,41.411689,-81.849794,791,-5,A,"Cleveland, OH",2731,2723,2784,2780,6.9315269132186,13.831435916268827,73.0,103.0,"Sat, Apr 22, 2017","Mon, Apr 24, 2017"
3715,Easterwood Field,College Station,United States,CLL,KCLL,30.588583,-96.363833,321,-6,A,"College Station/Bryan, TX",130,129,136,134,4.5769230769230775,13.527131782945736,10.0,75.0,"Mon, Apr 17, 2017","Sun, Apr  2, 2017"
3876,Charlotte Douglas International,Charlotte,United States,CLT,KCLT,35.214,-80.943139,748,-5,A,"Charlotte, NC",9354,9367,9452,9452,10.195958948043602,20.12939041315261,85.0,107.0,"Wed, Apr  5, 2017","Tue, Apr 18, 2017"
3759,Port Columbus International,Columbus,United States,CMH,KCMH,39.997972,-82.891889,815,-5,A,"Columbus, OH",2033,2027,2062,2061,5.240039350713229,12.050320670942265,50.0,113.0,"Sat, Apr 29, 2017","Mon, Apr  3, 2017"
5732,Houghton County Memorial Airport,Hancock,United States,CMX,KCMX,47.1684,-88.4891,1095,-5,A,"Hancock/Houghton, MI",57,58,60,60,4.701754385964913,17.1551724137931,11.0,35.0,"Thu, Apr 20, 2017","Fri, Apr 28, 2017"
4344,Yellowstone Regional,Cody,United States,COD,KCOD,44.520194,-109.023806,5102,-7,A,"Cody, WY",60,60,60,60,3.85,13.8,24.0,38.0,"Fri, Apr 14, 2017","Mon, Apr  3, 2017"
3819,City Of Colorado Springs Municipal,Colorado Springs,United States,COS,KCOS,38.805805,-104.700778,6187,-7,A,"Colorado Springs, CO",676,675,686,685,6.724852071005914,20.75259259259261,33.0,105.0,"Sat, Apr  1, 2017","Tue, Apr  4, 2017"
3719,Columbia Regional,Columbia,United States,COU,KCOU,38.818094,-92.219631,889,-6,A,"Columbia, MO",30,30,30,30,5.266666666666667,13.966666666666667,22.0,20.0,"Tue, Apr 25, 2017","Mon, Apr 24, 2017"
3872,Natrona County International,Casper,United States,CPR,KCPR,42.908,-106.464417,5347,-7,A,"Casper, WY",65,65,65,65,4.230769230769232,10.953846153846154,8.0,34.0,"Tue, Apr  4, 2017","Tue, Apr  4, 2017"
3744,Corpus Christi International,Corpus Christi,United States,CRP,KCRP,27.770361,-97.501222,44,-6,A,"Corpus Christi, TX",215,217,218,219,4.3627906976744155,12.543778801843313,7.0,39.0,"Mon, Apr 17, 2017","Sun, Apr  9, 2017"
4285,Yeager,Charleston,United States,CRW,KCRW,38.373147,-81.593189,981,-5,A,"Charleston/Dunbar, WV",186,186,193,193,3.5053763440860215,13.881720430107526,15.0,31.0,"Sat, Apr  1, 2017","Fri, Apr 28, 2017"
4255,Columbus Metropolitan Airport,Columbus,United States,CSG,KCSG,32.5163333,-84.9388611,397,-5,A,"Columbus, GA",97,97,104,104,2.804123711340206,12.8659793814433,6.0,60.0,"Tue, Apr 25, 2017","Sun, Apr 23, 2017"
3488,Cincinnati Northern Kentucky International,Cincinnati,United States,CVG,KCVG,39.048836,-84.667822,896,-5,A,"Cincinnati, OH",1331,1331,1359,1356,6.787377911344853,14.197595792637115,86.0,75.0,"Sun, Apr 16, 2017","Mon, Apr  3, 2017"
4045,Central Wisconsin,Wassau,United States,CWA,KCWA,44.772726,-89.646635,840,-6,A,"Mosinee, WI",135,135,140,140,4.2,11.703703703703702,8.0,38.0,"Tue, Apr 18, 2017","Thu, Apr 27, 2017"
3950,Daytona Beach International,Daytona Beach,United States,DAB,KDAB,29.179917,-81.058056,34,-5,A,"Daytona Beach, FL",168,167,178,178,3.1845238095238093,14.52694610778443,6.0,53.0,"Fri, Apr  7, 2017","Mon, Apr 17, 2017"
3502,Dallas Love Field,Dallas,United States,DAL,KDAL,32.847111,-96.851778,487,-6,A,"Dallas, TX",5603,5611,5706,5706,5.811351061931088,12.435038317590479,66.0,137.0,"Sun, Apr 16, 2017","Wed, Apr 26, 2017"
3627,James M. Cox Dayton International,Dayton,United States,DAY,KDAY,39.902375,-84.219375,1009,-5,A,"Dayton, OH",556,552,569,567,5.167266187050356,14.26268115942029,33.0,68.0,"Wed, Apr  5, 2017","Mon, Apr  3, 2017"
3520,Ronald Reagan Washington National,Washington,United States,DCA,KDCA,38.852083,-77.037722,15,-5,A,"Washington, DC",6172,6165,6309,6307,6.469053791315625,19.252879156528767,79.0,155.0,"Tue, Apr  4, 2017","Thu, Apr 20, 2017"
3751,Denver International,Denver,United States,DEN,KDEN,39.861656,-104.673178,5431,-7,A,"Denver, CO",17633,17627,17721,17704,8.105881018544807,16.006467351222533,99.0,95.0,"Sun, Apr 30, 2017","Fri, Apr 28, 2017"
3670,Dallas Fort Worth International,Dallas-fort Worth,United States,DFW,KDFW,32.896828,-97.037997,607,-6,A,"Dallas/Fort Worth, TX",13958,13986,14206,14207,11.07336294598083,19.009152009152068,93.0,149.0,"Sun, Apr  2, 2017","Mon, Apr 17, 2017"
3739,Dothan Regional,Dothan,United States,DHN,KDHN,31.321339,-85.449628,401,-6,A,"Dothan, AL",86,87,90,90,3.604651162790698,18.333333333333332,12.0,85.0,"Tue, Apr 18, 2017","Mon, Apr  3, 2017"
3598,Duluth International,Duluth,United States,DLH,KDLH,46.842091,-92.193649,1428,-6,A,"Duluth, MN",165,167,167,169,4.545454545454546,17.32934131736528,10.0,74.0,"Wed, Apr  5, 2017","Fri, Apr 28, 2017"
3713,Durango La Plata County,Durango,United States,DRO,KDRO,37.151516,-107.75377,6685,-7,A,"Durango, CO",72,72,72,72,4.458333333333337,20.95833333333333,17.0,50.0,"Tue, Apr  4, 2017","Fri, Apr 28, 2017"
3729,Des Moines International,Des Moines,United States,DSM,KDSM,41.533972,-93.663083,958,-6,A,"Des Moines, IA",663,664,674,673,5.233785822021118,12.605421686746988,79.0,72.0,"Tue, Apr  4, 2017","Thu, Apr  6, 2017"
3645,Detroit Metro Wayne County,Detroit,United States,DTW,KDTW,42.212444,-83.353389,645,-5,A,"Detroit, MI",10175,10190,10395,10394,7.88874692874693,16.7302257114818,75.0,139.0,"Thu, Apr 20, 2017","Mon, Apr 10, 2017"
7063,Devils Lake Regional Airport,Devils Lake,United States,DVL,KDVL,48.114444,-98.908611,1445,-6,A,"Devils Lake, ND",49,48,51,51,5.448979591836735,18.062499999999996,9.0,34.0,"Sun, Apr 23, 2017","Sun, Apr 23, 2017"
5735,Chippewa Valley Regional Airport,Eau Claire,United States,EAU,KEAU,44.8658,-91.4843,913,-6,A,"Eau Claire, WI",54,54,55,55,3.8518518518518516,13.222222222222221,7.0,33.0,"Tue, Apr  4, 2017","Sat, Apr 15, 2017"
7669,Northwest Florida Beaches International,Panama City,United States,ECP,KECP,30.3417,-85.7973,69,-6,A,"Panama City, FL",417,417,426,426,3.592326139088728,12.237410071942445,30.0,83.0,"Thu, Apr 27, 2017","Sat, Apr 22, 2017"
4250,Eagle County Regional,Vail,United States,EGE,KEGE,39.642556,-106.917694,6540,-7,A,"Eagle, CO",29,30,30,31,4.931034482758622,13.266666666666667,17.0,32.0,"Sun, Apr  2, 2017","Sat, Apr  1, 2017"
5736,Elko Regional Airport,Elko,United States,EKO,KEKO,40.8249,-115.792,5140,-8,A,"Elko, NV",55,55,55,55,4.6181818181818155,14.2,8.0,25.0,"Mon, Apr  3, 2017","Tue, Apr 18, 2017"
3946,Elmira Corning Regional,Elmira,United States,ELM,KELM,42.159889,-76.891611,954,-5,A,"Elmira/Corning, NY",80,79,80,79,3.2125,15.810126582278482,6.0,35.0,"Thu, Apr  6, 2017","Sun, Apr 23, 2017"
3559,El Paso International,El Paso,United States,ELP,KELP,31.80725,-106.377583,3958,-7,A,"El Paso, TX",893,894,900,900,4.249720044792824,12.428411633109627,13.0,47.0,"Tue, Apr 18, 2017","Sun, Apr 23, 2017"
4276,Erie International-Tom Ridge Field,Erie,United States,ERI,KERI,42.082022,-80.176217,733,-5,A,"Erie, PA",139,138,140,140,4.25179856115108,15.652173913043478,8.0,54.0,"Sun, Apr 23, 2017","Mon, Apr 17, 2017"
6800,Delta County Airport,Escanaba,United States,ESC,KESC,45.722778,-87.093611,609,-5,A,"Escanaba, MI",49,49,50,50,4.244897959183671,12.367346938775508,6.0,30.0,"Wed, Apr  5, 2017","Fri, Apr 28, 2017"
4099,Mahlon Sweet Field,Eugene,United States,EUG,KEUG,44.124583,-123.211972,374,-8,A,"Eugene, OR",348,345,349,348,3.836206896551724,15.043478260869565,14.0,61.0,"Fri, Apr 28, 2017","Tue, Apr 25, 2017"
4018,Evansville Regional,Evansville,United States,EVV,KEVV,38.036997,-87.532364,418,-6,A,"Evansville, IN",236,236,242,242,4.521186440677962,17.20338983050848,22.0,47.0,"Tue, Apr  4, 2017","Sat, Apr 29, 2017"
3730,Craven County Regional,New Bern,United States,EWN,KEWN,35.072972,-77.042944,18,-5,A,"New Bern/Morehead/Beaufort, NC",54,54,55,55,3.4074074074074074,13.74074074074074,10.0,47.0,"Tue, Apr  4, 2017","Mon, Apr  3, 2017"
3494,Newark Liberty International,Newark,United States,EWR,KEWR,40.6925,-74.168667,18,-5,A,"Newark, NJ",9654,9644,9793,9780,9.490677439403392,23.466196598921574,125.0,139.0,"Thu, Apr 20, 2017","Wed, Apr  5, 2017"
3875,Key West International,Key West,United States,EYW,KEYW,24.556111,-81.759556,3,-5,A,"Key West, FL",172,172,179,179,2.7499999999999987,10.180232558139538,12.0,55.0,"Tue, Apr 18, 2017","Thu, Apr 27, 2017"
3832,Fairbanks International,Fairbanks,United States,FAI,PAFA,64.815114,-147.856267,434,-9,A,"Fairbanks, AK",185,185,185,185,3.6432432432432433,11.583783783783783,22.0,43.0,"Wed, Apr 12, 2017","Sat, Apr  8, 2017"
4292,Hector International Airport,Fargo,United States,FAR,KFAR,46.92065,-96.8157639,902,-6,A,"Fargo, ND",182,182,184,185,4.8186813186813175,18.489010989010996,24.0,143.0,"Wed, Apr 26, 2017","Wed, Apr 26, 2017"
3687,Fresno Yosemite International,Fresno,United States,FAT,KFAT,36.776194,-119.71814,336,-8,A,"Fresno, CA",696,692,700,700,5.446839080459774,16.23843930635836,60.0,69.0,"Thu, Apr 13, 2017","Thu, Apr  6, 2017"
5738,Fayetteville Regional-Grannis Field,Fayetteville,United States,FAY,KFAY,34.9912,-78.8803,189,-5,A,"Fayetteville, NC",129,128,137,137,4.372093023255814,14.109375,9.0,53.0,"Mon, Apr 17, 2017","Mon, Apr  3, 2017"
4127,Glacier Park International,Kalispell,United States,FCA,KFCA,48.310472,-114.256,2977,-7,A,"Kalispell, MT",144,144,145,145,4.104166666666666,16.34722222222222,13.0,36.0,"Sat, Apr 29, 2017","Mon, Apr 10, 2017"
4261,Flagstaff Pulliam Airport,Flagstaff,United States,FLG,KFLG,35.140318,-111.6692392,7015,-7,N,"Flagstaff, AZ",120,120,120,120,3.9166666666666665,19.233333333333327,8.0,54.0,"Fri, Apr 28, 2017","Mon, Apr  3, 2017"
3533,Fort Lauderdale Hollywood International,Fort Lauderdale,United States,FLL,KFLL,26.072583,-80.15275,9,-5,A,"Fort Lauderdale, FL",7830,7849,7946,7958,7.445210727969347,17.408969295451598,80.0,134.0,"Thu, Apr  6, 2017","Wed, Apr  5, 2017"
4089,Bishop International,Flint,United States,FNT,KFNT,42.965424,-83.743629,782,-5,A,"Flint, MI",351,355,363,364,4.484330484330484,13.943661971830986,12.0,95.0,"Sun, Apr 16, 2017","Sun, Apr  9, 2017"
4009,Sioux Falls,Sioux Falls,United States,FSD,KFSD,43.582014,-96.741914,1429,-6,A,"Sioux Falls, SD",293,290,301,300,5.092150170648464,17.32758620689655,14.0,103.0,"Sat, Apr  8, 2017","Mon, Apr 10, 2017"
3437,Fort Smith Regional,Fort Smith,United States,FSM,KFSM,35.336583,-94.367444,469,-6,A,"Fort Smith, AR",56,57,58,58,3.982142857142857,12.947368421052632,8.0,29.0,"Sat, Apr 29, 2017","Sun, Apr 30, 2017"
4041,Fort Wayne,Fort Wayne,United States,FWA,KFWA,40.978472,-85.195139,815,-5,A,"Fort Wayne, IN",439,441,449,449,6.2915717539863305,16.877551020408184,39.0,69.0,"Fri, Apr  7, 2017","Thu, Apr  6, 2017"
4296,Gillette-Campbell County Airport,Gillette,United States,GCC,KGCC,44.3489167,-105.5393611,4365,-7,A,"Gillette, WY",85,84,85,85,4.988235294117648,16.15476190476191,8.0,91.0,"Sun, Apr  2, 2017","Fri, Apr 28, 2017"
3497,Garden City Regional,Garden City,United States,GCK,KGCK,37.927528,-100.724417,2891,-6,A,"Garden City, KS",6,7,6,7,8.666666666666666,11.857142857142858,16.0,18.0,"Sun, Apr  2, 2017","Sat, Apr  1, 2017"
3467,Spokane International,Spokane,United States,GEG,KGEG,47.619861,-117.533833,2376,-8,A,"Spokane, WA",779,779,779,779,4.139922978177156,12.639281129653414,18.0,64.0,"Tue, Apr 11, 2017","Sun, Apr 30, 2017"
3442,Grand Forks International,Grand Forks,United States,GFK,KGFK,47.949256,-97.176111,845,-6,A,"Grand Forks, ND",113,114,113,114,4.637168141592919,17.745614035087716,9.0,46.0,"Sun, Apr  2, 2017","Sun, Apr 23, 2017"
4063,Grand Junction Regional,Grand Junction,United States,GJT,KGJT,39.122413,-108.526735,4858,-7,A,"Grand Junction, CO",267,269,270,270,3.853932584269663,14.929368029739775,15.0,43.0,"Thu, Apr 20, 2017","Tue, Apr 25, 2017"
3472,Gainesville Regional,Gainesville,United States,GNV,KGNV,29.690056,-82.271778,152,-5,A,"Gainesville, FL",184,184,194,194,3.8260869565217397,14.891304347826088,19.0,81.0,"Tue, Apr  4, 2017","Wed, Apr  5, 2017"
4038,Gulfport-Biloxi,Gulfport,United States,GPT,KGPT,30.407278,-89.070111,28,-6,A,"Gulfport/Biloxi, MS",192,190,197,197,4.682291666666665,14.215789473684211,23.0,41.0,"Fri, Apr  7, 2017","Thu, Apr 20, 2017"
3653,Austin Straubel International,Green Bay,United States,GRB,KGRB,44.485072,-88.129589,695,-6,A,"Green Bay, WI",383,381,393,393,4.258485639686683,13.664041994750656,19.0,118.0,"Sun, Apr 23, 2017","Mon, Apr 10, 2017"
3775,Robert Gray AAF,Killeen,United States,GRK,KGRK,31.06725,-97.828917,1015,-6,A,"Killeen, TX",104,105,107,108,4.384615384615387,15.895238095238096,21.0,42.0,"Sun, Apr 30, 2017","Thu, Apr 13, 2017"
3685,Gerald R. Ford International,Grand Rapids,United States,GRR,KGRR,42.880833,-85.522806,794,-5,A,"Grand Rapids, MI",904,901,924,925,4.7621681415929284,12.661487236403989,33.0,86.0,"Fri, Apr  7, 2017","Thu, Apr  6, 2017"
4008,Piedmont Triad,Greensboro,United States,GSO,KGSO,36.09775,-79.937306,925,-5,A,"Greensboro/High Point, NC",408,409,431,433,4.325980392156856,17.777506112469453,33.0,74.0,"Fri, Apr 21, 2017","Tue, Apr  4, 2017"
4034,Greenville-Spartanburg International,Greenville,United States,GSP,KGSP,34.895556,-82.218889,964,-5,A,"Greer, SC",550,544,567,564,4.016363636363637,16.062499999999986,32.0,92.0,"Sun, Apr 23, 2017","Mon, Apr  3, 2017"
3880,Great Falls International,Great Falls,United States,GTF,KGTF,47.482,-111.370689,3677,-7,A,"Great Falls, MT",110,110,110,110,4.572727272727275,13.954545454545455,20.0,57.0,"Wed, Apr 19, 2017","Sun, Apr  9, 2017"
4273,Golden Triangle Regional Airport,Columbus Mississippi,United States,GTR,KGTR,33.450333,-88.591361,264,-6,A,"Columbus, MS",82,82,85,85,3.2560975609756095,17.10975609756097,5.0,56.0,"Wed, Apr 19, 2017","Mon, Apr  3, 2017"
7051,Gunnison - Crested Butte,Gunnison,United States,GUC,KGUC,38.533889,-106.933056,7678,-7,A,"Gunnison, CO",4,4,4,4,3.25,13.0,4.0,15.0,"Sat, Apr  1, 2017","Sat, Apr  1, 2017"
4339,Yampa Valley,Hayden,United States,HDN,KHDN,40.481181,-107.21766,6602,-7,A,"Hayden, CO",37,36,37,36,4.486486486486487,20.72222222222222,10.0,42.0,"Thu, Apr 27, 2017","Fri, Apr 21, 2017"
3650,Chisholm Hibbing,Hibbing,United States,HIB,KHIB,47.3866,-92.838994,1353,-6,A,"Hibbing, MN",50,50,50,50,4.16,23.34,8.0,138.0,"Sun, Apr  2, 2017","Wed, Apr 26, 2017"
3504,Helena Regional,Helena,United States,HLN,KHLN,46.606806,-111.98275,3877,-7,A,"Helena, MT",139,138,139,139,3.316546762589928,16.007246376811594,7.0,51.0,"Thu, Apr  6, 2017","Sun, Apr  2, 2017"
3728,Honolulu International,Honolulu,United States,HNL,PHNL,21.318681,-157.922428,13,-10,N,"Honolulu, HI",3895,3901,3906,3908,7.166623876765081,15.56421430402463,51.0,47.0,"Mon, Apr  3, 2017","Thu, Apr 27, 2017"
3749,Lea County Regional,Hobbs,United States,HOB,KHOB,32.687528,-103.217028,3661,-7,A,"Hobbs, NM",46,46,47,47,5.4782608695652195,10.434782608695654,11.0,38.0,"Wed, Apr  5, 2017","Sun, Apr 30, 2017"
3566,William P. Hobby,Houston,United States,HOU,KHOU,29.645419,-95.278889,46,-6,A,"Houston, TX",4418,4423,4486,4484,7.041195110909913,11.752204386163234,59.0,90.0,"Thu, Apr  6, 2017","Sun, Apr  2, 2017"
3589,Westchester County,White Plains,United States,HPN,KHPN,41.066959,-73.707575,439,-5,A,"White Plains, NY",549,550,561,560,4.612021857923498,15.347272727272728,43.0,85.0,"Thu, Apr  6, 2017","Wed, Apr  5, 2017"
3560,Valley International,Harlingen,United States,HRL,KHRL,26.2285,-97.654389,36,-6,A,"Harlingen/San Benito, TX",244,242,248,247,3.1680327868852465,10.21074380165289,7.0,33.0,"Fri, Apr 28, 2017","Fri, Apr 28, 2017"
4113,Huntsville International Airport-Carl T. Jones Field,Huntsville,United States,HSV,KHSV,34.6371944,-86.7750556,629,-6,A,"Huntsville, AL",310,310,323,323,4.809677419354839,16.02903225806452,27.0,42.0,"Mon, Apr  3, 2017","Tue, Apr 11, 2017"
7014,Hays Regional Airport,Hays,United States,HYS,KHYS,38.8422,-99.2732,1998,-5,A,"Hays, KS",50,49,50,50,3.9,12.857142857142858,7.0,84.0,"Tue, Apr 18, 2017","Sun, Apr 30, 2017"
3714,Washington Dulles International,Washington,United States,IAD,KIAD,38.944533,-77.455811,313,-5,A,"Washington, DC",3025,3018,3053,3046,6.2304132231405,17.936381709741504,97.0,125.0,"Thu, Apr  6, 2017","Mon, Apr  3, 2017"
3630,Niagara Falls International,Niagara Falls,United States,IAG,KIAG,43.107333,-78.946194,589,-5,A,"Niagara Falls, NY",64,64,68,68,6.15625,12.5625,10.0,28.0,"Sun, Apr  2, 2017","Fri, Apr 14, 2017"
3550,George Bush Intercontinental Houston,Houston,United States,IAH,KIAH,29.984433,-95.341442,97,-6,A,"Houston, TX",10515,10523,10596,10600,8.264289110794072,18.272640881877884,66.0,146.0,"Sun, Apr  2, 2017","Sun, Apr  2, 2017"
3457,Wichita Mid Continent,Wichita,United States,ICT,KICT,37.649944,-97.433056,1333,-6,A,"Wichita, KS",723,724,737,736,4.402489626556013,12.96685082872927,17.0,65.0,"Sat, Apr  1, 2017","Fri, Apr 28, 2017"
4100,Idaho Falls Regional,Idaho Falls,United States,IDA,KIDA,43.514556,-112.07075,4744,-7,A,"Idaho Falls, ID",198,197,198,198,4.17171717171717,13.385786802030454,7.0,43.0,"Sun, Apr 23, 2017","Fri, Apr 28, 2017"
6131,Laughlin-Bullhead International,Bullhead,United States,IFP,IFP,35.1574,-114.56,695,-7,A,"Bullhead City, AZ",30,30,30,30,5.9,14.766666666666667,20.0,39.0,"Sat, Apr 15, 2017","Fri, Apr 21, 2017"
3845,Wilmington International,Wilmington,United States,ILM,KILM,34.270615,-77.902569,32,-5,A,"Wilmington, NC",201,202,207,208,3.402985074626866,17.03960396039605,8.0,86.0,"Sat, Apr  1, 2017","Wed, Apr  5, 2017"
6837,Ford Airport,Iron Mountain,United States,IMT,KIMT,45.8183611,-88.1145556,1182,-5,A,"Iron Mountain/Kingsfd, MI",55,55,55,55,4.4727272727272736,13.290909090909091,10.0,40.0,"Fri, Apr  7, 2017","Mon, Apr 17, 2017"
3585,Indianapolis International,Indianapolis,United States,IND,KIND,39.717331,-86.294383,797,-5,A,"Indianapolis, IN",2329,2326,2366,2366,5.830399313009878,12.512897678417886,57.0,113.0,"Fri, Apr 28, 2017","Mon, Apr  3, 2017"
3535,Falls International,International Falls,United States,INL,KINL,48.566186,-93.403067,1185,-6,A,"International Falls, MN",52,52,52,52,3.9999999999999996,13.5,7.0,29.0,"Mon, Apr  3, 2017","Sat, Apr 29, 2017"
3659,Sloulin Field International,Williston,United States,ISN,KISN,48.177939,-103.642347,1982,-7,A,"Williston, ND",85,85,85,85,4.4823529411764715,19.352941176470587,7.0,55.0,"Wed, Apr  5, 2017","Wed, Apr  5, 2017"
3857,Long Island MacArthur,Islip,United States,ISP,KISP,40.79525,-73.100222,99,-5,A,"Islip, NY",416,416,418,418,4.7067307692307745,9.689903846153845,15.0,70.0,"Thu, Apr 20, 2017","Sat, Apr 29, 2017"
3947,Ithaca Tompkins Regional,Ithaca,United States,ITH,KITH,42.491028,-76.458444,1099,-5,A,"Ithaca/Cortland, NY",85,84,85,85,4.176470588235298,21.571428571428573,10.0,71.0,"Mon, Apr 17, 2017","Sun, Apr 30, 2017"
3415,Hilo International,Hilo,United States,ITO,PHTO,19.721375,-155.048469,38,-10,N,"Hilo, HI",542,513,542,514,5.653136531365314,9.116959064327482,16.0,23.0,"Thu, Apr 27, 2017","Sat, Apr 22, 2017"
4027,Jackson Hole Airport,Jacksn Hole,United States,JAC,KJAC,43.60733333,-110.73775,6451,-7,A,"Jackson, WY",97,98,98,99,3.8762886597938144,19.20408163265305,41.0,52.0,"Sat, Apr  1, 2017","Wed, Apr 26, 2017"
3580,Jackson Evers International,Jackson,United States,JAN,KJAN,32.311167,-90.075889,346,-6,A,"Jackson/Vicksburg, MS",363,363,378,378,4.173553719008264,13.683195592286499,15.0,51.0,"Sun, Apr 23, 2017","Mon, Apr 17, 2017"
3712,Jacksonville International,Jacksonville,United States,JAX,KJAX,30.494056,-81.687861,30,-5,A,"Jacksonville, FL",1504,1499,1541,1541,5.22207446808511,13.675116744496334,109.0,66.0,"Wed, Apr  5, 2017","Sun, Apr 23, 2017"
3797,John F. Kennedy International,New York,United States,JFK,KJFK,40.639751,-73.778925,13,-5,A,"New York, NY",7762,7783,7939,7938,7.643777376964713,27.47051265578824,117.0,135.0,"Fri, Apr 21, 2017","Thu, Apr  6, 2017"
5745,Jamestown Regional Airport,Jamestown,United States,JMS,KJMS,46.9297,-98.6782,1498,-6,A,"Jamestown, ND",78,79,81,81,4.487179487179487,14.341772151898734,8.0,33.0,"Sat, Apr 22, 2017","Tue, Apr 25, 2017"
3492,Juneau International,Juneau,United States,JNU,PAJN,58.354972,-134.576278,21,-9,A,"Juneau, AK",315,315,315,315,3.987301587301586,11.301587301587297,9.0,29.0,"Sat, Apr 29, 2017","Thu, Apr 13, 2017"
3514,Kona International At Keahole,Kona,United States,KOA,PHKO,19.738767,-156.045631,47,-10,N,"Kona, HI",1041,1062,1046,1071,5.367915465898175,10.790018832391716,45.0,59.0,"Sat, Apr 15, 2017","Sun, Apr 30, 2017"
3808,Ketchikan International,Ketchikan,United States,KTN,PAKT,55.355556,-131.71375,88,-9,A,"Ketchikan, AK",175,175,175,175,4.028571428571429,9.417142857142856,11.0,38.0,"Sat, Apr  1, 2017","Thu, Apr 27, 2017"
3544,Capital City,Lansing,United States,LAN,KLAN,42.7787,-84.587357,861,-5,A,"Lansing, MI",242,241,247,248,5.243801652892562,15.016597510373444,28.0,60.0,"Tue, Apr 18, 2017","Thu, Apr  6, 2017"
5746,Laramie Regional Airport,Laramie,United States,LAR,KLAR,41.3121,-105.675,7284,-7,A,"Laramie, WY",50,49,50,50,4.660000000000001,18.897959183673468,8.0,79.0,"Tue, Apr 25, 2017","Fri, Apr 28, 2017"
3877,McCarran International,Las Vegas,United States,LAS,KLAS,36.080056,-115.15225,2141,-8,A,"Las Vegas, NV",12490,12479,12577,12570,7.247477982385917,14.399471111467262,71.0,123.0,"Fri, Apr  7, 2017","Thu, Apr 13, 2017"
4256,Lawton-Fort Sill Regional Airport,Lawton,United States,LAW,KLAW,34.5677144,-98.4166367,1110,-6,A,"Lawton/Fort Sill, OK",110,109,111,110,2.9,14.917431192660551,11.0,109.0,"Thu, Apr  6, 2017","Sun, Apr 30, 2017"
3484,Los Angeles International,Los Angeles,United States,LAX,KLAX,33.942536,-118.408075,126,-8,A,"Los Angeles, CA",17258,17260,17436,17433,14.030826283462744,18.1924101969873,95.0,135.0,"Mon, Apr 24, 2017","Tue, Apr 11, 2017"
3829,Lubbock Preston Smith International,Lubbock,United States,LBB,KLBB,33.663639,-101.822778,3282,-6,A,"Lubbock, TX",381,379,387,385,4.868766404199473,11.736147757255937,20.0,50.0,"Sat, Apr 29, 2017","Tue, Apr 18, 2017"
5747,Arnold Palmer Regional Airport,Latrobe,United States,LBE,KLBE,40.2759,-79.4048,1185,-5,A,"Latrobe, PA",111,112,115,115,6.09009009009009,11.732142857142856,23.0,84.0,"Tue, Apr 25, 2017","Thu, Apr 27, 2017"
3513,Lake Charles Regional,Lake Charles,United States,LCH,KLCH,30.126112,-93.223335,15,-6,A,"Lake Charles, LA",126,124,127,127,4.293650793650792,12.661290322580646,7.0,38.0,"Fri, Apr 28, 2017","Fri, Apr 28, 2017"
4017,Blue Grass,Lexington KY,United States,LEX,KLEX,38.0365,-84.605889,979,-5,A,"Lexington, KY",437,441,452,454,4.899313501144159,15.0702947845805,27.0,74.0,"Thu, Apr 27, 2017","Wed, Apr  5, 2017"
3493,Lafayette Regional,Lafayette,United States,LFT,KLFT,30.205278,-91.987611,43,-6,A,"Lafayette, LA",209,210,222,223,5.598086124401911,14.55238095238095,37.0,37.0,"Sat, Apr  8, 2017","Fri, Apr 28, 2017"
3697,LaGuardia Airport,New York,United States,LGA,KLGA,40.777245,-73.872608,22,-5,A,"New York, NY",7298,7303,7542,7542,8.274458755823506,26.38217171025606,79.0,152.0,"Mon, Apr 10, 2017","Thu, Apr 20, 2017"
3582,Long Beach,Long Beach,United States,LGB,KLGB,33.817722,-118.151611,60,-8,A,"Long Beach, CA",1357,1353,1367,1368,3.9705232129697814,12.771618625277155,29.0,87.0,"Mon, Apr  3, 2017","Thu, Apr  6, 2017"
3602,Lihue,Lihue,United States,LIH,PHLI,21.975983,-159.338958,153,-10,N,"Lihue, HI",970,969,970,970,5.71958762886598,9.103199174406608,15.0,42.0,"Sat, Apr 22, 2017","Sat, Apr  8, 2017"
3660,Adams Field,Little Rock,United States,LIT,KLIT,34.729444,-92.224306,262,-6,A,"Little Rock, AR",618,618,634,635,5.2475728155339825,12.258899676375407,39.0,46.0,"Wed, Apr 26, 2017","Fri, Apr 21, 2017"
3543,Lincoln,Lincoln,United States,LNK,KLNK,40.850971,-96.75925,1219,-6,A,"Lincoln, NE",246,249,250,251,4.491869918699191,14.481927710843374,18.0,45.0,"Sun, Apr 30, 2017","Sun, Apr 30, 2017"
3691,Laredo International,Laredo,United States,LRD,KLRD,27.54375,-99.461556,508,-6,A,"Laredo, TX",193,193,197,197,3.5440414507772022,13.461139896373055,9.0,57.0,"Thu, Apr 13, 2017","Sat, Apr 15, 2017"
4044,LaCrosse Municipal,LaCrosse,United States,LSE,KLSE,43.878986,-91.256711,654,-6,A,"La Crosse, WI",167,167,170,170,4.185628742514968,15.67664670658683,7.0,62.0,"Sun, Apr 23, 2017","Thu, Apr 13, 2017"
3945,Lewiston Nez Perce County,Lewiston,United States,LWS,KLWS,46.3745,-117.015389,1442,-8,A,"Lewiston, ID",60,60,60,60,4.216666666666666,11.433333333333334,7.0,28.0,"Sat, Apr  1, 2017","Mon, Apr 10, 2017"
3652,Midland International,Midland,United States,MAF,KMAF,31.942528,-102.201914,2871,-6,A,"Midland/Odessa, TX",438,438,442,442,5.079908675799084,11.235159817351594,44.0,48.0,"Mon, Apr 17, 2017","Tue, Apr 11, 2017"
4128,MBS International,Saginaw,United States,MBS,KMBS,43.532913,-84.079647,668,-5,A,"Saginaw/Bay City/Midland, MI",217,217,222,222,4.7465437788018425,15.396313364055304,9.0,72.0,"Thu, Apr  6, 2017","Mon, Apr 10, 2017"
3458,Kansas City International,Kansas City,United States,MCI,KMCI,39.297606,-94.713905,1026,-6,A,"Kansas City, MO",3649,3646,3705,3706,5.897232118388601,12.002194185408664,40.0,147.0,"Mon, Apr 17, 2017","Mon, Apr  3, 2017"
3878,Orlando International,Orlando,United States,MCO,KMCO,28.429394,-81.308994,96,-5,A,"Orlando, FL",11522,11526,11625,11630,9.291182086443321,15.57044941870551,86.0,131.0,"Thu, Apr  6, 2017","Thu, Apr  6, 2017"
3542,Harrisburg International,Harrisburg,United States,MDT,KMDT,40.193494,-76.763403,310,-5,A,"Harrisburg, PA",268,266,272,272,4.656716417910448,15.3609022556391,27.0,71.0,"Sat, Apr  8, 2017","Sat, Apr 29, 2017"
3747,Chicago Midway International,Chicago,United States,MDW,KMDW,41.785972,-87.752417,620,-6,A,"Chicago, IL",7075,7087,7137,7138,6.137102473498244,11.935515733032316,65.0,111.0,"Thu, Apr  6, 2017","Sun, Apr 30, 2017"
4335,Key Field,Meridian,United States,MEI,KMEI,32.332624,-88.751868,297,-6,A,"Meridian, MS",79,79,80,80,4.164556962025317,12.582278481012658,8.0,34.0,"Tue, Apr 25, 2017","Wed, Apr 26, 2017"
3473,Memphis International,Memphis,United States,MEM,KMEM,35.042417,-89.976667,341,-6,A,"Memphis, TN",1233,1234,1266,1266,5.552311435523114,14.42058346839545,43.0,123.0,"Fri, Apr 21, 2017","Wed, Apr  5, 2017"
3826,McAllen Miller International,Mcallen,United States,MFE,KMFE,26.175833,-98.238611,107,-6,A,"Mission/McAllen/Edinburg, TX",213,212,214,213,4.54460093896714,11.665094339622641,14.0,44.0,"Mon, Apr 17, 2017","Mon, Apr 17, 2017"
4101,Rogue Valley International Medford,Medford,United States,MFR,KMFR,42.374228,-122.8735,1335,-8,A,"Medford, OR",196,197,203,203,4.346938775510203,14.629441624365482,13.0,50.0,"Thu, Apr 27, 2017","Sun, Apr 30, 2017"
4115,Montgomery Regional Airport ,MONTGOMERY,United States,MGM,KMGM,32.3006389,-86.3939722,221,-6,A,"Montgomery, AL",115,113,121,121,4.608695652173912,20.256637168141587,27.0,91.0,"Thu, Apr 13, 2017","Tue, Apr  4, 2017"
4050,Manhattan Regional,Manhattan,United States,MHK,KMHK,39.140972,-96.670833,1057,-6,A,"Manhattan/Ft. Riley, KS",49,48,50,49,4.163265306122449,14.604166666666666,9.0,37.0,"Wed, Apr 26, 2017","Wed, Apr  5, 2017"
4011,Manchester Regional Airport,Manchester NH,United States,MHT,KMHT,42.932556,-71.435667,266,-5,A,"Manchester, NH",466,462,475,474,4.987124463519312,11.489177489177488,21.0,55.0,"Sat, Apr  8, 2017","Sat, Apr  1, 2017"
3576,Miami International,Miami,United States,MIA,KMIA,25.79325,-80.290556,8,-5,A,"Miami, FL",5674,5677,5745,5749,8.792562566090945,19.343138981856562,74.0,139.0,"Sun, Apr 23, 2017","Wed, Apr  5, 2017"
3717,General Mitchell International,Milwaukee,United States,MKE,KMKE,42.947222,-87.896583,723,-6,A,"Milwaukee, WI",2741,2735,2775,2775,5.248814301349876,12.604021937842779,39.0,166.0,"Sun, Apr 16, 2017","Mon, Apr 10, 2017"
5754,Muskegon County Airport,Muskegon,United States,MKG,KMKG,43.1695,-86.2382,628,-5,A,"Muskegon, MI",54,54,55,55,4.462962962962965,13.851851851851851,7.0,44.0,"Tue, Apr 25, 2017","Sun, Apr 30, 2017"
3671,Melbourne International,Melbourne,United States,MLB,KMLB,28.102753,-80.645258,33,-5,A,"Melbourne, FL",131,131,143,143,3.7709923664122136,15.98473282442748,7.0,55.0,"Fri, Apr  7, 2017","Sat, Apr  8, 2017"
4072,Quad City International,Moline,United States,MLI,KMLI,41.448528,-90.507539,590,-6,A,"Moline, IL",275,278,284,284,4.636363636363637,14.58273381294964,36.0,69.0,"Tue, Apr  4, 2017","Thu, Apr 27, 2017"
3732,Monroe Regional,Monroe,United States,MLU,KMLU,32.510864,-92.037689,79,-6,A,"Monroe, LA",157,157,160,161,4.49044585987261,14.063694267515924,20.0,51.0,"Tue, Apr 11, 2017","Thu, Apr 27, 2017"
7081,Mammoth Yosemite Airport,Mammoth Lakes,United States,MMH,KMMH,37.624049,-118.837772,7128,-8,A,"Mammoth Lakes, CA",3,3,3,3,3.6666666666666665,29.0,4.0,43.0,"Sat, Apr  1, 2017","Sun, Apr  2, 2017"
3782,Mobile Regional,Mobile,United States,MOB,KMOB,30.691231,-88.242814,219,-6,A,"Mobile, AL",308,307,321,322,4.074675324675326,15.6058631921824,33.0,58.0,"Mon, Apr 24, 2017","Mon, Apr  3, 2017"
3498,Minot International,Minot,United States,MOT,KMOT,48.259378,-101.280333,1716,-6,A,"Minot, ND",139,137,139,137,5.194244604316548,18.97080291970803,16.0,64.0,"Fri, Apr 21, 2017","Wed, Apr 26, 2017"
6838,Sawyer International Airport,Marquette,United States,MQT,KMQT,46.353611,-87.395278,1221,-5,A,"Marquette, MI",85,85,85,85,4.894117647058824,16.235294117647058,10.0,41.0,"Mon, Apr 10, 2017","Thu, Apr  6, 2017"
3948,Monterey Peninsula,Monterey,United States,MRY,KMRY,36.587,-121.842944,257,-8,A,"Monterey, CA",202,209,211,212,3.6386138613861387,17.923444976076564,8.0,55.0,"Sun, Apr 30, 2017","Mon, Apr 24, 2017"
3459,Dane County Regional-Truax Field,Madison,United States,MSN,KMSN,43.139858,-89.337514,887,-6,A,"Madison, WI",786,784,803,804,4.478371501272267,13.451530612244895,24.0,46.0,"Sat, Apr  8, 2017","Tue, Apr 11, 2017"
4216,Missoula International,Missoula,United States,MSO,KMSO,46.916306,-114.090556,3205,-7,A,"Missoula, MT",141,141,143,143,5.524822695035461,14.390070921985815,30.0,55.0,"Sat, Apr  1, 2017","Sun, Apr  9, 2017"
3858,Minneapolis St. Paul International,Minneapolis,United States,MSP,KMSP,44.881956,-93.221767,841,-6,A,"Minneapolis, MN",11073,11097,11227,11235,5.528402420301626,17.377219068216533,67.0,126.0,"Fri, Apr  7, 2017","Mon, Apr 10, 2017"
3861,Louis Armstrong New Orleans International,New Orleans,United States,MSY,KMSY,29.993389,-90.258028,4,-6,A,"New Orleans, LA",3939,3936,3986,3985,5.3003300330032985,12.296747967479678,95.0,86.0,"Sun, Apr 30, 2017","Tue, Apr 25, 2017"
6880,Montrose Regional Airport,Montrose CO,United States,MTJ,KMTJ,38.509794,-107.894242,5759,-7,A,"Montrose/Delta, CO",14,15,14,15,4.5,12.266666666666667,8.0,20.0,"Sat, Apr  1, 2017","Sat, Apr  1, 2017"
3515,Myrtle Beach International,Myrtle Beach,United States,MYR,KMYR,33.67975,-78.928333,25,-5,A,"Myrtle Beach, SC",519,518,532,531,4.824662813102117,12.121621621621623,31.0,54.0,"Wed, Apr  5, 2017","Tue, Apr  4, 2017"
4386,Albert J. Ellis,Jacksonville NC,United States,OAJ,KOAJ,34.829164,-77.612139,94,-5,A,"Jacksonville/Camp Lejeune, NC",112,112,114,114,3.8035714285714284,16.348214285714285,9.0,46.0,"Mon, Apr  3, 2017","Sun, Apr  2, 2017"
3453,Metropolitan Oakland International,Oakland,United States,OAK,KOAK,37.721278,-122.220722,9,-8,A,"Oakland, CA",3900,3900,3929,3927,7.11410256410256,12.206923076923081,92.0,91.0,"Thu, Apr  6, 2017","Thu, Apr  6, 2017"
3456,Kahului,Kahului,United States,OGG,PHOG,20.89865,-156.430458,54,-10,N,"Kahului, HI",1973,1969,1975,1975,6.496705524581853,9.608938547486037,64.0,47.0,"Sun, Apr  2, 2017","Thu, Apr  6, 2017"
3863,Will Rogers World,Oklahoma City,United States,OKC,KOKC,35.393089,-97.600733,1295,-6,A,"Oklahoma City, OK",1185,1184,1204,1204,4.737552742616035,12.445945945945947,29.0,125.0,"Tue, Apr  4, 2017","Mon, Apr 10, 2017"
3454,Eppley Airfield,Omaha,United States,OMA,KOMA,41.303167,-95.894069,984,-6,A,"Omaha, NE",1516,1517,1538,1541,4.866094986807386,12.570204350692148,22.0,70.0,"Sun, Apr 23, 2017","Tue, Apr  4, 2017"
3615,Nome,Nome,United States,OME,PAOM,64.512203,-165.445247,37,-9,A,"Nome, AK",60,60,60,60,3.35,6.066666666666667,7.0,19.0,"Mon, Apr  3, 2017","Fri, Apr 28, 2017"
3734,Ontario International,Ontario,United States,ONT,KONT,34.056,-117.601194,944,-8,A,"Ontario, CA",1614,1612,1636,1637,4.645600991325905,11.713399503722108,21.0,75.0,"Thu, Apr 20, 2017","Sun, Apr 30, 2017"
3830,Chicago O'Hare International,Chicago,United States,ORD,KORD,41.978603,-87.904842,668,-6,A,"Chicago, IL",21173,21212,21436,21464,12.638265715770068,19.525315858947707,115.0,133.0,"Sat, Apr 29, 2017","Mon, Apr 10, 2017"
3611,Norfolk International,Norfolk,United States,ORF,KORF,36.894611,-76.201222,26,-5,A,"Norfolk, VA",917,910,943,939,4.303162486368591,13.332967032967037,40.0,120.0,"Thu, Apr  6, 2017","Mon, Apr  3, 2017"
6426,Worcester Regional Airport,Worcester,United States,ORH,KORH,42.2673,-71.8757,1009,-5,U,"Worcester, MA",58,57,60,60,3.413793103448276,12.070175438596491,6.0,24.0,"Thu, Apr 13, 2017","Sat, Apr 22, 2017"
5757,Southwest Oregon Regional Airport,North Bend,United States,OTH,KOTH,43.4171,-124.246,17,-8,A,"North Bend/Coos Bay, OR",13,16,17,17,3.769230769230769,19.125,5.0,38.0,"Thu, Apr  6, 2017","Mon, Apr 10, 2017"
3693,Ralph WienMemorial,Kotzebue,United States,OTZ,PAOT,66.884678,-162.59855,11,-9,A,"Kotzebue, AK",60,60,60,60,3.6333333333333333,6.783333333333333,6.0,23.0,"Wed, Apr  5, 2017","Mon, Apr 10, 2017"
4117,Barkley Regional Airport,PADUCAH,United States,PAH,KPAH,37.0602875,-88.7729583,410,-6,A,"Paducah, KY",54,55,56,56,4.500000000000003,11.98181818181818,13.0,26.0,"Mon, Apr 24, 2017","Wed, Apr 12, 2017"
3771,Plattsburgh International,Plattsburgh,United States,PBG,KPBG,44.650944,-73.468139,234,-5,A,"Plattsburgh, NY",56,58,56,58,5.589285714285715,16.672413793103452,9.0,79.0,"Thu, Apr  6, 2017","Sat, Apr  1, 2017"
3722,Palm Beach International,West Palm Beach,United States,PBI,KPBI,26.683161,-80.095589,19,-5,A,"West Palm Beach/Palm Beach, FL",2377,2375,2432,2433,4.559949516196887,14.941473684210527,45.0,114.0,"Thu, Apr  6, 2017","Thu, Apr 20, 2017"
3720,Portland International,Portland,United States,PDX,KPDX,45.588722,-122.5975,30,-8,A,"Portland, OR",4769,4767,4795,4793,4.802264625707683,13.337319068596582,53.0,134.0,"Fri, Apr  7, 2017","Thu, Apr 13, 2017"
7056,Charlotte County-Punta Gorda Airport,Punta Gorda,United States,PGD,KPGD,26.919722,-81.990556,26,-5,A,"Punta Gorda, FL",37,37,38,38,7.621621621621622,12.35135135135135,12.0,25.0,"Sun, Apr  2, 2017","Sun, Apr  9, 2017"
3633,Newport News Williamsburg International,Newport News,United States,PHF,KPHF,37.131894,-76.492989,43,-5,A,"Newport News/Williamsburg, VA",84,84,90,90,4.035714285714286,14.0,10.0,55.0,"Sat, Apr  1, 2017","Mon, Apr  3, 2017"
3752,Philadelphia International,Philadelphia,United States,PHL,KPHL,39.871944,-75.241139,36,-5,A,"Philadelphia, PA",6038,6044,6126,6129,7.11576681020206,22.21525479814695,74.0,157.0,"Thu, Apr  6, 2017","Thu, Apr  6, 2017"
3462,Phoenix Sky Harbor International,Phoenix,United States,PHX,KPHX,33.434278,-112.011583,1135,-7,N,"Phoenix, AZ",13213,13236,13278,13284,8.039960644819486,14.792082200060461,92.0,138.0,"Thu, Apr 27, 2017","Thu, Apr  6, 2017"
4046,Peoria Regional,Peoria,United States,PIA,KPIA,40.664203,-89.693258,660,-6,A,"Peoria, IL",185,184,187,188,4.994594594594596,16.190217391304348,16.0,62.0,"Wed, Apr  5, 2017","Wed, Apr 19, 2017"
5759,Hattiesburg Laurel Regional Airport,Hattiesburg/Laurel,United States,PIB,KPIB,31.4671,-89.3371,298,-6,A,"Hattiesburg/Laurel, MS",50,50,50,50,3.68,13.34,11.0,43.0,"Thu, Apr 20, 2017","Fri, Apr 28, 2017"
5760,Pocatello Regional Airport,Pocatello,United States,PIH,KPIH,42.9098,-112.596,4452,-7,A,"Pocatello, ID",80,80,80,80,3.7125,12.737499999999997,6.0,31.0,"Thu, Apr  6, 2017","Thu, Apr 20, 2017"
3570,Pittsburgh International,Pittsburgh (pennsylva),United States,PIT,KPIT,40.491467,-80.232872,1204,-5,A,"Pittsburgh, PA",2294,2289,2328,2327,5.410636442894509,12.500218435998258,35.0,80.0,"Sat, Apr 29, 2017","Mon, Apr 10, 2017"
5762,Pellston Regional Airport of Emmet County Airport,Pellston,United States,PLN,KPLN,45.5709,-84.7967,720,-5,A,"Pellston, MI",76,76,79,79,5.5394736842105265,12.960526315789474,9.0,35.0,"Wed, Apr  5, 2017","Sun, Apr  2, 2017"
3564,Pensacola Regional,Pensacola,United States,PNS,KPNS,30.473425,-87.186611,121,-6,A,"Pensacola, FL",443,439,460,460,5.476297968397289,13.99544419134396,71.0,94.0,"Sun, Apr 30, 2017","Sun, Apr 23, 2017"
6133,Tri Cities Airport,Pasco,United States,PSC,PSC,46.2647,-119.119,410,-8,A,"Pasco/Kennewick/Richland, WA",287,285,289,289,4.717770034843203,14.982456140350877,20.0,39.0,"Fri, Apr 21, 2017","Sun, Apr  9, 2017"
4147,Petersburg James A. Johnson,Petersburg,United States,PSG,PAPG,56.801667,-132.945278,105,-9,A,"Petersburg, AK",60,60,60,60,3.683333333333333,7.0,6.0,19.0,"Mon, Apr  3, 2017","Fri, Apr 28, 2017"
3839,Palm Springs International,Palm Springs,United States,PSP,KPSP,33.829667,-116.506694,477,-8,A,"Palm Springs, CA",926,935,940,941,5.29481641468683,15.035294117647059,33.0,69.0,"Fri, Apr  7, 2017","Tue, Apr 18, 2017"
3641,Theodore Francis Green State,Providence,United States,PVD,KPVD,41.732581,-71.420383,55,-5,A,"Providence, RI",1187,1184,1209,1208,4.680707666385842,13.026182432432442,26.0,58.0,"Thu, Apr 27, 2017","Sat, Apr 22, 2017"
3862,Portland International Jetport,Portland,United States,PWM,KPWM,43.646161,-70.309281,77,-5,A,"Portland, ME",555,557,576,577,3.854054054054054,16.211849192100534,42.0,122.0,"Thu, Apr 13, 2017","Mon, Apr 24, 2017"
4087,Rapid City Regional Airport,Rapid City,United States,RAP,KRAP,44.045278,-103.057222,3204,-7,A,"Rapid City, SD",189,189,189,189,4.783068783068781,16.126984126984148,20.0,71.0,"Wed, Apr 26, 2017","Mon, Apr 10, 2017"
4098,Redding Municipal,Redding,United States,RDD,KRDD,40.509,-122.293389,504,-8,A,"Redding, CA",79,77,90,90,4.21518987341772,17.38961038961039,8.0,78.0,"Wed, Apr 19, 2017","Fri, Apr 28, 2017"
4103,Roberts Field,Redmond-Bend,United States,RDM,KRDM,44.254066,-121.149964,3077,-8,A,"Bend/Redmond, OR",234,234,238,238,3.893162393162393,14.794871794871796,9.0,47.0,"Sat, Apr 29, 2017","Tue, Apr 25, 2017"
3626,Raleigh Durham International,Raleigh-durham,United States,RDU,KRDU,35.877639,-78.787472,435,-5,A,"Raleigh/Durham, NC",2782,2779,2819,2820,5.308051761322784,15.584742713206175,45.0,117.0,"Tue, Apr  4, 2017","Thu, Apr  6, 2017"
5765,Rhinelander Oneida County Airport,Rhinelander,United States,RHI,KRHI,45.6312,-89.4675,1624,-6,A,"Rhinelander, WI",60,60,60,60,4.400000000000001,21.4,9.0,73.0,"Thu, Apr 27, 2017","Tue, Apr 11, 2017"
3608,Richmond International,Richmond,United States,RIC,KRIC,37.505167,-77.319667,167,-5,A,"Richmond, VA",1227,1225,1263,1262,5.87367563162185,16.057959183673475,38.0,101.0,"Thu, Apr  6, 2017","Fri, Apr  7, 2017"
5766,Rock Springs Sweetwater County Airport,Rock Springs,United States,RKS,KRKS,41.5942,-109.065,6760,-7,A,"Rock Springs, WY",55,54,55,55,3.3454545454545452,16.037037037037035,6.0,73.0,"Mon, Apr 24, 2017","Sun, Apr  9, 2017"
3807,Reno Tahoe International,Reno,United States,RNO,KRNO,39.499108,-119.768108,4415,-8,A,"Reno, NV",1252,1252,1267,1268,4.638977635782743,13.178115015974434,24.0,100.0,"Fri, Apr 21, 2017","Wed, Apr 26, 2017"
4016,Roanoke Regional,Roanoke VA,United States,ROA,KROA,37.325472,-79.975417,1175,-5,A,"Roanoke, VA",131,132,141,141,4.923664122137407,16.121212121212128,23.0,74.0,"Sat, Apr 29, 2017","Sun, Apr 30, 2017"
3622,Greater Rochester International,Rochester,United States,ROC,KROC,43.118866,-77.672389,559,-5,A,"Rochester, NY",598,597,615,615,5.128762541806015,12.887772194304853,37.0,73.0,"Sun, Apr 30, 2017","Fri, Apr  7, 2017"
3736,Roswell International Air Center,Roswell,United States,ROW,KROW,33.301556,-104.530556,3671,-7,A,"Roswell, NM",83,82,84,83,4.759036144578315,14.085365853658534,15.0,47.0,"Fri, Apr  7, 2017","Mon, Apr 17, 2017"
4048,Rochester,Rochester,United States,RST,KRST,43.908283,-92.500014,1317,-6,A,"Rochester, MN",230,230,233,233,3.847826086956523,15.452173913043477,9.0,55.0,"Sun, Apr  9, 2017","Fri, Apr 28, 2017"
3793,Southwest Florida International,Fort Myers,United States,RSW,KRSW,26.536167,-81.755167,30,-5,A,"Fort Myers, FL",3545,3552,3594,3605,5.935966149506349,13.431306306306308,88.0,141.0,"Tue, Apr 25, 2017","Thu, Apr  6, 2017"
3784,Santa Fe Municipal,Santa Fe,United States,SAF,KSAF,35.617108,-106.089422,6348,-7,A,"Santa Fe, NM",115,114,119,119,4.469565217391304,18.19298245614035,8.0,95.0,"Sat, Apr  1, 2017","Tue, Apr  4, 2017"
3731,San Diego International,San Diego,United States,SAN,KSAN,32.733556,-117.189667,17,-8,A,"San Diego, CA",6674,6668,6734,6733,4.0719208870242785,14.950959808038405,46.0,77.0,"Fri, Apr 28, 2017","Thu, Apr  6, 2017"
3621,San Antonio International,San Antonio,United States,SAT,KSAT,29.533694,-98.469778,809,-6,A,"San Antonio, TX",2628,2619,2652,2650,4.89155251141553,12.295150820924016,73.0,95.0,"Sat, Apr 22, 2017","Mon, Apr 10, 2017"
3613,Savannah Hilton Head International,Savannah,United States,SAV,KSAV,32.127583,-81.202139,51,-5,A,"Savannah, GA",650,646,674,674,5.889230769230767,16.552631578947352,38.0,70.0,"Sun, Apr  9, 2017","Wed, Apr  5, 2017"
3949,Santa Barbara Municipal,Santa Barbara,United States,SBA,KSBA,34.426211,-119.840372,10,-8,A,"Santa Barbara, CA",420,419,438,438,4.461904761904766,16.816229116945113,21.0,59.0,"Sat, Apr  1, 2017","Sun, Apr 30, 2017"
4359,South Bend Regional,South Bend,United States,SBN,KSBN,41.708661,-86.31725,799,-5,A,"South Bend, IN",386,386,396,396,4.582901554404144,15.922279792746107,18.0,56.0,"Sun, Apr 30, 2017","Thu, Apr 27, 2017"
5768,San Luis County Regional Airport,San Luis Obispo,United States,SBP,KSBP,35.2368,-120.642,212,-8,A,"San Luis Obispo, CA",323,324,338,338,3.829721362229102,16.0462962962963,17.0,87.0,"Sun, Apr  2, 2017","Thu, Apr 13, 2017"
3620,Deadhorse,Deadhorse,United States,SCC,PASC,70.19475,-148.465167,64,-9,A,"Deadhorse, AK",59,59,60,60,3.7457627118644066,7.338983050847457,6.0,25.0,"Tue, Apr 11, 2017","Mon, Apr 17, 2017"
4318,University Park Airport,State College Pennsylvania,United States,SCE,KUNV,40.849278,-77.848694,1239,-5,A,"State College, PA",114,113,114,114,5.289473684210524,13.168141592920353,20.0,36.0,"Tue, Apr  4, 2017","Fri, Apr 28, 2017"
4014,Louisville International Airport,Louisville,United States,SDF,KSDF,38.1740858,-85.7364989,501,-5,A,"Louisville, KY",779,778,800,800,6.273427471116821,13.673521850899737,35.0,120.0,"Fri, Apr 28, 2017","Mon, Apr 10, 2017"
3577,Seattle Tacoma International,Seattle,United States,SEA,KSEA,47.449,-122.309306,433,-8,A,"Seattle, WA",10545,10561,10605,10603,8.468373636794654,18.836000378751947,65.0,89.0,"Thu, Apr  6, 2017","Sun, Apr 30, 2017"
3469,San Francisco International,San Francisco,United States,SFO,KSFO,37.618972,-122.374889,13,-8,A,"San Francisco, CA",13216,13210,13587,13582,7.782611985472168,19.332551097653322,101.0,147.0,"Thu, Apr  6, 2017","Thu, Apr  6, 2017"
4348,Springfield Branson National,Springfield,United States,SGF,KSGF,37.245667,-93.388639,1268,-6,A,"Springfield, MO",189,188,191,191,4.973544973544973,14.909574468085106,22.0,47.0,"Tue, Apr 11, 2017","Mon, Apr  3, 2017"
4064,St. George Municipal,Saint George,United States,SGU,KSGU,37.090583,-113.593056,2941,-7,A,"St. George, UT",234,234,235,235,3.52991452991453,13.482905982905983,7.0,37.0,"Tue, Apr 25, 2017","Wed, Apr 19, 2017"
3609,Shreveport Regional,Shreveport,United States,SHV,KSHV,32.446629,-93.8256,258,-6,A,"Shreveport, LA",380,380,387,388,4.878947368421051,12.31052631578947,45.0,86.0,"Wed, Apr 26, 2017","Wed, Apr  5, 2017"
3856,Sitka Rocky Gutierrez,Sitka,United States,SIT,PASI,57.047138,-135.361611,21,-9,A,"Sitka, AK",85,85,85,85,4.235294117647057,9.623529411764704,8.0,19.0,"Tue, Apr 18, 2017","Wed, Apr 12, 2017"
3748,Norman Y. Mineta San Jose International,San Jose,United States,SJC,KSJC,37.3626,-121.929022,62,-8,A,"San Jose, CA",3805,3805,3823,3825,4.473850197109067,12.19605781865966,42.0,74.0,"Fri, Apr 21, 2017","Sun, Apr 30, 2017"
3536,Salt Lake City International,Salt Lake City,United States,SLC,KSLC,40.788389,-111.977772,4227,-7,A,"Salt Lake City, UT",9010,9015,9087,9091,6.199778024417315,16.47276760953965,45.0,104.0,"Sun, Apr  9, 2017","Sun, Apr 30, 2017"
3817,Sacramento International,Sacramento,United States,SMF,KSMF,38.695417,-121.590778,27,-8,A,"Sacramento, CA",3520,3518,3550,3551,5.382954545454545,12.61796475270039,32.0,81.0,"Fri, Apr 28, 2017","Thu, Apr  6, 2017"
3867,John Wayne Airport Orange County,Santa Ana,United States,SNA,KSNA,33.675667,-117.868222,56,-8,A,"Santa Ana, CA",3317,3316,3349,3348,5.55924027735905,12.857961399276236,56.0,87.0,"Wed, Apr 26, 2017","Thu, Apr 13, 2017"
4336,Abraham Lincoln Capital,Springfield,United States,SPI,KSPI,39.8441,-89.677889,597,-6,A,"Springfield, IL",82,83,85,85,4.341463414634145,13.939759036144578,6.0,43.0,"Fri, Apr  7, 2017","Wed, Apr  5, 2017"
3680,Sheppard AFB Wichita Falls Municipal,Wichita Falls,United States,SPS,KSPS,33.988797,-98.491894,1019,-6,A,"Wichita Falls, TX",8,9,9,10,6.25,23.555555555555557,11.0,71.0,"Sun, Apr  2, 2017","Sun, Apr  2, 2017"
4067,Sarasota Bradenton International,Sarasota,United States,SRQ,KSRQ,27.395444,-82.554389,30,-5,A,"Sarasota/Bradenton, FL",320,318,332,332,3.75,13.981132075471699,24.0,68.0,"Sun, Apr  9, 2017","Thu, Apr 27, 2017"
3678,Lambert St. Louis International,St. Louis,United States,STL,KSTL,38.748697,-90.370028,618,-6,A,"St. Louis, MO",4717,4718,4776,4781,5.06487174051304,11.304790165324308,64.0,120.0,"Mon, Apr 24, 2017","Wed, Apr  5, 2017"
6992,Charles M. Schulz Sonoma County,Santa Rosa,United States,STS,KSTS,38.508978,-122.81288,125,-8,A,"Santa Rosa, CA",30,30,30,30,5.9,17.199999999999992,18.0,38.0,"Sun, Apr 16, 2017","Thu, Apr 20, 2017"
6494,Friedman Memorial,Hailey,United States,SUN,KSUN,43.504444,-114.296194,5320,-7,A,"Sun Valley/Hailey/Ketchum, ID",60,60,60,60,2.55,9.516666666666667,5.0,38.0,"Sun, Apr 30, 2017","Mon, Apr 24, 2017"
3661,Stewart International,Newburgh,United States,SWF,KSWF,41.504094,-74.104839,491,-5,A,"Newburgh/Poughkeepsie, NY",114,114,115,115,5.184210526315792,13.982456140350877,12.0,35.0,"Sun, Apr  2, 2017","Fri, Apr 21, 2017"
3745,Syracuse Hancock International,Syracuse,United States,SYR,KSYR,43.111187,-76.106311,421,-5,A,"Syracuse, NY",464,469,489,489,4.273706896551722,15.311300639658848,17.0,54.0,"Wed, Apr 26, 2017","Fri, Apr  7, 2017"
3698,Tallahassee Regional,Tallahassee,United States,TLH,KTLH,30.396528,-84.350333,81,-5,A,"Tallahassee, FL",163,163,173,173,3.8036809815950905,13.644171779141098,21.0,39.0,"Mon, Apr  3, 2017","Fri, Apr 28, 2017"
4040,Toledo,Toledo,United States,TOL,KTOL,41.586806,-83.807833,684,-5,A,"Toledo, OH",21,21,23,23,3.5238095238095237,16.904761904761905,5.0,49.0,"Sun, Apr  9, 2017","Thu, Apr 20, 2017"
3646,Tampa International,Tampa,United States,TPA,KTPA,27.975472,-82.53325,26,-5,A,"Tampa, FL",6349,6346,6432,6434,4.857772877618509,12.499684840844617,75.0,99.0,"Wed, Apr  5, 2017","Wed, Apr 12, 2017"
4116,Tri-Cities Regional Airport,BRISTOL,United States,TRI,KTRI,36.4752222,-82.4074167,1519,-5,A,"Bristol/Johnson City/Kingsport, TN",177,176,188,188,4.598870056497171,18.034090909090907,12.0,75.0,"Mon, Apr 24, 2017","Mon, Apr 17, 2017"
3447,Trenton Mercer,Trenton,United States,TTN,KTTN,40.276692,-74.813469,213,-5,A,"Trenton, NJ",175,177,179,179,8.668571428571433,12.683615819209036,40.0,43.0,"Sun, Apr 16, 2017","Thu, Apr  6, 2017"
3855,Tulsa International,Tulsa,United States,TUL,KTUL,36.198389,-95.888111,677,-6,A,"Tulsa, OK",1162,1161,1185,1183,4.671256454388981,13.382428940568468,81.0,91.0,"Tue, Apr 11, 2017","Sun, Apr  9, 2017"
3636,Tucson International,Tucson,United States,TUS,KTUS,32.116083,-110.941028,2643,-7,N,"Tucson, AZ",1399,1398,1410,1410,4.14867762687635,14.497138769670954,28.0,90.0,"Sun, Apr 23, 2017","Tue, Apr 25, 2017"
4023,Cherry Capital Airport,Traverse City,United States,TVC,KTVC,44.741445,-85.582235,624,-5,A,"Traverse City, MI",194,194,196,196,4.572164948453611,14.721649484536082,12.0,31.0,"Thu, Apr 13, 2017","Sat, Apr  8, 2017"
4263,Magic Valley Regional Airport,Twin Falls,United States,TWF,KTWF,42.481803,-114.487733,4151,-7,A,"Twin Falls, ID",85,85,85,85,3.3529411764705888,11.71764705882353,6.0,43.0,"Wed, Apr 19, 2017","Wed, Apr 26, 2017"
3848,Tyler Pounds Regional,Tyler,United States,TYR,KTYR,32.354139,-95.402386,544,-6,A,"Tyler, TX",29,28,30,30,4.862068965517241,13.357142857142858,10.0,38.0,"Tue, Apr 11, 2017","Sun, Apr 30, 2017"
3676,McGhee Tyson,Knoxville,United States,TYS,KTYS,35.810972,-83.994028,981,-5,A,"Knoxville, TN",530,531,548,548,3.9622641509433945,15.770244821092282,18.0,71.0,"Wed, Apr 26, 2017","Wed, Apr  5, 2017"
6989,St. Augustine Airport,St. Augustine Airport,United States,UST,KSGJ,29.959167,-81.339722,10,-5,A,"St. Augustine, FL",6,5,6,6,6.166666666666667,14.2,8.0,29.0,"Sat, Apr 22, 2017","Fri, Apr 21, 2017"
5776,Valdosta Regional Airport,Valdosta,United States,VLD,KVLD,30.7825,-83.2767,203,-5,A,"Valdosta, GA",81,81,84,84,4.62962962962963,15.777777777777779,8.0,50.0,"Fri, Apr 21, 2017","Mon, Apr  3, 2017"
3873,Eglin AFB,Valparaiso,United States,VPS,KVPS,30.48325,-86.5254,87,-6,A,"Valparaiso, FL",249,249,261,261,7.654618473895583,15.97590361445784,61.0,68.0,"Wed, Apr  5, 2017","Thu, Apr 27, 2017"
5969,Wrangell Airport,Wrangell,United States,WRG,PAWG,56.4843,-132.37,44,-9,A,"Wrangell, AK",60,60,60,60,3.716666666666667,6.166666666666667,6.0,16.0,"Sun, Apr  9, 2017","Tue, Apr  4, 2017"
4356,NW Arkansas Regional,Bentonville,United States,XNA,KXNA,36.2818694,-94.3068111,1287,-6,A,"Fayetteville, AR",451,452,464,465,5.720620842572062,15.4070796460177,63.0,94.0,"Wed, Apr  5, 2017","Wed, Apr 26, 2017"
6803,Yakutat,Yakutat,United States,YAK,PAYA,59.3012,-139.3937,33,-9,A,"Yakutat, AK",60,60,60,60,3.883333333333334,8.316666666666666,6.0,30.0,"Sun, Apr  2, 2017","Mon, Apr 10, 2017"
3596,Yuma MCAS Yuma International,Yuma,United States,YUM,KYUM,32.656578,-114.60598,216,-7,N,"Yuma, AZ",120,120,120,120,3.6416666666666666,14.791666666666666,11.0,37.0,"Wed, Apr 26, 2017","Tue, Apr 25, 2017"
