airport_id,name,city,country,iata_faa,iaco,latitude,longitude,altitude,zone,dst,city_state,avg_able_landings,avg_able_takeoffs,total_landings,total_takeoffs,avg_taxi_in,avg_taxi_out,longest_taxi_in,longest_taxi_out,lng_tx_in_date,lng_tx_out_date
4355,Lehigh Valley International,Allentown,United States,ABE,KABE,40.652083,-75.440806,393,-5,A,"Allentown/Bethlehem/Easton, PA",283,281,289,291,5.010600706713782,16.544483985765126,29.0,73.0,"Tue, Feb 27, 2018","Sat, Feb 17, 2018"
3718,Abilene Regional,Abilene,United States,ABI,KABI,32.411319,-99.681897,1791,-6,A,"Abilene, TX",132,133,142,143,4.143939393939395,11.819548872180452,47.0,28.0,"Tue, Feb 20, 2018","Fri, Feb 16, 2018"
4019,Albuquerque International Sunport,Albuquerque,United States,ABQ,KABQ,35.0402222,-106.6091944,5355,-7,A,"Albuquerque, NM",1565,1567,1581,1582,4.95591054313099,12.869176770899811,26.0,81.0,"Wed, Feb 28, 2018","Tue, Feb 20, 2018"
5714,Aberdeen Regional Airport,Aberdeen,United States,ABR,KABR,45.4491,-98.4218,1302,-6,A,"Aberdeen, SD",55,55,56,56,4.927272727272725,22.436363636363637,17.0,90.0,"Mon, Feb 19, 2018","Sat, Feb  3, 2018"
5715,Southwest Georgia Regional Airport,Albany,United States,ABY,KABY,31.5355,-84.1945,197,-5,A,"Albany, GA",76,76,77,77,3.8026315789473686,17.289473684210527,7.0,44.0,"Fri, Feb 23, 2018","Fri, Feb 23, 2018"
3700,Waco Regional,Waco,United States,ACT,KACT,31.611289,-97.230519,516,-6,A,"Waco, TX",102,101,104,104,3.6862745098039214,11.84158415841584,11.0,31.0,"Fri, Feb  2, 2018","Sat, Feb 24, 2018"
4384,Arcata,Arcata CA,United States,ACV,KACV,40.978111,-124.108611,221,-8,A,"Arcata/Eureka, CA",83,83,84,84,5.46987951807229,15.457831325301205,8.0,79.0,"Fri, Feb  2, 2018","Wed, Feb 28, 2018"
3524,Atlantic City International,Atlantic City,United States,ACY,KACY,39.457583,-74.577167,75,-5,A,"Atlantic City, NJ",279,279,280,280,5.035842293906809,11.645161290322578,13.0,61.0,"Sat, Feb  3, 2018","Sat, Feb 17, 2018"
5959,Adak Airport,Adak Island,United States,ADK,PADK,51.878,-176.646,18,-10,A,"Adak Island, AK",7,7,8,8,5.285714285714286,13.428571428571429,9.0,22.0,"Wed, Feb  7, 2018","Sat, Feb 24, 2018"
3531,Kodiak,Kodiak,United States,ADQ,PADQ,57.749967,-152.493856,78,-9,A,"Kodiak, AK",44,44,48,48,3.590909090909091,8.045454545454545,6.0,34.0,"Mon, Feb  5, 2018","Tue, Feb 13, 2018"
3852,Alexandria International,Alexandria,United States,AEX,KAEX,31.3274,-92.549833,89,-6,A,"Alexandria, LA",248,249,253,253,3.620967741935484,16.337349397590362,40.0,78.0,"Sun, Feb 25, 2018","Sun, Feb 25, 2018"
3658,Augusta Regional At Bush Field,Bush Field,United States,AGS,KAGS,33.369944,-81.9645,144,-5,A,"Augusta, GA",300,298,300,299,6.110000000000001,19.040268456375834,28.0,108.0,"Tue, Feb 13, 2018","Tue, Feb 20, 2018"
3864,Albany International,Albany,United States,ALB,KALB,42.748267,-73.801692,285,-5,A,"Albany, NY",949,942,976,974,4.091675447839835,15.621019108280272,58.0,86.0,"Thu, Feb 22, 2018","Mon, Feb  5, 2018"
5718,Waterloo Regional Airport,Waterloo,United States,ALO,KALO,42.5571,-92.4003,873,-6,A,"Waterloo, IA",47,47,52,52,4.255319148936169,18.53191489361702,8.0,75.0,"Sat, Feb 10, 2018","Sun, Feb 11, 2018"
3840,Rick Husband Amarillo International,Amarillo,United States,AMA,KAMA,35.219369,-101.705931,3607,-6,A,"Amarillo, TX",359,359,367,367,4.089136490250694,12.420612813370473,8.0,46.0,"Wed, Feb 14, 2018","Sat, Feb 10, 2018"
3774,Ted Stevens Anchorage International,Anchorage,United States,ANC,PANC,61.174361,-149.996361,152,-9,A,"Anchorage, AK",1045,1048,1070,1070,4.689952153110048,18.291030534351126,31.0,87.0,"Mon, Feb  5, 2018","Mon, Feb 26, 2018"
5720,Alpena County Regional Airport,Alpena,United States,APN,KAPN,45.0781,-83.5603,689,-5,A,"Alpena, MI",45,45,48,48,5.8,17.377777777777776,25.0,56.0,"Sat, Feb  3, 2018","Thu, Feb  1, 2018"
7001,Aspen/Pitkin County-Sardy Field,Aspen,United States,ASE,KASE,39.2232,-106.869,7820,-7,A,"Aspen, CO",791,793,908,906,4.610619469026543,19.59016393442625,48.0,129.0,"Thu, Feb 22, 2018","Thu, Feb 15, 2018"
3682,Hartsfield Jackson Atlanta International,Atlanta,United States,ATL,KATL,33.636719,-84.428067,1026,-5,A,"Atlanta, GA",27990,28006,28126,28125,8.58002858163622,15.959901449689319,89.0,119.0,"Fri, Feb 23, 2018","Mon, Feb 26, 2018"
4047,Appleton,Appleton,United States,ATW,KATW,44.257526,-88.507576,680,-6,A,"Appleton, WI",285,284,296,296,5.3894736842105235,19.580985915492963,44.0,115.0,"Fri, Feb 16, 2018","Sun, Feb 11, 2018"
3673,Austin Bergstrom International,Austin,United States,AUS,KAUS,30.194528,-97.669889,542,-6,A,"Austin, TX",4241,4237,4281,4278,6.072624381042212,14.295492093462343,69.0,91.0,"Sun, Feb 11, 2018","Tue, Feb 27, 2018"
4007,Asheville Regional Airport,Asheville,United States,AVL,KAVL,35.436194,-82.541806,2165,-5,A,"Asheville, NC",428,425,437,438,4.626168224299058,18.39058823529411,23.0,113.0,"Sun, Feb  4, 2018","Sun, Feb  4, 2018"
4286,Wilkes Barre Scranton International,Scranton,United States,AVP,KAVP,41.338478,-75.723403,962,-5,A,"Scranton/Wilkes-Barre, PA",222,220,236,237,4.090090090090089,18.622727272727264,16.0,71.0,"Thu, Feb 15, 2018","Wed, Feb 14, 2018"
6505,Phoenix-Mesa Gateway,Mesa,United States,AZA,KIWA,33.307833,-111.655,1382,-7,N,"Phoenix, AZ",450,451,455,454,5.597777777777781,12.895787139689581,15.0,44.0,"Sun, Feb 11, 2018","Wed, Feb  7, 2018"
4039,Kalamazoo,Kalamazoo,United States,AZO,KAZO,42.234875,-85.552058,874,-5,A,"Kalamazoo, MI",176,177,193,194,4.426136363636362,23.7909604519774,12.0,102.0,"Thu, Feb 22, 2018","Sun, Feb 11, 2018"
3825,Bradley International,Windsor Locks,United States,BDL,KBDL,41.938889,-72.683222,173,-5,A,"Hartford, CT",2057,2056,2113,2111,5.194457948468644,14.57441634241245,61.0,95.0,"Tue, Feb 27, 2018","Mon, Feb 19, 2018"
3599,Bethel,Bethel,United States,BET,PABE,60.779778,-161.838,121,-9,A,"Bethel, AK",64,64,68,68,3.765625,9.375000000000002,6.0,23.0,"Mon, Feb 12, 2018","Sun, Feb 25, 2018"
5723,Western Nebraska Regional Airport,Scottsbluff,United States,BFF,KBFF,41.874,-103.596,3967,-7,A,"Scottsbluff, NE",46,46,48,48,4.869565217391305,17.63043478260869,24.0,63.0,"Mon, Feb  5, 2018","Fri, Feb  9, 2018"
3558,Meadows Field,Bakersfield,United States,BFL,KBFL,35.433598,-119.05677,507,-8,A,"Bakersfield, CA",157,157,159,159,4.630573248407643,18.63057324840764,13.0,80.0,"Sun, Feb 18, 2018","Thu, Feb  8, 2018"
4129,Greater Binghamton-Edwin A. Link Field,Binghamton,United States,BGM,KBGM,42.208689,-75.979839,1636,-5,A,"Binghamton, NY",49,49,52,52,4.183673469387752,20.77551020408163,7.0,54.0,"Thu, Feb  1, 2018","Thu, Feb  8, 2018"
3463,Bangor International,Bangor,United States,BGR,KBGR,44.807444,-68.828139,192,-5,A,"Bangor, ME",249,250,258,258,5.148594377510042,24.195999999999998,23.0,129.0,"Wed, Feb  7, 2018","Fri, Feb  2, 2018"
3811,Birmingham International,Birmingham,United States,BHM,KBHM,33.562942,-86.75355,644,-6,A,"Birmingham, AL",1221,1215,1233,1234,3.599508599508601,15.04444444444444,40.0,122.0,"Wed, Feb 28, 2018","Tue, Feb 20, 2018"
4021,Billings Logan International Airport,Billings,United States,BIL,KBIL,45.80921,-108.537654,3652,-7,A,"Billings, MT",314,314,316,316,4.426751592356687,19.302547770700638,50.0,101.0,"Sun, Feb  4, 2018","Thu, Feb  8, 2018"
4083,Bismarck Municipal Airport,Bismarck,United States,BIS,KBIS,46.775842,-100.757931,1661,-6,A,"Bismarck/Mandan, ND",240,239,244,244,4.716666666666667,19.05439330543933,37.0,74.0,"Sat, Feb 24, 2018","Thu, Feb 15, 2018"
4287,Bemidji Regional Airport,Bemidji,United States,BJI,KBJI,47.510722,-94.934722,1391,-6,A,"Bemidji, MN",55,56,56,56,5.309090909090908,20.767857142857142,9.0,67.0,"Sun, Feb 25, 2018","Fri, Feb 23, 2018"
3777,Bellingham International,Bellingham,United States,BLI,KBLI,48.792694,-122.537528,170,-8,A,"Bellingham, WA",212,212,214,214,5.6745283018867925,16.216981132075475,35.0,58.0,"Thu, Feb 22, 2018","Sun, Feb 18, 2018"
3790,Scott AFB Midamerica,Belleville,United States,BLV,KBLV,38.545178,-89.835183,459,-6,A,"Belleville, IL",73,73,73,73,6.000000000000001,12.095890410958905,23.0,43.0,"Sun, Feb 11, 2018","Sun, Feb  4, 2018"
4037,Central Illinois Regional,Bloomington,United States,BMI,KBMI,40.477111,-88.915917,871,-6,A,"Bloomington/Normal, IL",212,212,224,224,4.400943396226416,19.089622641509436,30.0,78.0,"Sat, Feb 17, 2018","Sun, Feb 11, 2018"
3690,Nashville International,Nashville,United States,BNA,KBNA,36.124472,-86.678194,599,-6,A,"Nashville, TN",5037,5035,5127,5123,6.121500893388922,13.702879841112203,48.0,129.0,"Thu, Feb 15, 2018","Sun, Feb 11, 2018"
3495,Boise Air Terminal,Boise,United States,BOI,KBOI,43.564361,-116.222861,2871,-7,A,"Boise, ID",1389,1388,1394,1394,4.055435565154788,16.806195965417842,53.0,160.0,"Thu, Feb 22, 2018","Wed, Feb 14, 2018"
3448,General Edward Lawrence Logan International,Boston,United States,BOS,KBOS,42.364347,-71.005181,19,-5,A,"Boston, MA",10124,10128,10314,10317,7.208810746740399,20.003357030015906,89.0,167.0,"Wed, Feb  7, 2018","Sun, Feb 18, 2018"
3612,Southeast Texas Regional,Beaumont,United States,BPT,KBPT,29.950833,-94.020694,15,-6,A,"Beaumont/Port Arthur, TX",48,49,56,56,3.8125000000000004,13.63265306122449,7.0,30.0,"Tue, Feb 13, 2018","Mon, Feb  5, 2018"
5725,Brunswick Golden Isles Airport,Brunswick,United States,BQK,KBQK,31.2588,-81.4665,26,-5,A,"Brunswick, GA",77,77,77,77,3.8701298701298703,16.92207792207792,7.0,52.0,"Wed, Feb 21, 2018","Fri, Feb 16, 2018"
6957,Brainerd Lakes Regional,Brainerd,United States,BRD,KBRD,46.398308,-94.138078,1226,-6,U,"Brainerd, MN",46,46,48,48,4.565217391304347,21.30434782608696,10.0,79.0,"Thu, Feb  1, 2018","Mon, Feb 19, 2018"
3738,Brownsville South Padre Island International,Brownsville,United States,BRO,KBRO,25.906833,-97.425861,22,-6,A,"Brownsville, TX",181,182,188,187,4.569060773480663,13.62637362637363,10.0,44.0,"Sat, Feb 24, 2018","Fri, Feb 16, 2018"
3571,Wiley Post Will Rogers Memorial,Barrow,United States,BRW,PABR,71.285446,-156.766003,44,-9,A,"Barrow, AK",51,52,56,56,4.176470588235296,9.19230769230769,8.0,30.0,"Sat, Feb 24, 2018","Fri, Feb 23, 2018"
4022,Bert Mooney Airport,Butte,United States,BTM,KBTM,45.954806,-112.497472,5550,-7,A,"Butte, MT",51,51,52,52,4.019607843137256,19.901960784313722,7.0,98.0,"Sun, Feb 18, 2018","Sun, Feb  4, 2018"
3846,Baton Rouge Metro-Ryan Field,Baton Rouge,United States,BTR,KBTR,30.533167,-91.149639,70,-6,A,"Baton Rouge, LA",565,565,569,568,4.389380530973448,14.91504424778761,44.0,70.0,"Fri, Feb  9, 2018","Tue, Feb 20, 2018"
3711,Burlington International,Burlington,United States,BTV,KBTV,44.471861,-73.153278,335,-5,A,"Burlington, VT",620,613,635,635,4.5532258064516125,19.412724306688403,27.0,81.0,"Thu, Feb 15, 2018","Fri, Feb 23, 2018"
3820,Buffalo Niagara International,Buffalo,United States,BUF,KBUF,42.940525,-78.732167,724,-5,A,"Buffalo, NY",1757,1761,1807,1807,4.776892430278893,17.722884724588276,70.0,122.0,"Mon, Feb 19, 2018","Wed, Feb  7, 2018"
3644,Bob Hope,Burbank,United States,BUR,KBUR,34.200667,-118.358667,778,-8,A,"Burbank, CA",1965,1959,1995,1995,2.6631043256997446,13.717202654415518,25.0,91.0,"Wed, Feb 28, 2018","Tue, Feb 20, 2018"
3849,Baltimore Washington International,Baltimore,United States,BWI,KBWI,39.175361,-76.668333,146,-5,A,"Baltimore, MD",7333,7349,7445,7447,5.396290740488202,14.667165600762006,61.0,173.0,"Sat, Feb 17, 2018","Sat, Feb 17, 2018"
4020,Gallatin Field,Bozeman,United States,BZN,KBZN,45.777643,-111.160151,4500,-7,A,"Bozeman, MT",460,461,463,463,6.045652173913045,19.479392624728835,47.0,85.0,"Mon, Feb 26, 2018","Fri, Feb  9, 2018"
3561,Columbia Metropolitan,Colombia,United States,CAE,KCAE,33.938833,-81.119528,236,-5,A,"Columbia, SC",385,384,387,387,4.444155844155845,16.21875,14.0,119.0,"Wed, Feb 21, 2018","Wed, Feb  7, 2018"
4112,Akron Canton Regional Airport,Akron,United States,CAK,KCAK,40.9160833,-81.4421944,1228,-5,A,"Akron, OH",556,552,574,575,5.953237410071943,19.663043478260853,61.0,129.0,"Fri, Feb  9, 2018","Wed, Feb  7, 2018"
3824,Cedar City Regional,Cedar City,United States,CDC,KCDC,37.700967,-113.098847,5622,-7,A,"Cedar City, UT",48,48,48,48,3.375,18.27083333333334,6.0,45.0,"Mon, Feb  5, 2018","Fri, Feb 16, 2018"
3610,Merle K. Mudhole Smith,Cordova,United States,CDV,PACV,60.491778,-145.477556,48,-9,A,"Cordova, AK",54,55,56,56,3.759259259259259,9.454545454545455,8.0,34.0,"Mon, Feb  5, 2018","Thu, Feb 22, 2018"
5728,Cape Girardeau Regional Airport,Cape Girardeau,United States,CGI,KCGI,37.2253,-89.5708,342,-6,A,"Cape Girardeau, MO",40,43,48,48,4.675000000000001,20.488372093023262,9.0,53.0,"Thu, Feb  8, 2018","Tue, Feb 13, 2018"
3578,Lovell Field,Chattanooga,United States,CHA,KCHA,35.035278,-85.203808,683,-5,A,"Chattanooga, TN",579,580,591,591,5.4438687392055245,16.572413793103436,40.0,93.0,"Sat, Feb  3, 2018","Sun, Feb  4, 2018"
4015,Charlottesville-Albemarle,Charlottesville VA,United States,CHO,KCHO,38.138639,-78.452861,639,-5,A,"Charlottesville, VA",407,405,422,422,3.8378378378378395,16.486419753086437,29.0,89.0,"Mon, Feb 19, 2018","Fri, Feb  2, 2018"
3806,Charleston AFB International,Charleston,United States,CHS,KCHS,32.898647,-80.040528,45,-5,A,"Charleston, SC",1533,1530,1547,1546,5.3261578604044395,14.589542483660129,31.0,77.0,"Sun, Feb 25, 2018","Tue, Feb 13, 2018"
4043,Cedar Rapids,Cedar Rapids,United States,CID,KCID,41.884694,-91.710806,869,-6,A,"Cedar Rapids/Iowa City, IA",648,648,681,681,6.947530864197528,19.24074074074077,59.0,132.0,"Tue, Feb 20, 2018","Sat, Feb 17, 2018"
5729,Chippewa County International Airport,Sault Ste. Marie,United States,CIU,KCIU,46.2508,-84.4724,800,-5,A,"Sault Ste. Marie, MI",50,50,52,52,4.8199999999999985,24.6,9.0,64.0,"Thu, Feb  1, 2018","Sun, Feb 11, 2018"
5730,Harrison Marion Regional Airport,Clarksburg,United States,CKB,KCKB,39.2966,-80.2281,1217,-5,A,"Clarksburg/Fairmont, WV",56,55,61,61,4.446428571428571,18.436363636363634,22.0,44.0,"Sat, Feb 17, 2018","Sun, Feb  4, 2018"
3486,Cleveland Hopkins International,Cleveland,United States,CLE,KCLE,41.411689,-81.849794,791,-5,A,"Cleveland, OH",3517,3518,3585,3587,7.533693488768837,17.296191017623645,55.0,86.0,"Fri, Feb  2, 2018","Wed, Feb  7, 2018"
3715,Easterwood Field,College Station,United States,CLL,KCLL,30.588583,-96.363833,321,-6,A,"College Station/Bryan, TX",163,162,170,170,4.05521472392638,10.851851851851848,8.0,37.0,"Mon, Feb 26, 2018","Wed, Feb 28, 2018"
3876,Charlotte Douglas International,Charlotte,United States,CLT,KCLT,35.214,-80.943139,748,-5,A,"Charlotte, NC",16732,16797,17001,17005,11.820045421945949,20.49062332559379,102.0,126.0,"Sun, Feb  4, 2018","Sun, Feb  4, 2018"
3759,Port Columbus International,Columbus,United States,CMH,KCMH,39.997972,-82.891889,815,-5,A,"Columbus, OH",3180,3169,3258,3255,6.065094339622652,15.685705269801222,52.0,132.0,"Sun, Feb 11, 2018","Wed, Feb  7, 2018"
4049,Champaign,Champaign,United States,CMI,KCMI,40.03925,-88.278056,754,-6,A,"Champaign/Urbana, IL",154,157,170,170,4.298701298701299,17.03184713375796,14.0,118.0,"Sun, Feb  4, 2018","Sun, Feb 11, 2018"
5732,Houghton County Memorial Airport,Hancock,United States,CMX,KCMX,47.1684,-88.4891,1095,-5,A,"Hancock/Houghton, MI",48,48,56,56,4.375,21.187500000000004,8.0,44.0,"Sun, Feb 18, 2018","Mon, Feb 12, 2018"
4344,Yellowstone Regional,Cody,United States,COD,KCOD,44.520194,-109.023806,5102,-7,A,"Cody, WY",55,56,55,56,3.4727272727272727,18.232142857142858,6.0,55.0,"Sun, Feb 18, 2018","Sat, Feb  3, 2018"
3819,City Of Colorado Springs Municipal,Colorado Springs,United States,COS,KCOS,38.805805,-104.700778,6187,-7,A,"Colorado Springs, CO",752,754,767,769,7.261968085106385,22.233421750663112,22.0,108.0,"Thu, Feb 15, 2018","Tue, Feb 20, 2018"
3719,Columbia Regional,Columbia,United States,COU,KCOU,38.818094,-92.219631,889,-6,A,"Columbia, MO",156,158,178,178,3.730769230769231,19.696202531645568,8.0,73.0,"Sat, Feb 10, 2018","Tue, Feb  6, 2018"
3872,Natrona County International,Casper,United States,CPR,KCPR,42.908,-106.464417,5347,-7,A,"Casper, WY",69,70,69,70,4.159420289855074,16.514285714285716,16.0,46.0,"Mon, Feb 19, 2018","Tue, Feb  6, 2018"
3744,Corpus Christi International,Corpus Christi,United States,CRP,KCRP,27.770361,-97.501222,44,-6,A,"Corpus Christi, TX",381,380,395,396,4.690288713910762,13.528947368421052,102.0,77.0,"Tue, Feb 20, 2018","Sat, Feb 24, 2018"
4285,Yeager,Charleston,United States,CRW,KCRW,38.373147,-81.593189,981,-5,A,"Charleston/Dunbar, WV",336,336,344,345,3.258928571428573,16.37500000000001,39.0,68.0,"Fri, Feb 23, 2018","Mon, Feb 12, 2018"
4255,Columbus Metropolitan Airport,Columbus,United States,CSG,KCSG,32.5163333,-84.9388611,397,-5,A,"Columbus, GA",84,84,87,87,3.4166666666666665,16.238095238095244,44.0,45.0,"Mon, Feb 19, 2018","Sat, Feb 10, 2018"
3488,Cincinnati Northern Kentucky International,Cincinnati,United States,CVG,KCVG,39.048836,-84.667822,896,-5,A,"Cincinnati, OH",3374,3368,3449,3451,5.67131001778304,16.531472684085486,60.0,168.0,"Sun, Feb 11, 2018","Wed, Feb  7, 2018"
4045,Central Wisconsin,Wassau,United States,CWA,KCWA,44.772726,-89.646635,840,-6,A,"Mosinee, WI",192,193,203,203,3.8385416666666665,18.212435233160615,11.0,93.0,"Fri, Feb  2, 2018","Sat, Feb 24, 2018"
3950,Daytona Beach International,Daytona Beach,United States,DAB,KDAB,29.179917,-81.058056,34,-5,A,"Daytona Beach, FL",270,269,271,270,3.3666666666666667,14.368029739776953,18.0,40.0,"Thu, Feb 22, 2018","Fri, Feb 23, 2018"
3502,Dallas Love Field,Dallas,United States,DAL,KDAL,32.847111,-96.851778,487,-6,A,"Dallas, TX",5263,5270,5394,5394,5.441763252897591,13.035104364326347,60.0,111.0,"Thu, Feb 22, 2018","Tue, Feb 20, 2018"
3627,James M. Cox Dayton International,Dayton,United States,DAY,KDAY,39.902375,-84.219375,1009,-5,A,"Dayton, OH",988,986,1020,1019,5.180161943319829,16.70385395537525,24.0,113.0,"Sun, Feb 25, 2018","Sun, Feb  4, 2018"
4388,Dubuque Regional,Dubuque IA,United States,DBQ,KDBQ,42.402,-90.709472,1076,-6,A,"Dubuque, IA",68,68,80,80,4.632352941176471,16.64705882352941,9.0,47.0,"Thu, Feb  8, 2018","Sun, Feb 11, 2018"
3520,Ronald Reagan Washington National,Washington,United States,DCA,KDCA,38.852083,-77.037722,15,-5,A,"Washington, DC",9864,9867,10077,10075,6.7281021897810245,19.34123847167325,119.0,136.0,"Sat, Feb 17, 2018","Fri, Feb 23, 2018"
3751,Denver International,Denver,United States,DEN,KDEN,39.861656,-104.673178,5431,-7,A,"Denver, CO",16106,16128,16248,16243,8.39475971687572,19.664930555555685,69.0,122.0,"Sat, Feb 10, 2018","Sat, Feb 10, 2018"
3670,Dallas Fort Worth International,Dallas-fort Worth,United States,DFW,KDFW,32.896828,-97.037997,607,-6,A,"Dallas/Fort Worth, TX",19896,19951,20465,20470,11.5930337756333,20.188812590847615,84.0,151.0,"Sat, Feb 24, 2018","Tue, Feb 20, 2018"
3739,Dothan Regional,Dothan,United States,DHN,KDHN,31.321339,-85.449628,401,-6,A,"Dothan, AL",105,105,105,105,3.961904761904762,22.590476190476192,8.0,88.0,"Thu, Feb  8, 2018","Sat, Feb 17, 2018"
3598,Duluth International,Duluth,United States,DLH,KDLH,46.842091,-92.193649,1428,-6,A,"Duluth, MN",176,177,186,186,5.840909090909096,20.073446327683623,16.0,65.0,"Sat, Feb  3, 2018","Sun, Feb 18, 2018"
3713,Durango La Plata County,Durango,United States,DRO,KDRO,37.151516,-107.75377,6685,-7,A,"Durango, CO",218,218,227,227,4.747706422018351,18.57339449541285,34.0,91.0,"Tue, Feb 20, 2018","Mon, Feb 12, 2018"
3729,Des Moines International,Des Moines,United States,DSM,KDSM,41.533972,-93.663083,958,-6,A,"Des Moines, IA",1125,1120,1152,1153,6.299555555555558,19.66071428571428,121.0,162.0,"Tue, Feb 20, 2018","Mon, Feb  5, 2018"
3645,Detroit Metro Wayne County,Detroit,United States,DTW,KDTW,42.212444,-83.353389,645,-5,A,"Detroit, MI",10966,10986,11347,11354,9.113623928506314,22.61014017840888,94.0,149.0,"Sun, Feb 11, 2018","Fri, Feb  9, 2018"
7063,Devils Lake Regional Airport,Devils Lake,United States,DVL,KDVL,48.114444,-98.908611,1445,-6,A,"Devils Lake, ND",48,48,48,48,5.541666666666669,23.208333333333332,10.0,89.0,"Thu, Feb 22, 2018","Wed, Feb 21, 2018"
5735,Chippewa Valley Regional Airport,Eau Claire,United States,EAU,KEAU,44.8658,-91.4843,913,-6,A,"Eau Claire, WI",48,47,54,54,4.145833333333333,23.297872340425528,15.0,84.0,"Sun, Feb 25, 2018","Thu, Feb  1, 2018"
7669,Northwest Florida Beaches International,Panama City,United States,ECP,KECP,30.3417,-85.7973,69,-6,A,"Panama City, FL",267,267,268,268,3.0786516853932593,12.146067415730338,8.0,61.0,"Tue, Feb 20, 2018","Wed, Feb  7, 2018"
4250,Eagle County Regional,Vail,United States,EGE,KEGE,39.642556,-106.917694,6540,-7,A,"Eagle, CO",374,372,388,388,8.582887700534764,20.12634408602151,114.0,148.0,"Sat, Feb 10, 2018","Mon, Feb 12, 2018"
5736,Elko Regional Airport,Elko,United States,EKO,KEKO,40.8249,-115.792,5140,-8,A,"Elko, NV",49,49,50,50,4.26530612244898,15.244897959183673,8.0,31.0,"Tue, Feb 27, 2018","Thu, Feb 15, 2018"
3946,Elmira Corning Regional,Elmira,United States,ELM,KELM,42.159889,-76.891611,954,-5,A,"Elmira/Corning, NY",28,28,28,28,6.714285714285714,15.464285714285708,8.0,59.0,"Fri, Feb  2, 2018","Fri, Feb  9, 2018"
3559,El Paso International,El Paso,United States,ELP,KELP,31.80725,-106.377583,3958,-7,A,"El Paso, TX",1146,1145,1158,1158,3.5837696335078526,14.541484716157198,21.0,91.0,"Tue, Feb 20, 2018","Thu, Feb  1, 2018"
4276,Erie International-Tom Ridge Field,Erie,United States,ERI,KERI,42.082022,-80.176217,733,-5,A,"Erie, PA",76,76,79,79,3.6315789473684212,21.210526315789473,10.0,57.0,"Sat, Feb 10, 2018","Fri, Feb 23, 2018"
6800,Delta County Airport,Escanaba,United States,ESC,KESC,45.722778,-87.093611,609,-5,A,"Escanaba, MI",46,46,48,48,4.413043478260869,15.23913043478261,6.0,45.0,"Tue, Feb  6, 2018","Sat, Feb  3, 2018"
4099,Mahlon Sweet Field,Eugene,United States,EUG,KEUG,44.124583,-123.211972,374,-8,A,"Eugene, OR",291,291,292,292,4.116838487972508,17.446735395189005,12.0,97.0,"Sun, Feb  4, 2018","Thu, Feb 22, 2018"
4018,Evansville Regional,Evansville,United States,EVV,KEVV,38.036997,-87.532364,418,-6,A,"Evansville, IN",314,316,332,332,4.573248407643312,19.075949367088597,21.0,92.0,"Thu, Feb 15, 2018","Wed, Feb  7, 2018"
3730,Craven County Regional,New Bern,United States,EWN,KEWN,35.072972,-77.042944,18,-5,A,"New Bern/Morehead/Beaufort, NC",132,132,133,133,3.4166666666666665,16.41666666666668,6.0,57.0,"Tue, Feb  6, 2018","Tue, Feb 13, 2018"
3494,Newark Liberty International,Newark,United States,EWR,KEWR,40.6925,-74.168667,18,-5,A,"Newark, NJ",10404,10407,10613,10606,9.19838523644751,22.514269241856447,144.0,167.0,"Sat, Feb 17, 2018","Sat, Feb 17, 2018"
3875,Key West International,Key West,United States,EYW,KEYW,24.556111,-81.759556,3,-5,A,"Key West, FL",436,437,438,438,4.536697247706427,11.672768878718532,38.0,55.0,"Fri, Feb 23, 2018","Thu, Feb 22, 2018"
3832,Fairbanks International,Fairbanks,United States,FAI,PAFA,64.815114,-147.856267,434,-9,A,"Fairbanks, AK",244,247,248,248,3.901639344262295,17.465587044534395,33.0,62.0,"Thu, Feb 15, 2018","Tue, Feb 27, 2018"
4292,Hector International Airport,Fargo,United States,FAR,KFAR,46.92065,-96.8157639,902,-6,A,"Fargo, ND",418,416,432,432,5.76555023923445,21.057692307692307,36.0,107.0,"Wed, Feb 21, 2018","Sat, Feb  3, 2018"
3687,Fresno Yosemite International,Fresno,United States,FAT,KFAT,36.776194,-119.71814,336,-8,A,"Fresno, CA",696,694,699,699,5.248563218390804,16.804034582132545,25.0,71.0,"Mon, Feb 26, 2018","Mon, Feb  5, 2018"
5738,Fayetteville Regional-Grannis Field,Fayetteville,United States,FAY,KFAY,34.9912,-78.8803,189,-5,A,"Fayetteville, NC",265,265,266,266,4.1320754716981165,16.052830188679252,14.0,49.0,"Mon, Feb  5, 2018","Fri, Feb 23, 2018"
4127,Glacier Park International,Kalispell,United States,FCA,KFCA,48.310472,-114.256,2977,-7,A,"Kalispell, MT",115,115,116,116,4.57391304347826,22.8695652173913,20.0,99.0,"Sun, Feb  4, 2018","Fri, Feb  2, 2018"
4261,Flagstaff Pulliam Airport,Flagstaff,United States,FLG,KFLG,35.140318,-111.6692392,7015,-7,N,"Flagstaff, AZ",70,69,82,82,3.9285714285714284,24.73913043478261,12.0,76.0,"Mon, Feb 26, 2018","Tue, Feb 27, 2018"
3533,Fort Lauderdale Hollywood International,Fort Lauderdale,United States,FLL,KFLL,26.072583,-80.15275,9,-5,A,"Fort Lauderdale, FL",7844,7858,7899,7899,6.325089240183597,16.742809875286326,78.0,118.0,"Mon, Feb 26, 2018","Mon, Feb 12, 2018"
3879,Florence Regional,Florence,United States,FLO,KFLO,34.185361,-79.723889,146,-5,A,"Florence, SC",14,14,14,14,5.785714285714286,20.0,13.0,40.0,"Thu, Feb 15, 2018","Tue, Feb 20, 2018"
4089,Bishop International,Flint,United States,FNT,KFNT,42.965424,-83.743629,782,-5,A,"Flint, MI",312,318,329,329,4.82051282051282,16.9937106918239,34.0,100.0,"Thu, Feb  8, 2018","Sun, Feb 11, 2018"
4009,Sioux Falls,Sioux Falls,United States,FSD,KFSD,43.582014,-96.741914,1429,-6,A,"Sioux Falls, SD",458,459,467,468,6.368995633187773,24.01525054466232,42.0,133.0,"Sun, Feb  4, 2018","Thu, Feb 22, 2018"
3437,Fort Smith Regional,Fort Smith,United States,FSM,KFSM,35.336583,-94.367444,469,-6,A,"Fort Smith, AR",149,150,154,154,3.5033557046979866,14.793333333333333,13.0,58.0,"Fri, Feb  9, 2018","Sat, Feb 24, 2018"
4041,Fort Wayne,Fort Wayne,United States,FWA,KFWA,40.978472,-85.195139,815,-5,A,"Fort Wayne, IN",533,531,544,545,6.223264540337711,20.964218455743875,29.0,130.0,"Sat, Feb 10, 2018","Tue, Feb  6, 2018"
4296,Gillette-Campbell County Airport,Gillette,United States,GCC,KGCC,44.3489167,-105.5393611,4365,-7,A,"Gillette, WY",71,70,72,72,6.84507042253521,22.02857142857143,89.0,59.0,"Mon, Feb 19, 2018","Sat, Feb 10, 2018"
3497,Garden City Regional,Garden City,United States,GCK,KGCK,37.927528,-100.724417,2891,-6,A,"Garden City, KS",55,55,56,56,4.1090909090909085,13.890909090909094,11.0,61.0,"Fri, Feb 23, 2018","Tue, Feb 20, 2018"
3467,Spokane International,Spokane,United States,GEG,KGEG,47.619861,-117.533833,2376,-8,A,"Spokane, WA",867,867,868,868,3.881199538638985,16.62629757785467,14.0,117.0,"Fri, Feb  2, 2018","Wed, Feb 14, 2018"
3442,Grand Forks International,Grand Forks,United States,GFK,KGFK,47.949256,-97.176111,845,-6,A,"Grand Forks, ND",152,152,154,154,4.875000000000001,21.0921052631579,29.0,92.0,"Sat, Feb  3, 2018","Sat, Feb  3, 2018"
3465,East Texas Regional,Longview,United States,GGG,KGGG,32.384014,-94.711486,365,-6,A,"Longview, TX",45,44,52,51,5.044444444444444,11.909090909090908,12.0,28.0,"Thu, Feb 22, 2018","Wed, Feb  7, 2018"
4063,Grand Junction Regional,Grand Junction,United States,GJT,KGJT,39.122413,-108.526735,4858,-7,A,"Grand Junction, CO",267,265,267,266,3.7490636704119846,18.132075471698133,19.0,80.0,"Tue, Feb  6, 2018","Tue, Feb 13, 2018"
3472,Gainesville Regional,Gainesville,United States,GNV,KGNV,29.690056,-82.271778,152,-5,A,"Gainesville, FL",331,328,336,336,3.954682779456196,13.695121951219512,29.0,51.0,"Sun, Feb  4, 2018","Wed, Feb 28, 2018"
4038,Gulfport-Biloxi,Gulfport,United States,GPT,KGPT,30.407278,-89.070111,28,-6,A,"Gulfport/Biloxi, MS",293,292,297,297,4.29692832764505,13.8527397260274,20.0,56.0,"Tue, Feb  6, 2018","Sun, Feb  4, 2018"
3653,Austin Straubel International,Green Bay,United States,GRB,KGRB,44.485072,-88.129589,695,-6,A,"Green Bay, WI",313,308,327,326,4.4408945686900925,18.006493506493502,13.0,88.0,"Thu, Feb  8, 2018","Mon, Feb 19, 2018"
5740,Central Nebraska Regional Airport,Grand Island,United States,GRI,KGRI,40.9675,-98.3096,1847,-6,A,"Grand Island, NE",67,67,68,68,4.29850746268657,21.71641791044776,9.0,68.0,"Fri, Feb  2, 2018","Mon, Feb 19, 2018"
3775,Robert Gray AAF,Killeen,United States,GRK,KGRK,31.06725,-97.828917,1015,-6,A,"Killeen, TX",196,196,205,205,4.020408163265308,17.326530612244905,24.0,72.0,"Fri, Feb 23, 2018","Fri, Feb 23, 2018"
3685,Gerald R. Ford International,Grand Rapids,United States,GRR,KGRR,42.880833,-85.522806,794,-5,A,"Grand Rapids, MI",1247,1251,1280,1281,6.071371291098639,19.810551558752994,77.0,121.0,"Sun, Feb 11, 2018","Sun, Feb  4, 2018"
4008,Piedmont Triad,Greensboro,United States,GSO,KGSO,36.09775,-79.937306,925,-5,A,"Greensboro/High Point, NC",873,867,891,891,4.04467353951891,17.90657439446367,19.0,104.0,"Mon, Feb 19, 2018","Mon, Feb 26, 2018"
4034,Greenville-Spartanburg International,Greenville,United States,GSP,KGSP,34.895556,-82.218889,964,-5,A,"Greer, SC",801,795,815,815,3.888888888888889,16.607547169811276,45.0,100.0,"Mon, Feb 19, 2018","Fri, Feb  9, 2018"
3880,Great Falls International,Great Falls,United States,GTF,KGTF,47.482,-111.370689,3677,-7,A,"Great Falls, MT",101,101,101,101,4.881188118811879,18.574257425742577,11.0,64.0,"Sun, Feb 18, 2018","Fri, Feb  9, 2018"
4273,Golden Triangle Regional Airport,Columbus Mississippi,United States,GTR,KGTR,33.450333,-88.591361,264,-6,A,"Columbus, MS",76,76,77,77,4.05263157894737,21.539473684210524,6.0,53.0,"Sun, Feb 25, 2018","Sat, Feb 17, 2018"
7051,Gunnison - Crested Butte,Gunnison,United States,GUC,KGUC,38.533889,-106.933056,7678,-7,A,"Gunnison, CO",35,35,36,36,3.4285714285714284,13.82857142857143,11.0,39.0,"Sun, Feb 18, 2018","Sat, Feb 10, 2018"
4339,Yampa Valley,Hayden,United States,HDN,KHDN,40.481181,-107.21766,6602,-7,A,"Hayden, CO",203,201,208,208,5.275862068965517,20.248756218905484,49.0,65.0,"Sat, Feb 24, 2018","Sat, Feb 10, 2018"
6739,Hagerstown Regional-Richard A. Henson Field,Hagerstown,United States,HGR,KHGR,39.7079,-77.7295,704,-5,A,"Hagerstown, MD",8,8,8,8,5.75,8.5,7.0,14.0,"Fri, Feb  2, 2018","Mon, Feb 19, 2018"
3650,Chisholm Hibbing,Hibbing,United States,HIB,KHIB,47.3866,-92.838994,1353,-6,A,"Hibbing, MN",47,47,48,48,4.148936170212766,21.829787234042552,9.0,66.0,"Thu, Feb 22, 2018","Fri, Feb 23, 2018"
3504,Helena Regional,Helena,United States,HLN,KHLN,46.606806,-111.98275,3877,-7,A,"Helena, MT",117,116,118,118,4.470085470085468,27.017241379310345,20.0,98.0,"Wed, Feb 14, 2018","Fri, Feb  9, 2018"
3728,Honolulu International,Honolulu,United States,HNL,PHNL,21.318681,-157.922428,13,-10,N,"Honolulu, HI",3516,3520,3529,3528,7.321387940841865,16.31335227272732,53.0,58.0,"Sat, Feb  3, 2018","Mon, Feb 19, 2018"
3749,Lea County Regional,Hobbs,United States,HOB,KHOB,32.687528,-103.217028,3661,-7,A,"Hobbs, NM",52,52,52,52,4.769230769230769,14.038461538461537,7.0,45.0,"Tue, Feb 13, 2018","Tue, Feb 27, 2018"
3566,William P. Hobby,Houston,United States,HOU,KHOU,29.645419,-95.278889,46,-6,A,"Houston, TX",4128,4129,4214,4214,4.99176356589147,12.348268345846465,44.0,108.0,"Tue, Feb 27, 2018","Tue, Feb 20, 2018"
3589,Westchester County,White Plains,United States,HPN,KHPN,41.066959,-73.707575,439,-5,A,"White Plains, NY",658,662,689,689,4.445288753799386,14.477341389728096,41.0,51.0,"Tue, Feb 20, 2018","Mon, Feb  5, 2018"
3560,Valley International,Harlingen,United States,HRL,KHRL,26.2285,-97.654389,36,-6,A,"Harlingen/San Benito, TX",257,257,260,260,3.478599221789884,13.147859922178988,39.0,59.0,"Wed, Feb  7, 2018","Sun, Feb 25, 2018"
4113,Huntsville International Airport-Carl T. Jones Field,Huntsville,United States,HSV,KHSV,34.6371944,-86.7750556,629,-6,A,"Huntsville, AL",592,589,604,604,4.839527027027032,16.188455008488962,23.0,78.0,"Thu, Feb  8, 2018","Tue, Feb 27, 2018"
5742,TriState-Milton J. Ferguson Field,Huntington,United States,HTS,KHTS,38.3667,-82.558,828,-5,A,"Ashland, WV",22,22,22,22,5.636363636363637,7.772727272727274,7.0,22.0,"Fri, Feb  2, 2018","Mon, Feb 12, 2018"
4006,Tweed-New Haven Airport,New Haven,United States,HVN,KHVN,41.26375,-72.886806,14,-5,A,"New Haven, CT",74,73,80,80,2.945945945945946,10.616438356164384,5.0,27.0,"Thu, Feb 15, 2018","Mon, Feb 19, 2018"
7014,Hays Regional Airport,Hays,United States,HYS,KHYS,38.8422,-99.2732,1998,-5,A,"Hays, KS",48,48,48,48,3.8958333333333335,17.124999999999996,7.0,56.0,"Fri, Feb  9, 2018","Tue, Feb 20, 2018"
3714,Washington Dulles International,Washington,United States,IAD,KIAD,38.944533,-77.455811,313,-5,A,"Washington, DC",4411,4413,4469,4469,5.322375878485608,18.30886018581466,46.0,125.0,"Sat, Feb  3, 2018","Sat, Feb 17, 2018"
3630,Niagara Falls International,Niagara Falls,United States,IAG,KIAG,43.107333,-78.946194,589,-5,A,"Niagara Falls, NY",77,77,78,78,8.116883116883118,13.766233766233766,13.0,54.0,"Wed, Feb  7, 2018","Wed, Feb  7, 2018"
3550,George Bush Intercontinental Houston,Houston,United States,IAH,KIAH,29.984433,-95.341442,97,-6,A,"Houston, TX",12861,12888,12974,12974,8.829951014695645,19.89509621353189,98.0,107.0,"Tue, Feb  6, 2018","Wed, Feb 21, 2018"
3457,Wichita Mid Continent,Wichita,United States,ICT,KICT,37.649944,-97.433056,1333,-6,A,"Wichita, KS",735,738,755,756,4.47210884353742,15.811653116531156,30.0,95.0,"Tue, Feb 20, 2018","Tue, Feb 20, 2018"
4100,Idaho Falls Regional,Idaho Falls,United States,IDA,KIDA,43.514556,-112.07075,4744,-7,A,"Idaho Falls, ID",176,176,176,176,4.499999999999999,18.454545454545443,14.0,69.0,"Sat, Feb 17, 2018","Mon, Feb 12, 2018"
6131,Laughlin-Bullhead International,Bullhead,United States,IFP,IFP,35.1574,-114.56,695,-7,A,"Bullhead City, AZ",14,14,14,14,5.357142857142857,23.714285714285715,18.0,82.0,"Tue, Feb 13, 2018","Mon, Feb 12, 2018"
3845,Wilmington International,Wilmington,United States,ILM,KILM,34.270615,-77.902569,32,-5,A,"Wilmington, NC",431,431,434,434,3.774941995359628,16.32482598607891,19.0,101.0,"Sat, Feb  3, 2018","Mon, Feb 26, 2018"
6837,Ford Airport,Iron Mountain,United States,IMT,KIMT,45.8183611,-88.1145556,1182,-5,A,"Iron Mountain/Kingsfd, MI",51,50,52,52,4.549019607843136,17.020000000000003,10.0,56.0,"Thu, Feb  1, 2018","Thu, Feb 15, 2018"
3585,Indianapolis International,Indianapolis,United States,IND,KIND,39.717331,-86.294383,797,-5,A,"Indianapolis, IN",3455,3456,3514,3516,6.199710564399419,15.554976851851851,49.0,118.0,"Sun, Feb  4, 2018","Mon, Feb  5, 2018"
3535,Falls International,International Falls,United States,INL,KINL,48.566186,-93.403067,1185,-6,A,"International Falls, MN",47,47,48,48,5.0212765957446805,18.255319148936174,15.0,77.0,"Sun, Feb 11, 2018","Fri, Feb  2, 2018"
3659,Sloulin Field International,Williston,United States,ISN,KISN,48.177939,-103.642347,1982,-7,A,"Williston, ND",107,107,108,108,6.420560747663552,31.214953271028055,23.0,79.0,"Sat, Feb 17, 2018","Mon, Feb 12, 2018"
3857,Long Island MacArthur,Islip,United States,ISP,KISP,40.79525,-73.100222,99,-5,A,"Islip, NY",512,511,515,516,4.726562499999999,12.017612524461839,29.0,69.0,"Sun, Feb 11, 2018","Fri, Feb  2, 2018"
3947,Ithaca Tompkins Regional,Ithaca,United States,ITH,KITH,42.491028,-76.458444,1099,-5,A,"Ithaca/Cortland, NY",74,75,79,79,4.567567567567569,23.453333333333333,16.0,54.0,"Thu, Feb 22, 2018","Mon, Feb  5, 2018"
3415,Hilo International,Hilo,United States,ITO,PHTO,19.721375,-155.048469,38,-10,N,"Hilo, HI",488,459,488,460,5.706967213114752,9.54684095860566,10.0,36.0,"Mon, Feb 26, 2018","Sun, Feb 18, 2018"
4027,Jackson Hole Airport,Jacksn Hole,United States,JAC,KJAC,43.60733333,-110.73775,6451,-7,A,"Jackson, WY",337,336,338,338,3.7329376854599405,22.425595238095248,44.0,102.0,"Sat, Feb 24, 2018","Sun, Feb 18, 2018"
3580,Jackson Evers International,Jackson,United States,JAN,KJAN,32.311167,-90.075889,346,-6,A,"Jackson/Vicksburg, MS",547,547,557,557,4.327239488117003,14.614259597806212,27.0,94.0,"Wed, Feb 21, 2018","Tue, Feb 27, 2018"
3712,Jacksonville International,Jacksonville,United States,JAX,KJAX,30.494056,-81.687861,30,-5,A,"Jacksonville, FL",2048,2049,2068,2068,5.305175781250003,13.777940458760371,96.0,99.0,"Tue, Feb 27, 2018","Wed, Feb  7, 2018"
3797,John F. Kennedy International,New York,United States,JFK,KJFK,40.639751,-73.778925,13,-5,A,"New York, NY",9150,9166,9265,9268,8.439890710382524,24.896465197468892,88.0,178.0,"Sat, Feb 17, 2018","Sat, Feb 17, 2018"
4354,Joplin Regional,Joplin,United States,JLN,KJLN,37.151814,-94.498269,981,-6,A,"Joplin, MO",63,63,70,70,3.8253968253968256,15.460317460317453,5.0,59.0,"Fri, Feb  2, 2018","Sun, Feb  4, 2018"
5745,Jamestown Regional Airport,Jamestown,United States,JMS,KJMS,46.9297,-98.6782,1498,-6,A,"Jamestown, ND",76,76,76,76,4.407894736842104,16.486842105263165,8.0,39.0,"Fri, Feb 16, 2018","Thu, Feb 22, 2018"
3492,Juneau International,Juneau,United States,JNU,PAJN,58.354972,-134.576278,21,-9,A,"Juneau, AK",292,294,296,296,4.506849315068488,18.282312925170057,24.0,86.0,"Fri, Feb 16, 2018","Wed, Feb  7, 2018"
3514,Kona International At Keahole,Kona,United States,KOA,PHKO,19.738767,-156.045631,47,-10,N,"Kona, HI",1065,1088,1065,1093,5.793427230046944,11.973345588235293,73.0,100.0,"Wed, Feb 28, 2018","Wed, Feb 28, 2018"
3808,Ketchikan International,Ketchikan,United States,KTN,PAKT,55.355556,-131.71375,88,-9,A,"Ketchikan, AK",163,162,164,164,5.128834355828222,15.932098765432098,47.0,95.0,"Sun, Feb  4, 2018","Mon, Feb 12, 2018"
3544,Capital City,Lansing,United States,LAN,KLAN,42.7787,-84.587357,861,-5,A,"Lansing, MI",241,242,253,252,4.460580912863071,20.177685950413238,22.0,67.0,"Sun, Feb 11, 2018","Wed, Feb  7, 2018"
5746,Laramie Regional Airport,Laramie,United States,LAR,KLAR,41.3121,-105.675,7284,-7,A,"Laramie, WY",47,47,48,48,4.063829787234043,21.23404255319149,6.0,69.0,"Mon, Feb  5, 2018","Tue, Feb 20, 2018"
3877,McCarran International,Las Vegas,United States,LAS,KLAS,36.080056,-115.15225,2141,-8,A,"Las Vegas, NV",11776,11770,11849,11849,6.34893002717391,14.883772302463884,54.0,99.0,"Tue, Feb  6, 2018","Sun, Feb  4, 2018"
4256,Lawton-Fort Sill Regional Airport,Lawton,United States,LAW,KLAW,34.5677144,-98.4166367,1110,-6,A,"Lawton/Fort Sill, OK",87,88,97,97,2.908045977011494,13.613636363636363,6.0,71.0,"Mon, Feb 19, 2018","Tue, Feb 20, 2018"
3484,Los Angeles International,Los Angeles,United States,LAX,KLAX,33.942536,-118.408075,126,-8,A,"Los Angeles, CA",15960,15987,16092,16101,11.783646616541363,19.598423719271896,97.0,122.0,"Mon, Feb 26, 2018","Fri, Feb 16, 2018"
3829,Lubbock Preston Smith International,Lubbock,United States,LBB,KLBB,33.663639,-101.822778,3282,-6,A,"Lubbock, TX",465,469,481,481,4.462365591397849,13.720682302771856,48.0,111.0,"Fri, Feb 23, 2018","Tue, Feb  6, 2018"
5747,Arnold Palmer Regional Airport,Latrobe,United States,LBE,KLBE,40.2759,-79.4048,1185,-5,A,"Latrobe, PA",92,93,93,94,6.184782608695653,13.204301075268818,33.0,43.0,"Sun, Feb 11, 2018","Fri, Feb  2, 2018"
5748,North Platte Regional Airport-Lee Bird Field,North Platte,United States,LBF,KLBF,41.1262,-100.684,2776,-6,A,"North Platte, NE",47,45,48,47,5.255319148936169,18.888888888888886,10.0,53.0,"Mon, Feb 12, 2018","Sat, Feb 24, 2018"
4341,Liberal Municipal,Liberal,United States,LBL,KLBL,37.044222,-100.95986,2885,-6,A,"Liberal, KS",40,39,40,39,5.15,16.641025641025646,11.0,60.0,"Thu, Feb 22, 2018","Tue, Feb 20, 2018"
3513,Lake Charles Regional,Lake Charles,United States,LCH,KLCH,30.126112,-93.223335,15,-6,A,"Lake Charles, LA",130,131,138,138,5.007692307692309,12.251908396946565,8.0,46.0,"Thu, Feb  8, 2018","Tue, Feb 20, 2018"
3674,Rickenbacker International,Columbus,United States,LCK,KLCK,39.813786,-82.927822,744,-5,A,"Columbus, OH",65,65,65,65,5.492307692307692,13.261538461538462,33.0,57.0,"Wed, Feb 21, 2018","Sat, Feb 17, 2018"
4017,Blue Grass,Lexington KY,United States,LEX,KLEX,38.0365,-84.605889,979,-5,A,"Lexington, KY",662,656,673,670,4.8217522658610275,17.434451219512205,29.0,105.0,"Fri, Feb 16, 2018","Sun, Feb  4, 2018"
3493,Lafayette Regional,Lafayette,United States,LFT,KLFT,30.205278,-91.987611,43,-6,A,"Lafayette, LA",333,333,342,342,5.474474474474475,16.78378378378377,49.0,58.0,"Wed, Feb 14, 2018","Tue, Feb  6, 2018"
3697,LaGuardia Airport,New York,United States,LGA,KLGA,40.777245,-73.872608,22,-5,A,"New York, NY",12397,12413,12724,12726,8.930547713156416,25.767421251913415,82.0,131.0,"Sun, Feb  4, 2018","Wed, Feb  7, 2018"
3582,Long Beach,Long Beach,United States,LGB,KLGB,33.817722,-118.151611,60,-8,A,"Long Beach, CA",1372,1374,1387,1387,4.206997084548109,13.483260553129549,32.0,94.0,"Sun, Feb 11, 2018","Wed, Feb  7, 2018"
3602,Lihue,Lihue,United States,LIH,PHLI,21.975983,-159.338958,153,-10,N,"Lihue, HI",1025,1021,1029,1029,6.591219512195122,10.009794319294807,99.0,56.0,"Sat, Feb 10, 2018","Mon, Feb 12, 2018"
3660,Adams Field,Little Rock,United States,LIT,KLIT,34.729444,-92.224306,262,-6,A,"Little Rock, AR",895,897,910,911,4.691620111731842,14.770345596432552,28.0,70.0,"Fri, Feb  9, 2018","Tue, Feb 27, 2018"
3543,Lincoln,Lincoln,United States,LNK,KLNK,40.850971,-96.75925,1219,-6,A,"Lincoln, NE",134,134,138,138,4.410447761194026,26.02238805970149,15.0,103.0,"Wed, Feb  7, 2018","Sun, Feb 25, 2018"
3691,Laredo International,Laredo,United States,LRD,KLRD,27.54375,-99.461556,508,-6,A,"Laredo, TX",185,187,193,193,4.145945945945943,15.732620320855625,14.0,90.0,"Fri, Feb 23, 2018","Sat, Feb 10, 2018"
4044,LaCrosse Municipal,LaCrosse,United States,LSE,KLSE,43.878986,-91.256711,654,-6,A,"La Crosse, WI",142,141,151,151,3.8943661971830985,18.900709219858157,8.0,68.0,"Mon, Feb 12, 2018","Tue, Feb 20, 2018"
3945,Lewiston Nez Perce County,Lewiston,United States,LWS,KLWS,46.3745,-117.015389,1442,-8,A,"Lewiston, ID",44,44,44,44,4.068181818181817,13.431818181818182,6.0,40.0,"Sun, Feb 18, 2018","Thu, Feb 22, 2018"
5753,Lynchburg Regional-Preston Glenn Field,Lynchburg,United States,LYH,KLYH,37.3267,-79.2004,938,-5,A,"Lynchburg, VA",54,54,56,56,3.7592592592592586,19.88888888888889,8.0,59.0,"Sat, Feb 24, 2018","Sun, Feb 18, 2018"
3652,Midland International,Midland,United States,MAF,KMAF,31.942528,-102.201914,2871,-6,A,"Midland/Odessa, TX",671,667,681,681,4.584202682563329,14.053973013493254,53.0,63.0,"Wed, Feb  7, 2018","Thu, Feb 22, 2018"
4128,MBS International,Saginaw,United States,MBS,KMBS,43.532913,-84.079647,668,-5,A,"Saginaw/Bay City/Midland, MI",191,189,202,200,4.7905759162303685,19.597883597883616,28.0,52.0,"Thu, Feb  8, 2018","Fri, Feb  9, 2018"
3458,Kansas City International,Kansas City,United States,MCI,KMCI,39.297606,-94.713905,1026,-6,A,"Kansas City, MO",3822,3827,3946,3948,5.8741496598639475,14.537758035014381,242.0,173.0,"Tue, Feb 20, 2018","Tue, Feb 20, 2018"
3878,Orlando International,Orlando,United States,MCO,KMCO,28.429394,-81.308994,96,-5,A,"Orlando, FL",10661,10658,10760,10752,9.054591501735269,14.556764871458059,61.0,134.0,"Fri, Feb 23, 2018","Wed, Feb  7, 2018"
3542,Harrisburg International,Harrisburg,United States,MDT,KMDT,40.193494,-76.763403,310,-5,A,"Harrisburg, PA",465,467,483,484,4.868817204301076,17.357601713062085,15.0,119.0,"Sun, Feb 11, 2018","Thu, Feb 15, 2018"
3747,Chicago Midway International,Chicago,United States,MDW,KMDW,41.785972,-87.752417,620,-6,A,"Chicago, IL",5119,5149,5723,5726,5.5837077554209795,13.26218683239465,61.0,132.0,"Sun, Feb 11, 2018","Fri, Feb  9, 2018"
4335,Key Field,Meridian,United States,MEI,KMEI,32.332624,-88.751868,297,-6,A,"Meridian, MS",81,81,84,84,5.2716049382716035,17.604938271604947,10.0,100.0,"Tue, Feb 27, 2018","Thu, Feb 22, 2018"
3473,Memphis International,Memphis,United States,MEM,KMEM,35.042417,-89.976667,341,-6,A,"Memphis, TN",1616,1616,1642,1644,4.876856435643575,15.3855198019802,24.0,106.0,"Wed, Feb 21, 2018","Thu, Feb 22, 2018"
3826,McAllen Miller International,Mcallen,United States,MFE,KMFE,26.175833,-98.238611,107,-6,A,"Mission/McAllen/Edinburg, TX",311,309,317,317,4.035369774919616,13.006472491909378,10.0,73.0,"Wed, Feb  7, 2018","Mon, Feb 19, 2018"
4101,Rogue Valley International Medford,Medford,United States,MFR,KMFR,42.374228,-122.8735,1335,-8,A,"Medford, OR",300,301,301,302,4.783333333333337,19.677740863787356,29.0,161.0,"Thu, Feb 22, 2018","Mon, Feb 26, 2018"
4115,Montgomery Regional Airport ,MONTGOMERY,United States,MGM,KMGM,32.3006389,-86.3939722,221,-6,A,"Montgomery, AL",298,298,301,301,3.9630872483221475,17.818791946308732,28.0,53.0,"Thu, Feb 15, 2018","Tue, Feb 13, 2018"
4050,Manhattan Regional,Manhattan,United States,MHK,KMHK,39.140972,-96.670833,1057,-6,A,"Manhattan/Ft. Riley, KS",125,123,132,132,3.656,16.33333333333333,12.0,93.0,"Sun, Feb  4, 2018","Tue, Feb 20, 2018"
4011,Manchester Regional Airport,Manchester NH,United States,MHT,KMHT,42.932556,-71.435667,266,-5,A,"Manchester, NH",726,724,757,757,4.114325068870529,14.740331491712707,26.0,70.0,"Fri, Feb 23, 2018","Sun, Feb 18, 2018"
3576,Miami International,Miami,United States,MIA,KMIA,25.79325,-80.290556,8,-5,A,"Miami, FL",7043,7056,7090,7093,8.622745988925207,18.117630385487548,71.0,170.0,"Wed, Feb  7, 2018","Tue, Feb 20, 2018"
3717,General Mitchell International,Milwaukee,United States,MKE,KMKE,42.947222,-87.896583,723,-6,A,"Milwaukee, WI",2524,2519,2577,2577,6.011885895404117,16.685589519650694,95.0,143.0,"Mon, Feb 12, 2018","Thu, Feb 15, 2018"
5754,Muskegon County Airport,Muskegon,United States,MKG,KMKG,43.1695,-86.2382,628,-5,A,"Muskegon, MI",47,48,54,54,5.0212765957446805,17.91666666666666,8.0,39.0,"Mon, Feb 12, 2018","Sat, Feb 17, 2018"
3671,Melbourne International,Melbourne,United States,MLB,KMLB,28.102753,-80.645258,33,-5,A,"Melbourne, FL",196,196,197,197,3.760204081632654,15.704081632653054,8.0,65.0,"Fri, Feb  2, 2018","Thu, Feb 15, 2018"
4072,Quad City International,Moline,United States,MLI,KMLI,41.448528,-90.507539,590,-6,A,"Moline, IL",351,351,363,362,6.05982905982906,19.28490028490027,51.0,87.0,"Mon, Feb  5, 2018","Wed, Feb  7, 2018"
3732,Monroe Regional,Monroe,United States,MLU,KMLU,32.510864,-92.037689,79,-6,A,"Monroe, LA",217,217,222,222,4.631336405529954,16.53917050691244,25.0,65.0,"Sat, Feb  3, 2018","Tue, Feb  6, 2018"
7081,Mammoth Yosemite Airport,Mammoth Lakes,United States,MMH,KMMH,37.624049,-118.837772,7128,-8,A,"Mammoth Lakes, CA",26,26,28,28,3.8461538461538463,20.23076923076923,7.0,55.0,"Sun, Feb 11, 2018","Sun, Feb 11, 2018"
3782,Mobile Regional,Mobile,United States,MOB,KMOB,30.691231,-88.242814,219,-6,A,"Mobile, AL",494,491,504,504,4.198380566801618,15.329938900203667,27.0,78.0,"Wed, Feb 14, 2018","Mon, Feb 19, 2018"
3498,Minot International,Minot,United States,MOT,KMOT,48.259378,-101.280333,1716,-6,A,"Minot, ND",179,179,181,181,5.603351955307266,21.474860335195537,72.0,73.0,"Sat, Feb 10, 2018","Sat, Feb  3, 2018"
6838,Sawyer International Airport,Marquette,United States,MQT,KMQT,46.353611,-87.395278,1221,-5,A,"Marquette, MI",75,76,82,82,5.239999999999998,21.644736842105257,13.0,72.0,"Wed, Feb 21, 2018","Fri, Feb 23, 2018"
3948,Monterey Peninsula,Monterey,United States,MRY,KMRY,36.587,-121.842944,257,-8,A,"Monterey, CA",248,248,252,252,3.4193548387096775,18.90322580645162,23.0,84.0,"Thu, Feb 22, 2018","Thu, Feb 22, 2018"
3459,Dane County Regional-Truax Field,Madison,United States,MSN,KMSN,43.139858,-89.337514,887,-6,A,"Madison, WI",742,743,765,766,4.7088948787061975,16.827725437415854,31.0,82.0,"Wed, Feb 21, 2018","Tue, Feb 20, 2018"
4216,Missoula International,Missoula,United States,MSO,KMSO,46.916306,-114.090556,3205,-7,A,"Missoula, MT",113,113,114,114,6.106194690265486,22.58407079646018,22.0,159.0,"Mon, Feb 26, 2018","Fri, Feb  9, 2018"
3858,Minneapolis St. Paul International,Minneapolis,United States,MSP,KMSP,44.881956,-93.221767,841,-6,A,"Minneapolis, MN",10920,10945,11054,11064,6.558699633699634,23.71502969392422,75.0,169.0,"Mon, Feb  5, 2018","Tue, Feb 20, 2018"
3861,Louis Armstrong New Orleans International,New Orleans,United States,MSY,KMSY,29.993389,-90.258028,4,-6,A,"New Orleans, LA",4287,4290,4324,4325,5.8059248891999,12.36876456876455,61.0,65.0,"Mon, Feb  5, 2018","Tue, Feb 20, 2018"
6880,Montrose Regional Airport,Montrose CO,United States,MTJ,KMTJ,38.509794,-107.894242,5759,-7,A,"Montrose/Delta, CO",188,188,192,192,5.664893617021279,20.643617021276604,46.0,129.0,"Mon, Feb 19, 2018","Sun, Feb 18, 2018"
3515,Myrtle Beach International,Myrtle Beach,United States,MYR,KMYR,33.67975,-78.928333,25,-5,A,"Myrtle Beach, SC",507,505,512,512,4.8500986193293905,15.041584158415843,20.0,115.0,"Mon, Feb 12, 2018","Mon, Feb 26, 2018"
4386,Albert J. Ellis,Jacksonville NC,United States,OAJ,KOAJ,34.829164,-77.612139,94,-5,A,"Jacksonville/Camp Lejeune, NC",214,214,214,214,3.3598130841121496,19.303738317756995,16.0,54.0,"Mon, Feb 12, 2018","Mon, Feb 26, 2018"
3453,Metropolitan Oakland International,Oakland,United States,OAK,KOAK,37.721278,-122.220722,9,-8,A,"Oakland, CA",3603,3603,3654,3653,5.636136552872598,11.791840133222339,52.0,60.0,"Tue, Feb 20, 2018","Wed, Feb 28, 2018"
3456,Kahului,Kahului,United States,OGG,PHOG,20.89865,-156.430458,54,-10,N,"Kahului, HI",1857,1854,1862,1861,7.195476575121165,11.182847896440126,56.0,67.0,"Sat, Feb  3, 2018","Sat, Feb  3, 2018"
3724,Ogdensburg International,Ogdensburg,United States,OGS,KOGS,44.681854,-75.4655,297,-5,A,"Ogdensburg, NY",15,15,16,16,6.6,22.933333333333334,9.0,54.0,"Wed, Feb 21, 2018","Sat, Feb 17, 2018"
3863,Will Rogers World,Oklahoma City,United States,OKC,KOKC,35.393089,-97.600733,1295,-6,A,"Oklahoma City, OK",1505,1506,1556,1556,4.814617940199331,14.764276228419657,33.0,78.0,"Wed, Feb 21, 2018","Thu, Feb 22, 2018"
3454,Eppley Airfield,Omaha,United States,OMA,KOMA,41.303167,-95.894069,984,-6,A,"Omaha, NE",1669,1665,1706,1702,4.735170760934693,19.992192192192192,37.0,134.0,"Thu, Feb 15, 2018","Mon, Feb 19, 2018"
3615,Nome,Nome,United States,OME,PAOM,64.512203,-165.445247,37,-9,A,"Nome, AK",47,49,56,56,3.0,8.653061224489795,5.0,29.0,"Mon, Feb 12, 2018","Wed, Feb 21, 2018"
3734,Ontario International,Ontario,United States,ONT,KONT,34.056,-117.601194,944,-8,A,"Ontario, CA",1563,1563,1575,1574,4.2002559181062,11.578374920025592,26.0,83.0,"Mon, Feb  5, 2018","Tue, Feb  6, 2018"
3830,Chicago O'Hare International,Chicago,United States,ORD,KORD,41.978603,-87.904842,668,-6,A,"Chicago, IL",22232,22307,23356,23353,12.839060813242194,22.112027614650067,129.0,170.0,"Sun, Feb  4, 2018","Sun, Feb  4, 2018"
3611,Norfolk International,Norfolk,United States,ORF,KORF,36.894611,-76.201222,26,-5,A,"Norfolk, VA",1401,1401,1444,1442,3.943611705924341,15.72305496074234,25.0,92.0,"Sun, Feb 11, 2018","Sat, Feb 10, 2018"
6426,Worcester Regional Airport,Worcester,United States,ORH,KORH,42.2673,-71.8757,1009,-5,U,"Worcester, MA",51,51,56,53,5.1568627450980395,11.176470588235292,20.0,36.0,"Thu, Feb  8, 2018","Sun, Feb 11, 2018"
5757,Southwest Oregon Regional Airport,North Bend,United States,OTH,KOTH,43.4171,-124.246,17,-8,A,"North Bend/Coos Bay, OR",16,16,16,16,3.5625,17.0,5.0,68.0,"Sun, Feb  4, 2018","Thu, Feb 22, 2018"
3693,Ralph Wien Memorial,Kotzebue,United States,OTZ,PAOT,66.884678,-162.59855,11,-9,A,"Kotzebue, AK",47,47,56,56,4.127659574468085,8.127659574468085,8.0,31.0,"Wed, Feb 21, 2018","Wed, Feb 28, 2018"
5758,Owensboro Daviess County Airport,Owensboro,United States,OWB,KOWB,37.7401,-87.1668,406,-6,A,"Owensboro, KY",8,8,8,8,6.875,6.25,15.0,10.0,"Fri, Feb 23, 2018","Fri, Feb 23, 2018"
4117,Barkley Regional Airport,PADUCAH,United States,PAH,KPAH,37.0602875,-88.7729583,410,-6,A,"Paducah, KY",48,48,54,54,4.020833333333333,13.583333333333334,7.0,32.0,"Fri, Feb 23, 2018","Thu, Feb  8, 2018"
3771,Plattsburgh International,Plattsburgh,United States,PBG,KPBG,44.650944,-73.468139,234,-5,A,"Plattsburgh, NY",79,79,79,79,5.518987341772153,13.670886075949367,17.0,72.0,"Sun, Feb 25, 2018","Wed, Feb  7, 2018"
3722,Palm Beach International,West Palm Beach,United States,PBI,KPBI,26.683161,-80.095589,19,-5,A,"West Palm Beach/Palm Beach, FL",2372,2372,2396,2395,4.357925801011808,15.31450252951096,51.0,79.0,"Tue, Feb 13, 2018","Mon, Feb 19, 2018"
3720,Portland International,Portland,United States,PDX,KPDX,45.588722,-122.5975,30,-8,A,"Portland, OR",4393,4399,4412,4417,4.730252674709757,14.359399863605368,84.0,82.0,"Tue, Feb 20, 2018","Sun, Feb 11, 2018"
7056,Charlotte County-Punta Gorda Airport,Punta Gorda,United States,PGD,KPGD,26.919722,-81.990556,26,-5,A,"Punta Gorda, FL",457,459,459,459,6.36105032822757,10.420479302832232,41.0,25.0,"Sun, Feb  4, 2018","Thu, Feb 15, 2018"
3633,Newport News Williamsburg International,Newport News,United States,PHF,KPHF,37.131894,-76.492989,43,-5,A,"Newport News/Williamsburg, VA",195,196,200,199,4.056410256410254,15.372448979591837,9.0,69.0,"Mon, Feb  5, 2018","Mon, Feb  5, 2018"
3752,Philadelphia International,Philadelphia,United States,PHL,KPHL,39.871944,-75.241139,36,-5,A,"Philadelphia, PA",8148,8157,8262,8264,7.575110456553761,21.731641534878,92.0,128.0,"Sun, Feb  4, 2018","Sun, Feb 11, 2018"
3462,Phoenix Sky Harbor International,Phoenix,United States,PHX,KPHX,33.434278,-112.011583,1135,-7,N,"Phoenix, AZ",13089,13136,13267,13270,8.608602643441085,15.234317904993913,66.0,106.0,"Wed, Feb 28, 2018","Thu, Feb 15, 2018"
4046,Peoria Regional,Peoria,United States,PIA,KPIA,40.664203,-89.693258,660,-6,A,"Peoria, IL",371,368,388,388,4.9919137466307255,19.220108695652183,23.0,102.0,"Sun, Feb 11, 2018","Wed, Feb 21, 2018"
5759,Hattiesburg Laurel Regional Airport,Hattiesburg/Laurel,United States,PIB,KPIB,31.4671,-89.3371,298,-6,A,"Hattiesburg/Laurel, MS",55,53,56,56,4.218181818181817,14.81132075471698,7.0,35.0,"Fri, Feb 16, 2018","Wed, Feb 14, 2018"
3617,St. Petersburg Clearwater International,St. Petersburg,United States,PIE,KPIE,27.910167,-82.687389,10,-5,A,"St. Petersburg, FL",578,578,581,579,5.861591695501732,12.171280276816603,30.0,56.0,"Sat, Feb 24, 2018","Sun, Feb 11, 2018"
5760,Pocatello Regional Airport,Pocatello,United States,PIH,KPIH,42.9098,-112.596,4452,-7,A,"Pocatello, ID",80,80,80,80,3.4375,16.0625,6.0,52.0,"Mon, Feb 19, 2018","Mon, Feb 12, 2018"
3570,Pittsburgh International,Pittsburgh (pennsylva),United States,PIT,KPIT,40.491467,-80.232872,1204,-5,A,"Pittsburgh, PA",3411,3409,3482,3482,5.684843154500147,17.55470812555007,32.0,147.0,"Thu, Feb 15, 2018","Wed, Feb  7, 2018"
5762,Pellston Regional Airport of Emmet County Airport,Pellston,United States,PLN,KPLN,45.5709,-84.7967,720,-5,A,"Pellston, MI",61,61,68,68,6.278688524590164,16.278688524590166,9.0,44.0,"Thu, Feb  1, 2018","Sun, Feb 25, 2018"
3564,Pensacola Regional,Pensacola,United States,PNS,KPNS,30.473425,-87.186611,121,-6,A,"Pensacola, FL",687,687,698,697,4.064046579330424,12.857350800582251,45.0,53.0,"Mon, Feb  5, 2018","Sat, Feb  3, 2018"
6133,Tri Cities Airport,Pasco,United States,PSC,PSC,46.2647,-119.119,410,-8,A,"Pasco/Kennewick/Richland, WA",295,295,299,299,5.027118644067799,16.827118644067788,21.0,41.0,"Wed, Feb  7, 2018","Mon, Feb 26, 2018"
4147,Petersburg James A. Johnson,Petersburg,United States,PSG,PAPG,56.801667,-132.945278,105,-9,A,"Petersburg, AK",53,54,56,56,4.169811320754718,9.40740740740741,6.0,40.0,"Mon, Feb 12, 2018","Fri, Feb  2, 2018"
5763,Pease International Tradeport,Portsmouth,United States,PSM,KPSM,43.0779,-70.8233,100,-5,A,"Portsmouth, NH",26,26,26,27,5.576923076923077,16.346153846153847,15.0,77.0,"Thu, Feb  8, 2018","Fri, Feb 23, 2018"
3839,Palm Springs International,Palm Springs,United States,PSP,KPSP,33.829667,-116.506694,477,-8,A,"Palm Springs, CA",1008,1006,1013,1012,6.176587301587305,15.694831013916495,55.0,100.0,"Thu, Feb 22, 2018","Fri, Feb  9, 2018"
3527,Pueblo Memorial,Pueblo Memorial,United States,PUB,KPUB,38.289085,-104.496572,4726,-7,A,"Pueblo, CO",65,66,67,68,4.461538461538462,17.787878787878782,12.0,59.0,"Wed, Feb  7, 2018","Sat, Feb 10, 2018"
3641,Theodore Francis Green State,Providence,United States,PVD,KPVD,41.732581,-71.420383,55,-5,A,"Providence, RI",1295,1290,1320,1319,5.140540540540531,14.610077519379844,67.0,81.0,"Sun, Feb 18, 2018","Sun, Feb 18, 2018"
7579,Provo Municipal Airport,Provo,United States,PVU,KPVU,40.21805555,-111.7222222,4497,-6,A,"Provo, UT",39,39,43,43,5.615384615384615,13.205128205128204,14.0,43.0,"Sat, Feb 10, 2018","Thu, Feb 15, 2018"
3862,Portland International Jetport,Portland,United States,PWM,KPWM,43.646161,-70.309281,77,-5,A,"Portland, ME",654,651,679,680,3.3837920489296636,16.161290322580637,15.0,104.0,"Thu, Feb  1, 2018","Sun, Feb 18, 2018"
4087,Rapid City Regional Airport,Rapid City,United States,RAP,KRAP,44.045278,-103.057222,3204,-7,A,"Rapid City, SD",221,221,226,226,5.683257918552037,21.41176470588235,39.0,68.0,"Sun, Feb 18, 2018","Fri, Feb  9, 2018"
4098,Redding Municipal,Redding,United States,RDD,KRDD,40.509,-122.293389,504,-8,A,"Redding, CA",78,78,78,78,4.512820512820513,13.76923076923077,7.0,80.0,"Fri, Feb  2, 2018","Mon, Feb 26, 2018"
4103,Roberts Field,Redmond-Bend,United States,RDM,KRDM,44.254066,-121.149964,3077,-8,A,"Bend/Redmond, OR",237,236,237,236,3.9198312236286896,19.233050847457644,8.0,103.0,"Thu, Feb  1, 2018","Sat, Feb 24, 2018"
3626,Raleigh Durham International,Raleigh-durham,United States,RDU,KRDU,35.877639,-78.787472,435,-5,A,"Raleigh/Durham, NC",4025,4020,4084,4084,5.310310559006217,17.825621890547264,61.0,131.0,"Fri, Feb  2, 2018","Wed, Feb  7, 2018"
4028,Chicago Rockford International Airport ,Rockford,United States,RFD,KRFD,42.1953611,-89.0972222,742,-6,A,"Rockford, IL",54,54,54,54,6.611111111111111,15.611111111111107,11.0,81.0,"Sun, Feb 18, 2018","Sun, Feb  4, 2018"
5765,Rhinelander Oneida County Airport,Rhinelander,United States,RHI,KRHI,45.6312,-89.4675,1624,-6,A,"Rhinelander, WI",55,55,56,56,5.109090909090909,20.363636363636363,11.0,49.0,"Fri, Feb 16, 2018","Fri, Feb 23, 2018"
3608,Richmond International,Richmond,United States,RIC,KRIC,37.505167,-77.319667,167,-5,A,"Richmond, VA",1614,1612,1653,1652,5.855018587360595,17.955334987593073,58.0,82.0,"Wed, Feb  7, 2018","Wed, Feb 21, 2018"
5766,Rock Springs Sweetwater County Airport,Rock Springs,United States,RKS,KRKS,41.5942,-109.065,6760,-7,A,"Rock Springs, WY",52,52,52,52,3.0961538461538463,16.03846153846154,7.0,41.0,"Mon, Feb 19, 2018","Fri, Feb 23, 2018"
3807,Reno Tahoe International,Reno,United States,RNO,KRNO,39.499108,-119.768108,4415,-8,A,"Reno, NV",1300,1297,1304,1305,4.606923076923078,16.090979182729374,39.0,129.0,"Thu, Feb 22, 2018","Mon, Feb 12, 2018"
4016,Roanoke Regional,Roanoke VA,United States,ROA,KROA,37.325472,-79.975417,1175,-5,A,"Roanoke, VA",179,179,184,184,5.368715083798882,19.368715083798882,28.0,74.0,"Sun, Feb 18, 2018","Mon, Feb 26, 2018"
3622,Greater Rochester International,Rochester,United States,ROC,KROC,43.118866,-77.672389,559,-5,A,"Rochester, NY",976,972,1000,999,5.959016393442626,17.359053497942355,39.0,96.0,"Thu, Feb 22, 2018","Wed, Feb  7, 2018"
3736,Roswell International Air Center,Roswell,United States,ROW,KROW,33.301556,-104.530556,3671,-7,A,"Roswell, NM",102,102,104,103,4.715686274509801,14.578431372549018,26.0,84.0,"Wed, Feb  7, 2018","Fri, Feb  9, 2018"
4048,Rochester,Rochester,United States,RST,KRST,43.908283,-92.500014,1317,-6,A,"Rochester, MN",219,215,228,228,5.009132420091322,23.176744186046516,36.0,67.0,"Wed, Feb  7, 2018","Fri, Feb  2, 2018"
3793,Southwest Florida International,Fort Myers,United States,RSW,KRSW,26.536167,-81.755167,30,-5,A,"Fort Myers, FL",3567,3554,3596,3594,6.113260442949261,13.017163759144621,68.0,89.0,"Thu, Feb 22, 2018","Sun, Feb 25, 2018"
3784,Santa Fe Municipal,Santa Fe,United States,SAF,KSAF,35.617108,-106.089422,6348,-7,A,"Santa Fe, NM",111,111,112,112,4.216216216216218,18.405405405405403,8.0,79.0,"Thu, Feb  1, 2018","Thu, Feb 22, 2018"
3731,San Diego International,San Diego,United States,SAN,KSAN,32.733556,-117.189667,17,-8,A,"San Diego, CA",6329,6339,6388,6389,3.792542265760785,16.10821896198146,50.0,84.0,"Sun, Feb 11, 2018","Tue, Feb 27, 2018"
3621,San Antonio International,San Antonio,United States,SAT,KSAT,29.533694,-98.469778,809,-6,A,"San Antonio, TX",2753,2746,2784,2782,4.4856520159825655,12.682447195921359,58.0,92.0,"Sun, Feb  4, 2018","Fri, Feb  9, 2018"
3613,Savannah Hilton Head International,Savannah,United States,SAV,KSAV,32.127583,-81.202139,51,-5,A,"Savannah, GA",921,914,930,928,5.01737242128122,14.819474835886215,54.0,71.0,"Fri, Feb 23, 2018","Fri, Feb 23, 2018"
3949,Santa Barbara Municipal,Santa Barbara,United States,SBA,KSBA,34.426211,-119.840372,10,-8,A,"Santa Barbara, CA",501,500,509,509,4.532934131736527,18.416000000000007,27.0,73.0,"Fri, Feb  2, 2018","Tue, Feb  6, 2018"
4359,South Bend Regional,South Bend,United States,SBN,KSBN,41.708661,-86.31725,799,-5,A,"South Bend, IN",402,404,425,425,5.427860696517411,24.297029702970296,31.0,100.0,"Fri, Feb  9, 2018","Thu, Feb 15, 2018"
5768,San Luis County Regional Airport,San Luis Obispo,United States,SBP,KSBP,35.2368,-120.642,212,-8,A,"San Luis Obispo, CA",347,347,354,354,4.386167146974063,19.64265129682995,19.0,56.0,"Fri, Feb  2, 2018","Sun, Feb 11, 2018"
3620,Deadhorse,Deadhorse,United States,SCC,PASC,70.19475,-148.465167,64,-9,A,"Deadhorse, AK",53,53,56,56,4.0,8.09433962264151,8.0,24.0,"Fri, Feb 23, 2018","Sat, Feb 24, 2018"
4318,University Park Airport,State College Pennsylvania,United States,SCE,KUNV,40.849278,-77.848694,1239,-5,A,"State College, PA",74,73,79,79,4.027027027027029,18.68493150684931,8.0,56.0,"Sun, Feb  4, 2018","Sat, Feb 17, 2018"
3805,Stockton Metropolitan,Stockton,United States,SCK,KSCK,37.894167,-121.238306,33,-8,A,"Stockton, CA",46,46,46,46,5.6521739130434785,7.173913043478261,7.0,22.0,"Thu, Feb  1, 2018","Wed, Feb  7, 2018"
4014,Louisville International Airport,Louisville,United States,SDF,KSDF,38.1740858,-85.7364989,501,-5,A,"Louisville, KY",1421,1423,1464,1464,6.5193525686136535,15.920590302178493,63.0,81.0,"Thu, Feb 22, 2018","Sat, Feb 17, 2018"
3577,Seattle Tacoma International,Seattle,United States,SEA,KSEA,47.449,-122.309306,433,-8,A,"Seattle, WA",9507,9516,9539,9537,8.724623961291705,19.242118537200604,112.0,145.0,"Wed, Feb 21, 2018","Wed, Feb 21, 2018"
4167,Orlando Sanford International,Sanford,United States,SFB,KSFB,28.777639,-81.237489,55,-5,A,"Sanford, FL",753,753,756,755,5.968127490039836,14.10756972111554,25.0,52.0,"Thu, Feb  1, 2018","Sat, Feb 17, 2018"
3469,San Francisco International,San Francisco,United States,SFO,KSFO,37.618972,-122.374889,13,-8,A,"San Francisco, CA",12640,12651,12721,12719,7.620727848101266,20.880167575685732,77.0,133.0,"Wed, Feb  7, 2018","Mon, Feb  5, 2018"
4348,Springfield Branson National,Springfield,United States,SGF,KSGF,37.245667,-93.388639,1268,-6,A,"Springfield, MO",581,578,631,630,6.363166953528398,19.2733564013841,68.0,133.0,"Mon, Feb 12, 2018","Mon, Feb 12, 2018"
4064,St. George Municipal,Saint George,United States,SGU,KSGU,37.090583,-113.593056,2941,-7,A,"St. George, UT",248,248,248,248,3.5766129032258065,18.770161290322573,8.0,67.0,"Tue, Feb 27, 2018","Tue, Feb 20, 2018"
3609,Shreveport Regional,Shreveport,United States,SHV,KSHV,32.446629,-93.8256,258,-6,A,"Shreveport, LA",501,501,509,509,5.528942115768461,13.830339321357286,51.0,54.0,"Thu, Feb 22, 2018","Sun, Feb 11, 2018"
3856,Sitka Rocky Gutierrez,Sitka,United States,SIT,PASI,57.047138,-135.361611,21,-9,A,"Sitka, AK",79,80,81,81,4.215189873417723,14.35,12.0,40.0,"Tue, Feb 27, 2018","Thu, Feb  8, 2018"
3748,Norman Y. Mineta San Jose International,San Jose,United States,SJC,KSJC,37.3626,-121.929022,62,-8,A,"San Jose, CA",3748,3745,3771,3770,4.149146211312697,12.816555407209608,56.0,115.0,"Tue, Feb 27, 2018","Fri, Feb  9, 2018"
3708,San Angelo Regional-Mathis Field,San Angelo,United States,SJT,KSJT,31.35775,-100.496306,1919,-6,A,"San Angelo, TX",103,103,108,108,4.718446601941745,12.378640776699031,27.0,37.0,"Sun, Feb 11, 2018","Wed, Feb 21, 2018"
3536,Salt Lake City International,Salt Lake City,United States,SLC,KSLC,40.788389,-111.977772,4227,-7,A,"Salt Lake City, UT",8447,8454,8488,8478,6.993488812596186,21.386207712325486,79.0,156.0,"Mon, Feb 19, 2018","Fri, Feb 23, 2018"
3817,Sacramento International,Sacramento,United States,SMF,KSMF,38.695417,-121.590778,27,-8,A,"Sacramento, CA",3196,3196,3217,3216,4.058510638297873,12.322277847309136,29.0,146.0,"Mon, Feb 26, 2018","Tue, Feb 20, 2018"
5772,Santa Maria Public-Captain G. Allan Hancock Airport,Santa Maria,United States,SMX,KSMX,34.8989,-120.457,261,-8,A,"Santa Maria, CA",12,12,12,12,5.333333333333333,5.833333333333333,7.0,9.0,"Fri, Feb  9, 2018","Sun, Feb 11, 2018"
3867,John Wayne Airport Orange County,Santa Ana,United States,SNA,KSNA,33.675667,-117.868222,56,-8,A,"Santa Ana, CA",2956,2957,2973,2975,5.162381596752364,13.57828880622251,41.0,103.0,"Fri, Feb  2, 2018","Wed, Feb  7, 2018"
4336,Abraham Lincoln Capital,Springfield,United States,SPI,KSPI,39.8441,-89.677889,597,-6,A,"Springfield, IL",128,130,140,140,4.484375000000003,17.092307692307696,21.0,59.0,"Sat, Feb 10, 2018","Thu, Feb  8, 2018"
3680,Sheppard AFB Wichita Falls Municipal,Wichita Falls,United States,SPS,KSPS,33.988797,-98.491894,1019,-6,A,"Wichita Falls, TX",70,71,81,81,7.642857142857143,16.408450704225352,15.0,54.0,"Sat, Feb 24, 2018","Mon, Feb 26, 2018"
4067,Sarasota Bradenton International,Sarasota,United States,SRQ,KSRQ,27.395444,-82.554389,30,-5,A,"Sarasota/Bradenton, FL",469,470,473,473,3.577825159914711,13.26595744680851,13.0,47.0,"Sat, Feb  3, 2018","Fri, Feb  2, 2018"
4271,Saint Cloud Regional Airport,Saint Cloud,United States,STC,KSTC,45.546556,-94.059889,1031,-6,A,"St. Cloud, MN",15,15,16,16,12.333333333333334,9.6,36.0,30.0,"Wed, Feb 28, 2018","Sat, Feb  3, 2018"
3678,Lambert St. Louis International,St. Louis,United States,STL,KSTL,38.748697,-90.370028,618,-6,A,"St. Louis, MO",4509,4511,4601,4598,4.6524728321135695,13.277322101529608,55.0,100.0,"Sun, Feb 11, 2018","Mon, Feb  5, 2018"
6992,Charles M. Schulz Sonoma County,Santa Rosa,United States,STS,KSTS,38.508978,-122.81288,125,-8,A,"Santa Rosa, CA",106,106,106,106,3.9245283018867925,18.83962264150944,7.0,95.0,"Tue, Feb  6, 2018","Thu, Feb  1, 2018"
6494,Friedman Memorial,Hailey,United States,SUN,KSUN,43.504444,-114.296194,5320,-7,A,"Sun Valley/Hailey/Ketchum, ID",93,93,115,113,3.5698924731182795,21.17204301075269,11.0,129.0,"Wed, Feb 21, 2018","Mon, Feb 19, 2018"
3753,Sioux Gateway-Colonel Bud Day Field,Sioux City,United States,SUX,KSUX,42.402603,-96.384367,1098,-6,A,"Sioux City, IA",86,84,94,93,4.186046511627906,16.23809523809524,10.0,56.0,"Wed, Feb 21, 2018","Wed, Feb  7, 2018"
3661,Stewart International,Newburgh,United States,SWF,KSWF,41.504094,-74.104839,491,-5,A,"Newburgh/Poughkeepsie, NY",130,128,133,133,6.130769230769231,16.679687500000018,22.0,90.0,"Wed, Feb  7, 2018","Sun, Feb  4, 2018"
3745,Syracuse Hancock International,Syracuse,United States,SYR,KSYR,43.111187,-76.106311,421,-5,A,"Syracuse, NY",939,936,966,967,4.712460063897771,22.181623931623925,20.0,106.0,"Sun, Feb 18, 2018","Thu, Feb  8, 2018"
3698,Tallahassee Regional,Tallahassee,United States,TLH,KTLH,30.396528,-84.350333,81,-5,A,"Tallahassee, FL",439,437,444,443,4.726651480637807,13.043478260869563,32.0,89.0,"Wed, Feb 21, 2018","Tue, Feb 20, 2018"
4040,Toledo,Toledo,United States,TOL,KTOL,41.586806,-83.807833,684,-5,A,"Toledo, OH",162,162,171,171,3.8580246913580245,12.666666666666666,10.0,62.0,"Wed, Feb  7, 2018","Wed, Feb  7, 2018"
3646,Tampa International,Tampa,United States,TPA,KTPA,27.975472,-82.53325,26,-5,A,"Tampa, FL",5963,5961,6007,6006,5.368606406171377,14.560140915953689,77.0,66.0,"Tue, Feb 13, 2018","Sun, Feb  4, 2018"
4116,Tri-Cities Regional Airport,BRISTOL,United States,TRI,KTRI,36.4752222,-82.4074167,1519,-5,A,"Bristol/Johnson City/Kingsport, TN",268,265,272,271,4.070895522388056,14.713207547169809,9.0,72.0,"Sun, Feb 11, 2018","Tue, Feb 27, 2018"
3447,Trenton Mercer,Trenton,United States,TTN,KTTN,40.276692,-74.813469,213,-5,A,"Trenton, NJ",147,148,154,152,7.340136054421769,13.62837837837838,16.0,45.0,"Sat, Feb 24, 2018","Sun, Feb 11, 2018"
3855,Tulsa International,Tulsa,United States,TUL,KTUL,36.198389,-95.888111,677,-6,A,"Tulsa, OK",1207,1210,1243,1241,4.483015741507871,15.304958677685951,40.0,111.0,"Thu, Feb 15, 2018","Sun, Feb  4, 2018"
3636,Tucson International,Tucson,United States,TUS,KTUS,32.116083,-110.941028,2643,-7,N,"Tucson, AZ",1422,1419,1434,1432,4.683544303797477,15.692036645525015,46.0,95.0,"Fri, Feb 16, 2018","Fri, Feb  9, 2018"
4023,Cherry Capital Airport,Traverse City,United States,TVC,KTVC,44.741445,-85.582235,624,-5,A,"Traverse City, MI",198,197,209,210,4.368686868686869,18.664974619289353,27.0,50.0,"Tue, Feb  6, 2018","Sat, Feb  3, 2018"
4263,Magic Valley Regional Airport,Twin Falls,United States,TWF,KTWF,42.481803,-114.487733,4151,-7,A,"Twin Falls, ID",80,99,80,99,3.187499999999999,14.818181818181818,6.0,59.0,"Mon, Feb  5, 2018","Thu, Feb 22, 2018"
3770,Texarkana Regional-Webb Field,Texarkana,United States,TXK,KTXK,33.453722,-93.991028,390,-6,A,"Texarkana, AR",67,68,75,75,3.8507462686567164,15.235294117647058,7.0,48.0,"Sat, Feb  3, 2018","Thu, Feb 22, 2018"
3848,Tyler Pounds Regional,Tyler,United States,TYR,KTYR,32.354139,-95.402386,544,-6,A,"Tyler, TX",91,91,104,104,4.681318681318684,16.736263736263737,10.0,90.0,"Thu, Feb 22, 2018","Sat, Feb 24, 2018"
3676,McGhee Tyson,Knoxville,United States,TYS,KTYS,35.810972,-83.994028,981,-5,A,"Knoxville, TN",1045,1049,1066,1067,4.283253588516747,16.283126787416624,42.0,104.0,"Mon, Feb  5, 2018","Tue, Feb 27, 2018"
5774,Quincy Regional-Baldwin Field,Quincy,United States,UIN,KUIN,39.9427,-91.1946,769,-6,A,"Quincy, IL",57,56,72,72,4.0175438596491215,14.535714285714286,7.0,56.0,"Mon, Feb 12, 2018","Tue, Feb 20, 2018"
5776,Valdosta Regional Airport,Valdosta,United States,VLD,KVLD,30.7825,-83.2767,203,-5,A,"Valdosta, GA",77,77,78,78,3.9740259740259742,16.441558441558442,8.0,47.0,"Sun, Feb 18, 2018","Sat, Feb 24, 2018"
3873,Eglin AFB,Valparaiso,United States,VPS,KVPS,30.48325,-86.5254,87,-6,A,"Valparaiso, FL",437,436,441,440,8.31578947368421,14.763761467889909,38.0,41.0,"Sun, Feb 11, 2018","Tue, Feb  6, 2018"
5969,Wrangell Airport,Wrangell,United States,WRG,PAWG,56.4843,-132.37,44,-9,A,"Wrangell, AK",55,54,56,56,3.8,9.074074074074073,7.0,68.0,"Thu, Feb  1, 2018","Thu, Feb 15, 2018"
4356,NW Arkansas Regional,Bentonville,United States,XNA,KXNA,36.2818694,-94.3068111,1287,-6,A,"Fayetteville, AR",927,929,958,958,5.939590075512407,17.277717976318606,52.0,101.0,"Wed, Feb 21, 2018","Sun, Feb 11, 2018"
6803,Yakutat,Yakutat,United States,YAK,PAYA,59.3012,-139.3937,33,-9,A,"Yakutat, AK",53,53,56,56,4.320754716981131,10.377358490566042,8.0,40.0,"Thu, Feb 22, 2018","Thu, Feb 22, 2018"
3596,Yuma MCAS Yuma International,Yuma,United States,YUM,KYUM,32.656578,-114.60598,216,-7,N,"Yuma, AZ",110,109,110,109,3.481818181818182,16.788990825688074,7.0,49.0,"Sat, Feb 17, 2018","Fri, Feb 16, 2018"
