airport_id,name,city,country,iata_faa,iaco,latitude,longitude,altitude,zone,dst,city_state,avg_able_landings,avg_able_takeoffs,total_landings,total_takeoffs,avg_taxi_in,avg_taxi_out,longest_taxi_in,longest_taxi_out,lng_tx_in_date,lng_tx_out_date
4355,Lehigh Valley International,Allentown,United States,ABE,KABE,40.652083,-75.440806,393,-5,A,"Allentown/Bethlehem/Easton, PA",334,334,349,350,4.691616766467069,13.550898203592817,17.0,68.0,"Sat, Jun  9, 2018","Thu, Jun 28, 2018"
3718,Abilene Regional,Abilene,United States,ABI,KABI,32.411319,-99.681897,1791,-6,A,"Abilene, TX",166,167,170,170,4.102409638554216,10.431137724550902,24.0,38.0,"Tue, Jun 26, 2018","Mon, Jun 18, 2018"
4019,Albuquerque International Sunport,Albuquerque,United States,ABQ,KABQ,35.0402222,-106.6091944,5355,-7,A,"Albuquerque, NM",2151,2153,2167,2166,5.635053463505344,12.16813748258245,64.0,84.0,"Sun, Jun  3, 2018","Tue, Jun 19, 2018"
5714,Aberdeen Regional Airport,Aberdeen,United States,ABR,KABR,45.4491,-98.4218,1302,-6,A,"Aberdeen, SD",60,60,60,60,4.8,16.616666666666667,9.0,37.0,"Tue, Jun 12, 2018","Wed, Jun  6, 2018"
5715,Southwest Georgia Regional Airport,Albany,United States,ABY,KABY,31.5355,-84.1945,197,-5,A,"Albany, GA",84,84,86,86,3.7142857142857144,17.035714285714292,6.0,103.0,"Thu, Jun 14, 2018","Mon, Jun 11, 2018"
3517,Nantucket Memorial,Nantucket,United States,ACK,KACK,41.253053,-70.060181,48,-5,A,"Nantucket, MA",173,171,177,177,6.0173410404624255,14.526315789473681,32.0,83.0,"Sat, Jun 30, 2018","Sat, Jun  9, 2018"
3700,Waco Regional,Waco,United States,ACT,KACT,31.611289,-97.230519,516,-6,A,"Waco, TX",143,142,145,145,3.3706293706293704,11.140845070422532,9.0,27.0,"Sun, Jun 17, 2018","Fri, Jun  1, 2018"
4384,Arcata,Arcata CA,United States,ACV,KACV,40.978111,-124.108611,221,-8,A,"Arcata/Eureka, CA",141,141,142,142,5.75177304964539,11.595744680851068,24.0,52.0,"Mon, Jun 25, 2018","Fri, Jun 22, 2018"
3524,Atlantic City International,Atlantic City,United States,ACY,KACY,39.457583,-74.577167,75,-5,A,"Atlantic City, NJ",258,257,258,258,4.934108527131783,10.887159533073927,10.0,48.0,"Wed, Jun  6, 2018","Tue, Jun 12, 2018"
5959,Adak Airport,Adak Island,United States,ADK,PADK,51.878,-176.646,18,-10,A,"Adak Island, AK",9,9,9,9,4.333333333333333,9.555555555555555,5.0,32.0,"Sat, Jun 23, 2018","Wed, Jun 27, 2018"
3531,Kodiak,Kodiak,United States,ADQ,PADQ,57.749967,-152.493856,78,-9,A,"Kodiak, AK",54,54,55,55,2.962962962962963,7.314814814814815,5.0,24.0,"Sun, Jun 24, 2018","Thu, Jun 28, 2018"
3852,Alexandria International,Alexandria,United States,AEX,KAEX,31.3274,-92.549833,89,-6,A,"Alexandria, LA",290,291,290,291,3.341379310344828,14.67697594501718,30.0,70.0,"Fri, Jun 22, 2018","Sun, Jun  3, 2018"
3658,Augusta Regional At Bush Field,Bush Field,United States,AGS,KAGS,33.369944,-81.9645,144,-5,A,"Augusta, GA",378,376,406,405,5.119047619047617,16.204787234042552,38.0,75.0,"Mon, Jun 11, 2018","Mon, Jun 25, 2018"
3794,King Salmon,King Salmon,United States,AKN,PAKN,58.676778,-156.649278,68,-9,A,"King Salmon, AK",28,28,28,28,3.392857142857143,9.071428571428571,7.0,20.0,"Wed, Jun 27, 2018","Mon, Jun 11, 2018"
3864,Albany International,Albany,United States,ALB,KALB,42.748267,-73.801692,285,-5,A,"Albany, NY",1001,999,1016,1018,3.6833166833166833,11.907907907907912,39.0,76.0,"Fri, Jun  8, 2018","Fri, Jun  8, 2018"
5718,Waterloo Regional Airport,Waterloo,United States,ALO,KALO,42.5571,-92.4003,873,-6,A,"Waterloo, IA",49,50,55,55,3.7346938775510203,13.28,8.0,31.0,"Sun, Jun 10, 2018","Fri, Jun 15, 2018"
3840,Rick Husband Amarillo International,Amarillo,United States,AMA,KAMA,35.219369,-101.705931,3607,-6,A,"Amarillo, TX",458,457,469,469,4.919213973799128,11.750547045951864,70.0,63.0,"Tue, Jun 12, 2018","Wed, Jun 20, 2018"
3774,Ted Stevens Anchorage International,Anchorage,United States,ANC,PANC,61.174361,-149.996361,152,-9,A,"Anchorage, AK",2060,2070,2076,2079,4.236407766990295,13.534782608695652,36.0,76.0,"Thu, Jun  7, 2018","Sat, Jun 30, 2018"
5720,Alpena County Regional Airport,Alpena,United States,APN,KAPN,45.0781,-83.5603,689,-5,A,"Alpena, MI",51,52,51,52,4.666666666666669,15.48076923076923,10.0,40.0,"Sun, Jun 17, 2018","Mon, Jun 11, 2018"
7001,Aspen/Pitkin County-Sardy Field,Aspen,United States,ASE,KASE,39.2232,-106.869,7820,-7,A,"Aspen, CO",496,494,499,496,2.8951612903225796,15.382591093117409,49.0,82.0,"Sun, Jun 17, 2018","Thu, Jun  7, 2018"
3682,Hartsfield Jackson Atlanta International,Atlanta,United States,ATL,KATL,33.636719,-84.428067,1026,-5,A,"Atlanta, GA",33644,33636,33857,33854,9.033884199262928,19.41152336782039,127.0,156.0,"Mon, Jun 25, 2018","Thu, Jun 28, 2018"
4047,Appleton,Appleton,United States,ATW,KATW,44.257526,-88.507576,680,-6,A,"Appleton, WI",352,354,357,358,4.400568181818181,15.508474576271187,29.0,112.0,"Sun, Jun 17, 2018","Wed, Jun  6, 2018"
3673,Austin Bergstrom International,Austin,United States,AUS,KAUS,30.194528,-97.669889,542,-6,A,"Austin, TX",5605,5595,5648,5647,7.244959857270298,12.95120643431636,92.0,102.0,"Sun, Jun  3, 2018","Sun, Jun  3, 2018"
4007,Asheville Regional Airport,Asheville,United States,AVL,KAVL,35.436194,-82.541806,2165,-5,A,"Asheville, NC",677,676,719,718,4.868537666174291,17.35798816568051,23.0,84.0,"Sat, Jun 23, 2018","Sun, Jun 17, 2018"
4286,Wilkes Barre Scranton International,Scranton,United States,AVP,KAVP,41.338478,-75.723403,962,-5,A,"Scranton/Wilkes-Barre, PA",274,273,290,291,4.642335766423358,12.615384615384619,41.0,65.0,"Wed, Jun 13, 2018","Tue, Jun  5, 2018"
6505,Phoenix-Mesa Gateway,Mesa,United States,AZA,KIWA,33.307833,-111.655,1382,-7,N,"Phoenix, AZ",446,446,451,449,5.737668161434978,12.327354260089686,13.0,39.0,"Wed, Jun  6, 2018","Fri, Jun 22, 2018"
4039,Kalamazoo,Kalamazoo,United States,AZO,KAZO,42.234875,-85.552058,874,-5,A,"Kalamazoo, MI",231,230,242,242,3.4891774891774894,16.395652173913035,12.0,47.0,"Mon, Jun 11, 2018","Thu, Jun  7, 2018"
3825,Bradley International,Windsor Locks,United States,BDL,KBDL,41.938889,-72.683222,173,-5,A,"Hartford, CT",2269,2260,2310,2311,5.475099162626717,12.806637168141581,64.0,131.0,"Sun, Jun 24, 2018","Sun, Jun 24, 2018"
3599,Bethel,Bethel,United States,BET,PABE,60.779778,-161.838,121,-9,A,"Bethel, AK",65,65,68,68,3.523076923076923,8.046153846153848,5.0,22.0,"Fri, Jun 22, 2018","Sat, Jun 30, 2018"
5723,Western Nebraska Regional Airport,Scottsbluff,United States,BFF,KBFF,41.874,-103.596,3967,-7,A,"Scottsbluff, NE",50,50,51,51,3.68,15.799999999999997,6.0,80.0,"Thu, Jun 21, 2018","Thu, Jun 14, 2018"
3558,Meadows Field,Bakersfield,United States,BFL,KBFL,35.433598,-119.05677,507,-8,A,"Bakersfield, CA",204,204,205,205,4.730392156862747,16.426470588235293,13.0,87.0,"Sun, Jun 17, 2018","Wed, Jun 20, 2018"
4129,Greater Binghamton-Edwin A. Link Field,Binghamton,United States,BGM,KBGM,42.208689,-75.979839,1636,-5,A,"Binghamton, NY",75,75,75,75,3.8266666666666667,13.986666666666666,8.0,30.0,"Sat, Jun 16, 2018","Thu, Jun  7, 2018"
3463,Bangor International,Bangor,United States,BGR,KBGR,44.807444,-68.828139,192,-5,A,"Bangor, ME",410,411,420,419,5.253658536585366,15.435523114355231,38.0,97.0,"Fri, Jun 29, 2018","Fri, Jun  1, 2018"
3811,Birmingham International,Birmingham,United States,BHM,KBHM,33.562942,-86.75355,644,-6,A,"Birmingham, AL",1499,1495,1561,1561,4.151434289526353,14.338461538461535,114.0,106.0,"Sun, Jun 10, 2018","Mon, Jun 25, 2018"
4021,Billings Logan International Airport,Billings,United States,BIL,KBIL,45.80921,-108.537654,3652,-7,A,"Billings, MT",357,354,358,357,3.9635854341736754,12.361581920903966,17.0,39.0,"Sat, Jun 30, 2018","Fri, Jun 22, 2018"
4083,Bismarck Municipal Airport,Bismarck,United States,BIS,KBIS,46.775842,-100.757931,1661,-6,A,"Bismarck/Mandan, ND",336,336,341,340,6.214285714285718,15.845238095238084,42.0,93.0,"Mon, Jun 11, 2018","Sun, Jun 24, 2018"
4287,Bemidji Regional Airport,Bemidji,United States,BJI,KBJI,47.510722,-94.934722,1391,-6,A,"Bemidji, MN",60,60,60,60,4.65,16.81666666666667,7.0,50.0,"Sat, Jun  2, 2018","Wed, Jun  6, 2018"
6962,Branson LLC,Branson,United States,BKG,KBBG,36.531994,-93.200556,1302,-6,A,"Branson, MO",7,7,8,8,8.142857142857142,8.571428571428571,11.0,21.0,"Mon, Jun 18, 2018","Sat, Jun 23, 2018"
3777,Bellingham International,Bellingham,United States,BLI,KBLI,48.792694,-122.537528,170,-8,A,"Bellingham, WA",167,168,171,172,5.934131736526949,12.190476190476193,13.0,39.0,"Thu, Jun 14, 2018","Tue, Jun 12, 2018"
3790,Scott AFB Midamerica,Belleville,United States,BLV,KBLV,38.545178,-89.835183,459,-6,A,"Belleville, IL",125,124,126,127,6.344,10.588709677419356,55.0,26.0,"Thu, Jun 28, 2018","Thu, Jun  7, 2018"
4037,Central Illinois Regional,Bloomington,United States,BMI,KBMI,40.477111,-88.915917,871,-6,A,"Bloomington/Normal, IL",264,265,277,278,3.91666666666667,12.68679245283019,12.0,74.0,"Sun, Jun 10, 2018","Fri, Jun  1, 2018"
3690,Nashville International,Nashville,United States,BNA,KBNA,36.124472,-86.678194,599,-6,A,"Nashville, TN",6214,6207,6283,6287,6.753459929192144,13.421298533913298,85.0,100.0,"Sun, Jun 17, 2018","Thu, Jun 14, 2018"
3495,Boise Air Terminal,Boise,United States,BOI,KBOI,43.564361,-116.222861,2871,-7,A,"Boise, ID",1694,1689,1694,1695,4.275678866587971,13.377738306690349,24.0,63.0,"Fri, Jun 15, 2018","Fri, Jun 15, 2018"
3448,General Edward Lawrence Logan International,Boston,United States,BOS,KBOS,42.364347,-71.005181,19,-5,A,"Boston, MA",12867,12874,13007,13008,8.21955389756737,20.21803635233812,93.0,126.0,"Sun, Jun 24, 2018","Thu, Jun 28, 2018"
3612,Southeast Texas Regional,Beaumont,United States,BPT,KBPT,29.950833,-94.020694,15,-6,A,"Beaumont/Port Arthur, TX",73,72,74,73,4.1643835616438345,12.708333333333336,9.0,30.0,"Sat, Jun  9, 2018","Tue, Jun 12, 2018"
5725,Brunswick Golden Isles Airport,Brunswick,United States,BQK,KBQK,31.2588,-81.4665,26,-5,A,"Brunswick, GA",88,88,89,89,3.5454545454545454,19.48863636363636,5.0,44.0,"Wed, Jun  6, 2018","Sun, Jun  3, 2018"
6957,Brainerd Lakes Regional,Brainerd,United States,BRD,KBRD,46.398308,-94.138078,1226,-6,U,"Brainerd, MN",51,51,51,51,3.6862745098039227,17.50980392156863,11.0,58.0,"Wed, Jun  6, 2018","Mon, Jun 18, 2018"
3738,Brownsville South Padre Island International,Brownsville,United States,BRO,KBRO,25.906833,-97.425861,22,-6,A,"Brownsville, TX",222,222,225,225,4.738738738738742,12.63963963963964,21.0,112.0,"Wed, Jun 20, 2018","Sun, Jun 17, 2018"
3571,Wiley Post Will Rogers Memorial,Barrow,United States,BRW,PABR,71.285446,-156.766003,44,-9,A,"Barrow, AK",59,59,60,60,3.5762711864406778,6.322033898305085,6.0,15.0,"Fri, Jun 29, 2018","Sun, Jun 10, 2018"
4022,Bert Mooney Airport,Butte,United States,BTM,KBTM,45.954806,-112.497472,5550,-7,A,"Butte, MT",55,55,55,55,3.3454545454545452,10.963636363636367,6.0,18.0,"Tue, Jun 12, 2018","Thu, Jun 21, 2018"
3846,Baton Rouge Metro-Ryan Field,Baton Rouge,United States,BTR,KBTR,30.533167,-91.149639,70,-6,A,"Baton Rouge, LA",651,650,659,659,4.018433179723506,13.867692307692305,43.0,104.0,"Tue, Jun 12, 2018","Fri, Jun 22, 2018"
3711,Burlington International,Burlington,United States,BTV,KBTV,44.471861,-73.153278,335,-5,A,"Burlington, VT",840,833,855,857,4.610714285714283,17.03241296518606,54.0,110.0,"Mon, Jun 18, 2018","Thu, Jun 14, 2018"
3820,Buffalo Niagara International,Buffalo,United States,BUF,KBUF,42.940525,-78.732167,724,-5,A,"Buffalo, NY",2236,2228,2274,2274,4.248658318425754,12.477558348294448,45.0,103.0,"Tue, Jun 26, 2018","Thu, Jun 28, 2018"
3644,Bob Hope,Burbank,United States,BUR,KBUR,34.200667,-118.358667,778,-8,A,"Burbank, CA",2090,2090,2121,2121,2.6956937799043086,13.063636363636364,35.0,86.0,"Fri, Jun  8, 2018","Fri, Jun  1, 2018"
3849,Baltimore Washington International,Baltimore,United States,BWI,KBWI,39.175361,-76.668333,146,-5,A,"Baltimore, MD",9242,9253,9470,9471,5.602683401861042,14.728628552901746,80.0,162.0,"Tue, Jun 19, 2018","Sat, Jun  9, 2018"
4020,Gallatin Field,Bozeman,United States,BZN,KBZN,45.777643,-111.160151,4500,-7,A,"Bozeman, MT",569,565,570,566,5.152899824253076,13.923893805309737,61.0,94.0,"Sat, Jun  9, 2018","Fri, Jun 15, 2018"
3561,Columbia Metropolitan,Colombia,United States,CAE,KCAE,33.938833,-81.119528,236,-5,A,"Columbia, SC",565,564,611,614,4.263716814159297,14.253546099290778,73.0,64.0,"Sun, Jun 24, 2018","Thu, Jun 28, 2018"
4112,Akron Canton Regional Airport,Akron,United States,CAK,KCAK,40.9160833,-81.4421944,1228,-5,A,"Akron, OH",578,582,622,622,6.136678200692039,14.857388316151203,32.0,62.0,"Fri, Jun  1, 2018","Tue, Jun  5, 2018"
3824,Cedar City Regional,Cedar City,United States,CDC,KCDC,37.700967,-113.098847,5622,-7,A,"Cedar City, UT",51,51,51,51,2.9607843137254903,15.117647058823529,6.0,48.0,"Wed, Jun 20, 2018","Tue, Jun 19, 2018"
3610,Merle K. Mudhole Smith,Cordova,United States,CDV,PACV,60.491778,-145.477556,48,-9,A,"Cordova, AK",60,60,60,60,3.8833333333333333,7.733333333333334,6.0,18.0,"Thu, Jun  7, 2018","Tue, Jun 26, 2018"
5728,Cape Girardeau Regional Airport,Cape Girardeau,United States,CGI,KCGI,37.2253,-89.5708,342,-6,A,"Cape Girardeau, MO",48,50,50,51,5.166666666666666,18.96,9.0,33.0,"Mon, Jun 18, 2018","Thu, Jun 14, 2018"
3578,Lovell Field,Chattanooga,United States,CHA,KCHA,35.035278,-85.203808,683,-5,A,"Chattanooga, TN",757,756,783,781,5.919418758256273,16.316137566137577,49.0,90.0,"Wed, Jun 27, 2018","Wed, Jun 27, 2018"
4015,Charlottesville-Albemarle,Charlottesville VA,United States,CHO,KCHO,38.138639,-78.452861,639,-5,A,"Charlottesville, VA",440,438,463,463,4.134090909090899,15.173515981735159,68.0,92.0,"Sun, Jun 10, 2018","Sat, Jun  9, 2018"
3806,Charleston AFB International,Charleston,United States,CHS,KCHS,32.898647,-80.040528,45,-5,A,"Charleston, SC",2232,2224,2283,2285,6.731182795698927,14.636241007194242,107.0,73.0,"Fri, Jun 15, 2018","Mon, Jun 25, 2018"
4043,Cedar Rapids,Cedar Rapids,United States,CID,KCID,41.884694,-91.710806,869,-6,A,"Cedar Rapids/Iowa City, IA",766,766,796,796,6.398172323759791,14.228459530026115,64.0,66.0,"Wed, Jun 27, 2018","Sun, Jun 10, 2018"
5729,Chippewa County International Airport,Sault Ste. Marie,United States,CIU,KCIU,46.2508,-84.4724,800,-5,A,"Sault Ste. Marie, MI",55,55,55,55,4.945454545454545,19.709090909090914,12.0,55.0,"Sat, Jun  2, 2018","Sun, Jun 17, 2018"
5730,Harrison Marion Regional Airport,Clarksburg,United States,CKB,KCKB,39.2966,-80.2281,1217,-5,A,"Clarksburg/Fairmont, WV",70,68,71,71,4.9142857142857155,15.852941176470589,21.0,47.0,"Wed, Jun  6, 2018","Thu, Jun 21, 2018"
3486,Cleveland Hopkins International,Cleveland,United States,CLE,KCLE,41.411689,-81.849794,791,-5,A,"Cleveland, OH",4072,4066,4174,4173,6.768172888015717,14.410723069355631,42.0,144.0,"Mon, Jun 11, 2018","Mon, Jun 18, 2018"
3715,Easterwood Field,College Station,United States,CLL,KCLL,30.588583,-96.363833,321,-6,A,"College Station/Bryan, TX",175,175,178,178,4.93142857142857,11.120000000000001,24.0,28.0,"Fri, Jun 29, 2018","Fri, Jun 22, 2018"
3876,Charlotte Douglas International,Charlotte,United States,CLT,KCLT,35.214,-80.943139,748,-5,A,"Charlotte, NC",18475,18578,19917,19912,12.69542625169148,19.610991495316938,130.0,135.0,"Fri, Jun  1, 2018","Fri, Jun  1, 2018"
3759,Port Columbus International,Columbus,United States,CMH,KCMH,39.997972,-82.891889,815,-5,A,"Columbus, OH",3881,3877,3968,3968,7.249420252512243,14.620324993551693,59.0,106.0,"Fri, Jun  8, 2018","Sun, Jun 10, 2018"
4049,Champaign,Champaign,United States,CMI,KCMI,40.03925,-88.278056,754,-6,A,"Champaign/Urbana, IL",189,188,200,200,5.005291005291006,12.505319148936179,30.0,62.0,"Sun, Jun 10, 2018","Tue, Jun  5, 2018"
5732,Houghton County Memorial Airport,Hancock,United States,CMX,KCMX,47.1684,-88.4891,1095,-5,A,"Hancock/Houghton, MI",56,58,60,60,4.714285714285716,15.551724137931034,7.0,57.0,"Tue, Jun  5, 2018","Fri, Jun  8, 2018"
7074,Canyonlands Field,Moab,United States,CNY,KCNY,38.755,-109.754722,4555,-7,A,"Moab, UT",52,52,52,52,5.903846153846154,16.961538461538467,10.0,74.0,"Thu, Jun 14, 2018","Sat, Jun 30, 2018"
4344,Yellowstone Regional,Cody,United States,COD,KCOD,44.520194,-109.023806,5102,-7,A,"Cody, WY",48,49,48,49,3.8541666666666665,15.632653061224495,7.0,29.0,"Sat, Jun 30, 2018","Fri, Jun 29, 2018"
3819,City Of Colorado Springs Municipal,Colorado Springs,United States,COS,KCOS,38.805805,-104.700778,6187,-7,A,"Colorado Springs, CO",934,937,950,950,7.5610278372591,18.435432230522945,182.0,124.0,"Tue, Jun 12, 2018","Sat, Jun  9, 2018"
3719,Columbia Regional,Columbia,United States,COU,KCOU,38.818094,-92.219631,889,-6,A,"Columbia, MO",175,175,179,179,4.4742857142857115,14.56,59.0,34.0,"Tue, Jun 26, 2018","Sun, Jun 10, 2018"
3872,Natrona County International,Casper,United States,CPR,KCPR,42.908,-106.464417,5347,-7,A,"Casper, WY",102,101,103,102,5.450980392156864,13.742574257425742,25.0,31.0,"Tue, Jun 19, 2018","Sun, Jun 17, 2018"
3744,Corpus Christi International,Corpus Christi,United States,CRP,KCRP,27.770361,-97.501222,44,-6,A,"Corpus Christi, TX",447,445,459,459,3.863534675615213,11.822471910112355,18.0,44.0,"Fri, Jun 15, 2018","Fri, Jun 15, 2018"
4285,Yeager,Charleston,United States,CRW,KCRW,38.373147,-81.593189,981,-5,A,"Charleston/Dunbar, WV",316,315,338,339,4.094936708860763,14.48571428571429,27.0,115.0,"Wed, Jun 27, 2018","Fri, Jun  1, 2018"
4255,Columbus Metropolitan Airport,Columbus,United States,CSG,KCSG,32.5163333,-84.9388611,397,-5,A,"Columbus, GA",113,113,115,115,3.327433628318584,16.38053097345133,15.0,99.0,"Fri, Jun 22, 2018","Thu, Jun 28, 2018"
3488,Cincinnati Northern Kentucky International,Cincinnati,United States,CVG,KCVG,39.048836,-84.667822,896,-5,A,"Cincinnati, OH",4376,4366,4489,4489,6.49840036563071,14.508703618873112,88.0,121.0,"Tue, Jun 26, 2018","Fri, Jun  8, 2018"
4045,Central Wisconsin,Wassau,United States,CWA,KCWA,44.772726,-89.646635,840,-6,A,"Mosinee, WI",244,243,253,254,4.08196721311475,15.296296296296296,14.0,70.0,"Sat, Jun  2, 2018","Sun, Jun 10, 2018"
3950,Daytona Beach International,Daytona Beach,United States,DAB,KDAB,29.179917,-81.058056,34,-5,A,"Daytona Beach, FL",295,295,311,311,5.271186440677968,16.023728813559327,106.0,111.0,"Thu, Jun 21, 2018","Mon, Jun 25, 2018"
3502,Dallas Love Field,Dallas,United States,DAL,KDAL,32.847111,-96.851778,487,-6,A,"Dallas, TX",5865,5877,5924,5923,5.413299232736586,11.64403607282626,73.0,140.0,"Thu, Jun  7, 2018","Sun, Jun 24, 2018"
3627,James M. Cox Dayton International,Dayton,United States,DAY,KDAY,39.902375,-84.219375,1009,-5,A,"Dayton, OH",1120,1135,1206,1204,5.453571428571428,14.429074889867847,27.0,90.0,"Fri, Jun  8, 2018","Tue, Jun  5, 2018"
4388,Dubuque Regional,Dubuque IA,United States,DBQ,KDBQ,42.402,-90.709472,1076,-6,A,"Dubuque, IA",71,71,80,80,4.16901408450704,12.084507042253522,7.0,29.0,"Tue, Jun  5, 2018","Mon, Jun 11, 2018"
3520,Ronald Reagan Washington National,Washington,United States,DCA,KDCA,38.852083,-77.037722,15,-5,A,"Washington, DC",10425,10436,10810,10813,7.100047961630682,20.41126868532003,125.0,176.0,"Fri, Jun  1, 2018","Fri, Jun  1, 2018"
3751,Denver International,Denver,United States,DEN,KDEN,39.861656,-104.673178,5431,-7,A,"Denver, CO",21025,21072,21205,21206,8.632532699167626,18.39588078967345,94.0,141.0,"Sun, Jun 24, 2018","Sun, Jun 24, 2018"
3670,Dallas Fort Worth International,Dallas-fort Worth,United States,DFW,KDFW,32.896828,-97.037997,607,-6,A,"Dallas/Fort Worth, TX",24049,24113,24579,24583,12.609089775042628,17.49877659353874,123.0,146.0,"Mon, Jun  4, 2018","Thu, Jun  7, 2018"
3739,Dothan Regional,Dothan,United States,DHN,KDHN,31.321339,-85.449628,401,-6,A,"Dothan, AL",114,114,115,115,4.166666666666665,19.105263157894736,8.0,67.0,"Fri, Jun 29, 2018","Fri, Jun 22, 2018"
3460,Dillingham,Dillingham,United States,DLG,PADL,59.044667,-158.5055,74,-9,A,"Dillingham, AK",28,28,28,28,4.428571428571429,8.85714285714286,7.0,17.0,"Wed, Jun 27, 2018","Tue, Jun  5, 2018"
3598,Duluth International,Duluth,United States,DLH,KDLH,46.842091,-92.193649,1428,-6,A,"Duluth, MN",242,244,249,250,4.714876033057852,18.831967213114755,29.0,83.0,"Wed, Jun 27, 2018","Sat, Jun  9, 2018"
3713,Durango La Plata County,Durango,United States,DRO,KDRO,37.151516,-107.75377,6685,-7,A,"Durango, CO",305,304,315,314,5.59672131147541,14.953947368421053,16.0,85.0,"Wed, Jun 20, 2018","Thu, Jun  7, 2018"
3729,Des Moines International,Des Moines,United States,DSM,KDSM,41.533972,-93.663083,958,-6,A,"Des Moines, IA",1280,1282,1317,1320,6.000000000000002,13.097503900156001,78.0,127.0,"Fri, Jun 15, 2018","Fri, Jun  8, 2018"
3645,Detroit Metro Wayne County,Detroit,United States,DTW,KDTW,42.212444,-83.353389,645,-5,A,"Detroit, MI",13609,13599,13693,13687,8.203247850687102,17.619236708581543,106.0,142.0,"Mon, Jun 18, 2018","Sat, Jun  2, 2018"
7063,Devils Lake Regional Airport,Devils Lake,United States,DVL,KDVL,48.114444,-98.908611,1445,-6,A,"Devils Lake, ND",51,51,51,51,5.176470588235293,16.823529411764703,13.0,30.0,"Sat, Jun 16, 2018","Mon, Jun 25, 2018"
5735,Chippewa Valley Regional Airport,Eau Claire,United States,EAU,KEAU,44.8658,-91.4843,913,-6,A,"Eau Claire, WI",60,59,60,60,4.1,17.49152542372882,13.0,101.0,"Sat, Jun 30, 2018","Sun, Jun 10, 2018"
7669,Northwest Florida Beaches International,Panama City,United States,ECP,KECP,30.3417,-85.7973,69,-6,A,"Panama City, FL",577,575,579,577,3.7573656845753898,12.16869565217391,32.0,71.0,"Fri, Jun  8, 2018","Fri, Jun 22, 2018"
4250,Eagle County Regional,Vail,United States,EGE,KEGE,39.642556,-106.917694,6540,-7,A,"Eagle, CO",73,71,73,72,4.876712328767123,14.591549295774648,8.0,35.0,"Sat, Jun 16, 2018","Tue, Jun 12, 2018"
5736,Elko Regional Airport,Elko,United States,EKO,KEKO,40.8249,-115.792,5140,-8,A,"Elko, NV",51,51,51,51,4.019607843137253,11.333333333333336,9.0,25.0,"Wed, Jun 20, 2018","Thu, Jun  7, 2018"
3946,Elmira Corning Regional,Elmira,United States,ELM,KELM,42.159889,-76.891611,954,-5,A,"Elmira/Corning, NY",23,23,23,23,5.0,10.869565217391305,7.0,18.0,"Mon, Jun 11, 2018","Sat, Jun 30, 2018"
3559,El Paso International,El Paso,United States,ELP,KELP,31.80725,-106.377583,3958,-7,A,"El Paso, TX",1468,1467,1486,1487,3.786784741144414,13.448534423994554,27.0,67.0,"Tue, Jun  5, 2018","Sun, Jun 10, 2018"
4276,Erie International-Tom Ridge Field,Erie,United States,ERI,KERI,42.082022,-80.176217,733,-5,A,"Erie, PA",76,76,76,76,3.6315789473684212,20.052631578947373,6.0,53.0,"Sat, Jun 16, 2018","Wed, Jun 27, 2018"
6800,Delta County Airport,Escanaba,United States,ESC,KESC,45.722778,-87.093611,609,-5,A,"Escanaba, MI",51,52,51,52,4.431372549019607,12.634615384615385,7.0,25.0,"Thu, Jun 14, 2018","Wed, Jun 27, 2018"
4099,Mahlon Sweet Field,Eugene,United States,EUG,KEUG,44.124583,-123.211972,374,-8,A,"Eugene, OR",395,394,396,396,5.144303797468353,13.228426395939087,30.0,37.0,"Sun, Jun 17, 2018","Mon, Jun 18, 2018"
4018,Evansville Regional,Evansville,United States,EVV,KEVV,38.036997,-87.532364,418,-6,A,"Evansville, IN",393,394,412,412,4.809160305343515,17.91116751269035,26.0,147.0,"Tue, Jun 19, 2018","Mon, Jun 11, 2018"
3730,Craven County Regional,New Bern,United States,EWN,KEWN,35.072972,-77.042944,18,-5,A,"New Bern/Morehead/Beaufort, NC",181,179,201,201,4.30939226519337,13.089385474860336,82.0,55.0,"Sun, Jun 24, 2018","Fri, Jun  1, 2018"
3494,Newark Liberty International,Newark,United States,EWR,KEWR,40.6925,-74.168667,18,-5,A,"Newark, NJ",12031,12051,12174,12190,9.333887457401655,23.54086797776115,113.0,156.0,"Sun, Jun 24, 2018","Mon, Jun 18, 2018"
3875,Key West International,Key West,United States,EYW,KEYW,24.556111,-81.759556,3,-5,A,"Key West, FL",328,327,329,329,4.963414634146342,10.923547400611618,35.0,56.0,"Sat, Jun 16, 2018","Sat, Jun 16, 2018"
3832,Fairbanks International,Fairbanks,United States,FAI,PAFA,64.815114,-147.856267,434,-9,A,"Fairbanks, AK",446,446,449,449,3.497757847533632,10.957399103139016,8.0,34.0,"Fri, Jun  8, 2018","Mon, Jun 11, 2018"
4292,Hector International Airport,Fargo,United States,FAR,KFAR,46.92065,-96.8157639,902,-6,A,"Fargo, ND",486,486,495,495,4.858024691358021,15.864197530864194,42.0,80.0,"Thu, Jun 28, 2018","Sun, Jun 24, 2018"
3687,Fresno Yosemite International,Fresno,United States,FAT,KFAT,36.776194,-119.71814,336,-8,A,"Fresno, CA",1006,1006,1013,1014,5.344930417495026,14.967196819085487,24.0,74.0,"Wed, Jun 27, 2018","Thu, Jun  7, 2018"
5738,Fayetteville Regional-Grannis Field,Fayetteville,United States,FAY,KFAY,34.9912,-78.8803,189,-5,A,"Fayetteville, NC",322,321,346,346,4.496894409937894,15.401869158878505,35.0,101.0,"Mon, Jun 18, 2018","Sat, Jun  2, 2018"
4127,Glacier Park International,Kalispell,United States,FCA,KFCA,48.310472,-114.256,2977,-7,A,"Kalispell, MT",305,302,305,303,4.160655737704919,15.129139072847682,24.0,58.0,"Sat, Jun 23, 2018","Sat, Jun 30, 2018"
4261,Flagstaff Pulliam Airport,Flagstaff,United States,FLG,KFLG,35.140318,-111.6692392,7015,-7,N,"Flagstaff, AZ",104,104,104,104,3.5576923076923075,16.096153846153857,6.0,78.0,"Mon, Jun 18, 2018","Sat, Jun  9, 2018"
3533,Fort Lauderdale Hollywood International,Fort Lauderdale,United States,FLL,KFLL,26.072583,-80.15275,9,-5,A,"Fort Lauderdale, FL",7880,7886,7944,7942,6.42157360406091,17.772508242455046,94.0,151.0,"Thu, Jun  7, 2018","Fri, Jun 22, 2018"
4089,Bishop International,Flint,United States,FNT,KFNT,42.965424,-83.743629,782,-5,A,"Flint, MI",337,336,350,351,4.715133531157267,13.092261904761905,44.0,83.0,"Tue, Jun 12, 2018","Tue, Jun 19, 2018"
4009,Sioux Falls,Sioux Falls,United States,FSD,KFSD,43.582014,-96.741914,1429,-6,A,"Sioux Falls, SD",496,498,510,511,4.951612903225809,15.64658634538153,35.0,65.0,"Sat, Jun 23, 2018","Tue, Jun 26, 2018"
3437,Fort Smith Regional,Fort Smith,United States,FSM,KFSM,35.336583,-94.367444,469,-6,A,"Fort Smith, AR",171,171,174,174,4.017543859649124,12.953216374269003,11.0,64.0,"Thu, Jun 14, 2018","Wed, Jun 20, 2018"
4041,Fort Wayne,Fort Wayne,United States,FWA,KFWA,40.978472,-85.195139,815,-5,A,"Fort Wayne, IN",588,593,605,606,5.916666666666667,15.54468802698145,42.0,64.0,"Sun, Jun 17, 2018","Fri, Jun 22, 2018"
4296,Gillette-Campbell County Airport,Gillette,United States,GCC,KGCC,44.3489167,-105.5393611,4365,-7,A,"Gillette, WY",77,77,77,77,5.4025974025974035,17.649350649350644,8.0,131.0,"Tue, Jun  5, 2018","Fri, Jun 29, 2018"
3497,Garden City Regional,Garden City,United States,GCK,KGCK,37.927528,-100.724417,2891,-6,A,"Garden City, KS",59,58,60,60,4.067796610169491,9.982758620689655,9.0,24.0,"Sat, Jun 23, 2018","Sat, Jun 30, 2018"
3467,Spokane International,Spokane,United States,GEG,KGEG,47.619861,-117.533833,2376,-8,A,"Spokane, WA",1074,1075,1079,1080,3.830540037243948,11.952558139534878,32.0,37.0,"Sun, Jun  3, 2018","Fri, Jun 15, 2018"
3442,Grand Forks International,Grand Forks,United States,GFK,KGFK,47.949256,-97.176111,845,-6,A,"Grand Forks, ND",181,181,182,182,4.171270718232044,16.364640883977895,9.0,48.0,"Sun, Jun 24, 2018","Sun, Jun 10, 2018"
3465,East Texas Regional,Longview,United States,GGG,KGGG,32.384014,-94.711486,365,-6,A,"Longview, TX",70,70,74,74,4.814285714285715,13.485714285714286,9.0,41.0,"Wed, Jun  6, 2018","Sat, Jun 16, 2018"
4063,Grand Junction Regional,Grand Junction,United States,GJT,KGJT,39.122413,-108.526735,4858,-7,A,"Grand Junction, CO",335,334,335,334,4.161194029850742,14.751497005988025,47.0,77.0,"Mon, Jun 11, 2018","Tue, Jun 19, 2018"
3472,Gainesville Regional,Gainesville,United States,GNV,KGNV,29.690056,-82.271778,152,-5,A,"Gainesville, FL",352,352,373,374,3.4630681818181803,13.684659090909086,36.0,73.0,"Fri, Jun  1, 2018","Wed, Jun 27, 2018"
4038,Gulfport-Biloxi,Gulfport,United States,GPT,KGPT,30.407278,-89.070111,28,-6,A,"Gulfport/Biloxi, MS",391,388,399,398,4.867007672634268,13.275773195876287,94.0,67.0,"Fri, Jun 15, 2018","Mon, Jun 18, 2018"
3653,Austin Straubel International,Green Bay,United States,GRB,KGRB,44.485072,-88.129589,695,-6,A,"Green Bay, WI",382,384,399,401,3.8900523560209423,14.578124999999998,10.0,53.0,"Sat, Jun  2, 2018","Sun, Jun 10, 2018"
5740,Central Nebraska Regional Airport,Grand Island,United States,GRI,KGRI,40.9675,-98.3096,1847,-6,A,"Grand Island, NE",90,91,91,91,5.611111111111111,9.868131868131869,17.0,42.0,"Fri, Jun 29, 2018","Tue, Jun 12, 2018"
3775,Robert Gray AAF,Killeen,United States,GRK,KGRK,31.06725,-97.828917,1015,-6,A,"Killeen, TX",279,278,281,280,4.082437275985663,15.320143884892083,33.0,59.0,"Fri, Jun  1, 2018","Mon, Jun 18, 2018"
3685,Gerald R. Ford International,Grand Rapids,United States,GRR,KGRR,42.880833,-85.522806,794,-5,A,"Grand Rapids, MI",1360,1352,1398,1396,5.592647058823531,13.749999999999996,53.0,118.0,"Wed, Jun 13, 2018","Sat, Jun  9, 2018"
4008,Piedmont Triad,Greensboro,United States,GSO,KGSO,36.09775,-79.937306,925,-5,A,"Greensboro/High Point, NC",1139,1130,1193,1191,6.961369622475856,18.576991150442442,66.0,115.0,"Fri, Jun  1, 2018","Sat, Jun  9, 2018"
4034,Greenville-Spartanburg International,Greenville,United States,GSP,KGSP,34.895556,-82.218889,964,-5,A,"Greer, SC",1095,1097,1156,1158,4.222831050228308,15.713764813126708,30.0,109.0,"Tue, Jun 26, 2018","Wed, Jun 20, 2018"
5960,Gustavus Airport,Gustavus,United States,GST,PAGS,58.4253,-135.707,34,-9,A,"Gustavus, AK",28,28,28,28,5.678571428571429,9.5,9.0,24.0,"Tue, Jun  5, 2018","Sun, Jun 17, 2018"
3880,Great Falls International,Great Falls,United States,GTF,KGTF,47.482,-111.370689,3677,-7,A,"Great Falls, MT",170,170,170,170,4.247058823529411,12.294117647058819,22.0,54.0,"Tue, Jun 12, 2018","Fri, Jun 22, 2018"
4273,Golden Triangle Regional Airport,Columbus Mississippi,United States,GTR,KGTR,33.450333,-88.591361,264,-6,A,"Columbus, MS",86,86,86,86,3.5348837209302326,16.1046511627907,6.0,38.0,"Mon, Jun 18, 2018","Fri, Jun  1, 2018"
7051,Gunnison - Crested Butte,Gunnison,United States,GUC,KGUC,38.533889,-106.933056,7678,-7,A,"Gunnison, CO",5,4,5,4,3.8,15.0,6.0,19.0,"Sat, Jun  9, 2018","Sun, Jun 24, 2018"
4339,Yampa Valley,Hayden,United States,HDN,KHDN,40.481181,-107.21766,6602,-7,A,"Hayden, CO",2,1,2,1,4.0,16.0,4.0,16.0,"Fri, Jun 29, 2018","Sat, Jun 30, 2018"
6739,Hagerstown Regional-Richard A. Henson Field,Hagerstown,United States,HGR,KHGR,39.7079,-77.7295,704,-5,A,"Hagerstown, MD",17,17,17,17,5.0588235294117645,9.058823529411764,6.0,18.0,"Thu, Jun  7, 2018","Thu, Jun 14, 2018"
3650,Chisholm Hibbing,Hibbing,United States,HIB,KHIB,47.3866,-92.838994,1353,-6,A,"Hibbing, MN",51,51,51,51,3.450980392156863,12.176470588235293,9.0,50.0,"Mon, Jun  4, 2018","Tue, Jun 19, 2018"
3504,Helena Regional,Helena,United States,HLN,KHLN,46.606806,-111.98275,3877,-7,A,"Helena, MT",163,162,164,163,3.6196319018404908,14.487654320987655,21.0,45.0,"Sat, Jun 16, 2018","Thu, Jun 21, 2018"
3728,Honolulu International,Honolulu,United States,HNL,PHNL,21.318681,-157.922428,13,-10,N,"Honolulu, HI",4342,4346,4358,4358,8.392906494702881,16.011965025310634,107.0,71.0,"Sat, Jun 16, 2018","Wed, Jun 27, 2018"
3749,Lea County Regional,Hobbs,United States,HOB,KHOB,32.687528,-103.217028,3661,-7,A,"Hobbs, NM",55,55,55,55,4.818181818181818,11.50909090909091,11.0,71.0,"Fri, Jun  8, 2018","Thu, Jun  7, 2018"
3566,William P. Hobby,Houston,United States,HOU,KHOU,29.645419,-95.278889,46,-6,A,"Houston, TX",4916,4909,4976,4974,6.402563059397889,10.718476268079037,48.0,116.0,"Sat, Jun 23, 2018","Wed, Jun 20, 2018"
3589,Westchester County,White Plains,United States,HPN,KHPN,41.066959,-73.707575,439,-5,A,"White Plains, NY",815,812,845,844,4.880981595092021,16.38669950738918,34.0,114.0,"Wed, Jun 27, 2018","Tue, Jun 19, 2018"
3560,Valley International,Harlingen,United States,HRL,KHRL,26.2285,-97.654389,36,-6,A,"Harlingen/San Benito, TX",279,278,281,281,3.21505376344086,10.899280575539569,27.0,74.0,"Fri, Jun  8, 2018","Thu, Jun 14, 2018"
4113,Huntsville International Airport-Carl T. Jones Field,Huntsville,United States,HSV,KHSV,34.6371944,-86.7750556,629,-6,A,"Huntsville, AL",703,709,734,736,5.1308677098150755,15.75176304654443,28.0,94.0,"Wed, Jun 20, 2018","Wed, Jun 13, 2018"
5742,TriState-Milton J. Ferguson Field,Huntington,United States,HTS,KHTS,38.3667,-82.558,828,-5,A,"Ashland, WV",136,133,146,145,5.264705882352943,10.278195488721803,24.0,30.0,"Tue, Jun 26, 2018","Thu, Jun 28, 2018"
4006,Tweed-New Haven Airport,New Haven,United States,HVN,KHVN,41.26375,-72.886806,14,-5,A,"New Haven, CT",74,73,85,85,3.5135135135135136,9.082191780821917,10.0,38.0,"Sun, Jun 17, 2018","Mon, Jun 25, 2018"
4278,Barnstable Municipal-Boardman Polando Field,Barnstable,United States,HYA,KHYA,41.669336,-70.280356,55,-5,A,"Hyannis, MA",21,21,21,21,3.3333333333333335,7.095238095238095,6.0,11.0,"Sat, Jun 16, 2018","Sun, Jun 24, 2018"
7014,Hays Regional Airport,Hays,United States,HYS,KHYS,38.8422,-99.2732,1998,-5,A,"Hays, KS",97,97,101,101,4.783505154639176,14.11340206185567,11.0,98.0,"Tue, Jun  5, 2018","Sun, Jun 24, 2018"
3714,Washington Dulles International,Washington,United States,IAD,KIAD,38.944533,-77.455811,313,-5,A,"Washington, DC",5980,5980,6095,6097,5.9705685618729145,21.00451505016725,79.0,144.0,"Wed, Jun 13, 2018","Sat, Jun  9, 2018"
3630,Niagara Falls International,Niagara Falls,United States,IAG,KIAG,43.107333,-78.946194,589,-5,A,"Niagara Falls, NY",45,46,45,46,8.177777777777777,13.73913043478261,14.0,40.0,"Mon, Jun  4, 2018","Thu, Jun  7, 2018"
3550,George Bush Intercontinental Houston,Houston,United States,IAH,KIAH,29.984433,-95.341442,97,-6,A,"Houston, TX",14661,14661,14739,14735,8.231771366209736,18.08178159743529,100.0,125.0,"Wed, Jun 20, 2018","Wed, Jun 20, 2018"
3457,Wichita Mid Continent,Wichita,United States,ICT,KICT,37.649944,-97.433056,1333,-6,A,"Wichita, KS",897,895,911,910,4.60535117056856,13.237988826815643,64.0,65.0,"Tue, Jun 26, 2018","Thu, Jun  7, 2018"
4100,Idaho Falls Regional,Idaho Falls,United States,IDA,KIDA,43.514556,-112.07075,4744,-7,A,"Idaho Falls, ID",200,201,200,201,4.4399999999999995,12.348258706467666,22.0,51.0,"Sat, Jun 30, 2018","Tue, Jun 19, 2018"
3845,Wilmington International,Wilmington,United States,ILM,KILM,34.270615,-77.902569,32,-5,A,"Wilmington, NC",571,568,615,616,5.178633975481611,14.741197183098592,140.0,85.0,"Mon, Jun 11, 2018","Fri, Jun 22, 2018"
6837,Ford Airport,Iron Mountain,United States,IMT,KIMT,45.8183611,-88.1145556,1182,-5,A,"Iron Mountain/Kingsfd, MI",55,55,55,55,4.145454545454545,13.927272727272728,7.0,45.0,"Tue, Jun  5, 2018","Wed, Jun 20, 2018"
3585,Indianapolis International,Indianapolis,United States,IND,KIND,39.717331,-86.294383,797,-5,A,"Indianapolis, IN",4143,4140,4209,4208,6.551049963794346,13.278743961352662,96.0,120.0,"Tue, Jun 26, 2018","Wed, Jun  6, 2018"
3535,Falls International,International Falls,United States,INL,KINL,48.566186,-93.403067,1185,-6,A,"International Falls, MN",58,58,58,58,4.051724137931036,14.689655172413794,7.0,28.0,"Sun, Jun  3, 2018","Sun, Jun 17, 2018"
3659,Sloulin Field International,Williston,United States,ISN,KISN,48.177939,-103.642347,1982,-7,A,"Williston, ND",140,140,140,140,4.964285714285717,23.164285714285715,16.0,101.0,"Sun, Jun 24, 2018","Sun, Jun 24, 2018"
3857,Long Island MacArthur,Islip,United States,ISP,KISP,40.79525,-73.100222,99,-5,A,"Islip, NY",532,535,544,545,4.755639097744368,10.842990654205604,57.0,77.0,"Thu, Jun 21, 2018","Sun, Jun 24, 2018"
3947,Ithaca Tompkins Regional,Ithaca,United States,ITH,KITH,42.491028,-76.458444,1099,-5,A,"Ithaca/Cortland, NY",75,75,75,75,3.12,19.57333333333333,6.0,61.0,"Sun, Jun 10, 2018","Mon, Jun 18, 2018"
3415,Hilo International,Hilo,United States,ITO,PHTO,19.721375,-155.048469,38,-10,N,"Hilo, HI",549,519,549,519,5.58287795992714,9.254335260115608,15.0,33.0,"Thu, Jun 28, 2018","Sun, Jun  3, 2018"
4027,Jackson Hole Airport,Jacksn Hole,United States,JAC,KJAC,43.60733333,-110.73775,6451,-7,A,"Jackson, WY",459,450,462,454,4.22657952069717,16.16,48.0,58.0,"Thu, Jun 21, 2018","Sun, Jun 24, 2018"
3580,Jackson Evers International,Jackson,United States,JAN,KJAN,32.311167,-90.075889,346,-6,A,"Jackson/Vicksburg, MS",637,632,656,657,4.731554160125588,14.207278481012658,40.0,73.0,"Sat, Jun 30, 2018","Sat, Jun 16, 2018"
3712,Jacksonville International,Jacksonville,United States,JAX,KJAX,30.494056,-81.687861,30,-5,A,"Jacksonville, FL",2644,2633,2690,2689,5.936081694402416,14.247246486897076,163.0,120.0,"Tue, Jun 26, 2018","Mon, Jun 25, 2018"
3797,John F. Kennedy International,New York,United States,JFK,KJFK,40.639751,-73.778925,13,-5,A,"New York, NY",11101,11117,11228,11229,9.794072606071515,29.07897814158495,109.0,171.0,"Wed, Jun 27, 2018","Sun, Jun 24, 2018"
4354,Joplin Regional,Joplin,United States,JLN,KJLN,37.151814,-94.498269,981,-6,A,"Joplin, MO",72,72,73,73,4.986111111111111,12.319444444444441,30.0,26.0,"Fri, Jun 29, 2018","Fri, Jun  1, 2018"
5745,Jamestown Regional Airport,Jamestown,United States,JMS,KJMS,46.9297,-98.6782,1498,-6,A,"Jamestown, ND",81,81,81,81,4.444444444444446,13.950617283950617,8.0,58.0,"Fri, Jun 15, 2018","Sat, Jun 23, 2018"
3492,Juneau International,Juneau,United States,JNU,PAJN,58.354972,-134.576278,21,-9,A,"Juneau, AK",480,480,484,483,3.8895833333333334,12.954166666666671,11.0,41.0,"Tue, Jun 26, 2018","Fri, Jun  8, 2018"
3514,Kona International At Keahole,Kona,United States,KOA,PHKO,19.738767,-156.045631,47,-10,N,"Kona, HI",1365,1392,1375,1405,5.589010989010989,11.025862068965498,41.0,48.0,"Tue, Jun  5, 2018","Tue, Jun 12, 2018"
3808,Ketchikan International,Ketchikan,United States,KTN,PAKT,55.355556,-131.71375,88,-9,A,"Ketchikan, AK",254,252,257,256,4.204724409448819,11.051587301587299,13.0,43.0,"Sun, Jun 17, 2018","Thu, Jun 28, 2018"
3544,Capital City,Lansing,United States,LAN,KLAN,42.7787,-84.587357,861,-5,A,"Lansing, MI",227,227,231,232,4.1057268722466995,14.215859030837004,21.0,73.0,"Thu, Jun 28, 2018","Tue, Jun 26, 2018"
5746,Laramie Regional Airport,Laramie,United States,LAR,KLAR,41.3121,-105.675,7284,-7,A,"Laramie, WY",51,51,51,51,4.490196078431372,15.470588235294118,6.0,36.0,"Mon, Jun  4, 2018","Fri, Jun 22, 2018"
3877,McCarran International,Las Vegas,United States,LAS,KLAS,36.080056,-115.15225,2141,-8,A,"Las Vegas, NV",13583,13574,13714,13707,6.893837885592287,14.541329011345208,79.0,88.0,"Wed, Jun 13, 2018","Thu, Jun 21, 2018"
4256,Lawton-Fort Sill Regional Airport,Lawton,United States,LAW,KLAW,34.5677144,-98.4166367,1110,-6,A,"Lawton/Fort Sill, OK",119,119,120,120,3.806722689075632,11.210084033613445,27.0,32.0,"Thu, Jun  7, 2018","Wed, Jun 20, 2018"
3484,Los Angeles International,Los Angeles,United States,LAX,KLAX,33.942536,-118.408075,126,-8,A,"Los Angeles, CA",19225,19229,19377,19372,12.1401300390117,18.36169327578136,105.0,84.0,"Sun, Jun 10, 2018","Sat, Jun 30, 2018"
3829,Lubbock Preston Smith International,Lubbock,United States,LBB,KLBB,33.663639,-101.822778,3282,-6,A,"Lubbock, TX",542,540,552,551,3.9575645756457583,12.17962962962963,19.0,45.0,"Thu, Jun 28, 2018","Sun, Jun 10, 2018"
5747,Arnold Palmer Regional Airport,Latrobe,United States,LBE,KLBE,40.2759,-79.4048,1185,-5,A,"Latrobe, PA",89,89,90,90,6.224719101123595,10.752808988764047,11.0,22.0,"Fri, Jun  8, 2018","Wed, Jun 13, 2018"
5748,North Platte Regional Airport-Lee Bird Field,North Platte,United States,LBF,KLBF,41.1262,-100.684,2776,-6,A,"North Platte, NE",51,51,51,51,5.078431372549021,12.313725490196079,9.0,63.0,"Thu, Jun 28, 2018","Mon, Jun 18, 2018"
4341,Liberal Municipal,Liberal,United States,LBL,KLBL,37.044222,-100.95986,2885,-6,A,"Liberal, KS",50,51,50,51,4.699999999999999,16.313725490196077,13.0,57.0,"Tue, Jun  5, 2018","Thu, Jun  7, 2018"
3513,Lake Charles Regional,Lake Charles,United States,LCH,KLCH,30.126112,-93.223335,15,-6,A,"Lake Charles, LA",168,168,170,170,5.035714285714287,11.321428571428568,8.0,41.0,"Thu, Jun  7, 2018","Mon, Jun 18, 2018"
3674,Rickenbacker International,Columbus,United States,LCK,KLCK,39.813786,-82.927822,744,-5,A,"Columbus, OH",134,134,135,137,6.895522388059701,12.365671641791044,121.0,49.0,"Fri, Jun  8, 2018","Sat, Jun 30, 2018"
4017,Blue Grass,Lexington KY,United States,LEX,KLEX,38.0365,-84.605889,979,-5,A,"Lexington, KY",926,923,965,964,4.964362850971925,14.972914409534129,30.0,83.0,"Sun, Jun 24, 2018","Thu, Jun 28, 2018"
3493,Lafayette Regional,Lafayette,United States,LFT,KLFT,30.205278,-91.987611,43,-6,A,"Lafayette, LA",382,382,385,384,5.251308900523562,14.730366492146592,26.0,99.0,"Sun, Jun 17, 2018","Mon, Jun 18, 2018"
3697,LaGuardia Airport,New York,United States,LGA,KLGA,40.777245,-73.872608,22,-5,A,"New York, NY",14343,14383,14663,14669,9.032629157080045,26.809149690606993,120.0,164.0,"Thu, Jun 28, 2018","Sun, Jun 24, 2018"
3582,Long Beach,Long Beach,United States,LGB,KLGB,33.817722,-118.151611,60,-8,A,"Long Beach, CA",1447,1447,1453,1451,4.594333102971662,13.397373876986869,41.0,53.0,"Sat, Jun 30, 2018","Wed, Jun 27, 2018"
3602,Lihue,Lihue,United States,LIH,PHLI,21.975983,-159.338958,153,-10,N,"Lihue, HI",1267,1265,1271,1271,5.974743488555643,9.01660079051383,71.0,49.0,"Sun, Jun 24, 2018","Sun, Jun 24, 2018"
3660,Adams Field,Little Rock,United States,LIT,KLIT,34.729444,-92.224306,262,-6,A,"Little Rock, AR",1143,1148,1174,1175,5.887139107611555,13.298780487804871,60.0,93.0,"Mon, Jun 18, 2018","Sun, Jun 10, 2018"
3543,Lincoln,Lincoln,United States,LNK,KLNK,40.850971,-96.75925,1219,-6,A,"Lincoln, NE",155,155,158,158,3.9741935483870954,16.638709677419346,13.0,43.0,"Tue, Jun 26, 2018","Fri, Jun 15, 2018"
3691,Laredo International,Laredo,United States,LRD,KLRD,27.54375,-99.461556,508,-6,A,"Laredo, TX",202,202,203,203,4.059405940594055,12.910891089108913,15.0,36.0,"Wed, Jun 20, 2018","Tue, Jun  5, 2018"
4044,LaCrosse Municipal,LaCrosse,United States,LSE,KLSE,43.878986,-91.256711,654,-6,A,"La Crosse, WI",188,187,198,198,3.3723404255319154,15.721925133689842,9.0,66.0,"Fri, Jun 15, 2018","Tue, Jun 26, 2018"
6958,Greenbrier Valley Airport,Lewisburg,United States,LWB,KLWB,37.858333,-80.399444,2302,-5,U,"Lewisburg, WV",68,68,69,69,4.058823529411765,14.632352941176471,7.0,35.0,"Fri, Jun  1, 2018","Tue, Jun  5, 2018"
3945,Lewiston Nez Perce County,Lewiston,United States,LWS,KLWS,46.3745,-117.015389,1442,-8,A,"Lewiston, ID",55,55,55,55,3.8,9.890909090909089,7.0,15.0,"Fri, Jun  8, 2018","Mon, Jun 25, 2018"
5753,Lynchburg Regional-Preston Glenn Field,Lynchburg,United States,LYH,KLYH,37.3267,-79.2004,938,-5,A,"Lynchburg, VA",117,114,136,136,3.794871794871795,12.93859649122807,12.0,63.0,"Wed, Jun 13, 2018","Sun, Jun  3, 2018"
3652,Midland International,Midland,United States,MAF,KMAF,31.942528,-102.201914,2871,-6,A,"Midland/Odessa, TX",729,728,742,742,3.554183813443074,13.174450549450542,75.0,52.0,"Wed, Jun 13, 2018","Tue, Jun  5, 2018"
4128,MBS International,Saginaw,United States,MBS,KMBS,43.532913,-84.079647,668,-5,A,"Saginaw/Bay City/Midland, MI",246,248,251,253,4.353658536585364,15.38306451612903,17.0,62.0,"Sun, Jun  3, 2018","Fri, Jun  1, 2018"
3458,Kansas City International,Kansas City,United States,MCI,KMCI,39.297606,-94.713905,1026,-6,A,"Kansas City, MO",4920,4919,4977,4969,4.8288617886178775,12.462695669851607,53.0,136.0,"Sun, Jun 10, 2018","Fri, Jun  8, 2018"
3878,Orlando International,Orlando,United States,MCO,KMCO,28.429394,-81.308994,96,-5,A,"Orlando, FL",11593,11598,11695,11693,10.26533252824977,16.283928263493664,139.0,144.0,"Sun, Jun 24, 2018","Mon, Jun 25, 2018"
3542,Harrisburg International,Harrisburg,United States,MDT,KMDT,40.193494,-76.763403,310,-5,A,"Harrisburg, PA",491,493,516,517,5.226069246435848,14.505070993914808,44.0,65.0,"Wed, Jun 13, 2018","Fri, Jun 15, 2018"
3747,Chicago Midway International,Chicago,United States,MDW,KMDW,41.785972,-87.752417,620,-6,A,"Chicago, IL",7610,7619,7808,7809,5.721813403416557,13.346895918099463,58.0,106.0,"Tue, Jun 19, 2018","Tue, Jun 19, 2018"
4335,Key Field,Meridian,United States,MEI,KMEI,32.332624,-88.751868,297,-6,A,"Meridian, MS",87,88,90,90,5.172413793103448,14.534090909090908,12.0,29.0,"Wed, Jun 20, 2018","Thu, Jun 28, 2018"
3473,Memphis International,Memphis,United States,MEM,KMEM,35.042417,-89.976667,341,-6,A,"Memphis, TN",1964,1959,1999,2001,5.846232179226076,14.5145482388974,57.0,130.0,"Sat, Jun 30, 2018","Mon, Jun 25, 2018"
3826,McAllen Miller International,Mcallen,United States,MFE,KMFE,26.175833,-98.238611,107,-6,A,"Mission/McAllen/Edinburg, TX",401,402,419,419,4.4214463840399025,11.900497512437822,43.0,75.0,"Fri, Jun 22, 2018","Tue, Jun  5, 2018"
4101,Rogue Valley International Medford,Medford,United States,MFR,KMFR,42.374228,-122.8735,1335,-8,A,"Medford, OR",439,439,440,439,7.323462414578588,16.01366742596811,61.0,129.0,"Sat, Jun 16, 2018","Fri, Jun  8, 2018"
4115,Montgomery Regional Airport ,MONTGOMERY,United States,MGM,KMGM,32.3006389,-86.3939722,221,-6,A,"Montgomery, AL",368,364,383,383,4.309782608695654,16.101648351648347,30.0,92.0,"Fri, Jun  8, 2018","Wed, Jun 13, 2018"
4050,Manhattan Regional,Manhattan,United States,MHK,KMHK,39.140972,-96.670833,1057,-6,A,"Manhattan/Ft. Riley, KS",144,144,150,150,3.7430555555555554,12.027777777777779,14.0,44.0,"Thu, Jun 28, 2018","Thu, Jun  7, 2018"
4011,Manchester Regional Airport,Manchester NH,United States,MHT,KMHT,42.932556,-71.435667,266,-5,A,"Manchester, NH",842,838,868,869,4.750593824228032,13.343675417661098,25.0,90.0,"Thu, Jun 21, 2018","Thu, Jun 28, 2018"
3576,Miami International,Miami,United States,MIA,KMIA,25.79325,-80.290556,8,-5,A,"Miami, FL",7153,7167,7232,7239,10.97665315252342,19.980047439653955,146.0,153.0,"Thu, Jun 28, 2018","Thu, Jun  7, 2018"
3717,General Mitchell International,Milwaukee,United States,MKE,KMKE,42.947222,-87.896583,723,-6,A,"Milwaukee, WI",2750,2749,2799,2801,4.5050909090909235,12.695525645689333,80.0,134.0,"Mon, Jun 18, 2018","Thu, Jun 28, 2018"
5754,Muskegon County Airport,Muskegon,United States,MKG,KMKG,43.1695,-86.2382,628,-5,A,"Muskegon, MI",58,57,60,60,4.603448275862069,15.333333333333334,9.0,28.0,"Tue, Jun  5, 2018","Fri, Jun  8, 2018"
3671,Melbourne International,Melbourne,United States,MLB,KMLB,28.102753,-80.645258,33,-5,A,"Melbourne, FL",177,178,184,185,8.25423728813559,17.005617977528086,81.0,62.0,"Fri, Jun 22, 2018","Mon, Jun 25, 2018"
4072,Quad City International,Moline,United States,MLI,KMLI,41.448528,-90.507539,590,-6,A,"Moline, IL",431,430,442,443,5.3201856148491835,14.544186046511628,70.0,58.0,"Wed, Jun 20, 2018","Fri, Jun 15, 2018"
3732,Monroe Regional,Monroe,United States,MLU,KMLU,32.510864,-92.037689,79,-6,A,"Monroe, LA",278,278,280,280,3.9388489208633084,14.712230215827338,14.0,59.0,"Sat, Jun 30, 2018","Thu, Jun  7, 2018"
3782,Mobile Regional,Mobile,United States,MOB,KMOB,30.691231,-88.242814,219,-6,A,"Mobile, AL",557,557,578,578,4.859964093357268,14.271095152603236,73.0,122.0,"Thu, Jun 14, 2018","Sat, Jun  9, 2018"
3498,Minot International,Minot,United States,MOT,KMOT,48.259378,-101.280333,1716,-6,A,"Minot, ND",217,217,217,217,5.271889400921661,14.764976958525345,21.0,32.0,"Fri, Jun  1, 2018","Sat, Jun 30, 2018"
6838,Sawyer International Airport,Marquette,United States,MQT,KMQT,46.353611,-87.395278,1221,-5,A,"Marquette, MI",126,127,132,131,5.76984126984127,17.76377952755904,18.0,113.0,"Tue, Jun 19, 2018","Sun, Jun 10, 2018"
3948,Monterey Peninsula,Monterey,United States,MRY,KMRY,36.587,-121.842944,257,-8,A,"Monterey, CA",355,353,359,359,3.6225352112676057,16.974504249291805,15.0,63.0,"Sat, Jun 16, 2018","Mon, Jun 11, 2018"
3459,Dane County Regional-Truax Field,Madison,United States,MSN,KMSN,43.139858,-89.337514,887,-6,A,"Madison, WI",1173,1174,1217,1218,4.791133844842289,14.758943781942072,40.0,91.0,"Sun, Jun 17, 2018","Fri, Jun  8, 2018"
4216,Missoula International,Missoula,United States,MSO,KMSO,46.916306,-114.090556,3205,-7,A,"Missoula, MT",449,444,451,447,7.465478841870824,13.725225225225225,51.0,60.0,"Thu, Jun 21, 2018","Sat, Jun 23, 2018"
3858,Minneapolis St. Paul International,Minneapolis,United States,MSP,KMSP,44.881956,-93.221767,841,-6,A,"Minneapolis, MN",14230,14237,14266,14275,5.738439915671119,18.30146800590014,96.0,125.0,"Sat, Jun  2, 2018","Fri, Jun  8, 2018"
3861,Louis Armstrong New Orleans International,New Orleans,United States,MSY,KMSY,29.993389,-90.258028,4,-6,A,"New Orleans, LA",4586,4585,4635,4640,5.2402965547317875,12.376008724100336,56.0,107.0,"Tue, Jun  5, 2018","Mon, Jun  4, 2018"
6880,Montrose Regional Airport,Montrose CO,United States,MTJ,KMTJ,38.509794,-107.894242,5759,-7,A,"Montrose/Delta, CO",147,147,150,150,5.129251700680272,16.23129251700681,31.0,43.0,"Sat, Jun 30, 2018","Wed, Jun 27, 2018"
4265,Martha's Vineyard,Vineyard Haven MA,United States,MVY,KMVY,41.391667,-70.615278,67,-5,A,"Martha's Vineyard, MA",79,79,79,79,4.810126582278478,16.45569620253165,38.0,45.0,"Sat, Jun 23, 2018","Fri, Jun 29, 2018"
3515,Myrtle Beach International,Myrtle Beach,United States,MYR,KMYR,33.67975,-78.928333,25,-5,A,"Myrtle Beach, SC",1289,1283,1330,1328,5.545384018619082,12.724084177708496,61.0,81.0,"Sat, Jun 16, 2018","Mon, Jun 25, 2018"
4386,Albert J. Ellis,Jacksonville NC,United States,OAJ,KOAJ,34.829164,-77.612139,94,-5,A,"Jacksonville/Camp Lejeune, NC",262,259,281,281,4.213740458015269,16.52895752895753,103.0,104.0,"Sun, Jun 24, 2018","Fri, Jun 22, 2018"
3453,Metropolitan Oakland International,Oakland,United States,OAK,KOAK,37.721278,-122.220722,9,-8,A,"Oakland, CA",4491,4494,4554,4555,5.845468715208179,12.272585669781918,50.0,85.0,"Wed, Jun 20, 2018","Sun, Jun 17, 2018"
3456,Kahului,Kahului,United States,OGG,PHOG,20.89865,-156.430458,54,-10,N,"Kahului, HI",2200,2199,2201,2202,6.949999999999995,10.461573442473854,58.0,73.0,"Fri, Jun 29, 2018","Fri, Jun 15, 2018"
3724,Ogdensburg International,Ogdensburg,United States,OGS,KOGS,44.681854,-75.4655,297,-5,A,"Ogdensburg, NY",11,11,15,15,6.363636363636363,14.636363636363637,9.0,30.0,"Wed, Jun 13, 2018","Mon, Jun  4, 2018"
3863,Will Rogers World,Oklahoma City,United States,OKC,KOKC,35.393089,-97.600733,1295,-6,A,"Oklahoma City, OK",2065,2061,2095,2095,5.740435835351093,12.90587093643863,178.0,92.0,"Thu, Jun  7, 2018","Tue, Jun 26, 2018"
3454,Eppley Airfield,Omaha,United States,OMA,KOMA,41.303167,-95.894069,984,-6,A,"Omaha, NE",2187,2176,2240,2237,4.568815729309551,13.344209558823527,74.0,133.0,"Mon, Jun 11, 2018","Tue, Jun 26, 2018"
3615,Nome,Nome,United States,OME,PAOM,64.512203,-165.445247,37,-9,A,"Nome, AK",58,58,60,60,3.4482758620689653,8.103448275862066,7.0,16.0,"Sat, Jun 16, 2018","Sat, Jun  2, 2018"
3734,Ontario International,Ontario,United States,ONT,KONT,34.056,-117.601194,944,-8,A,"Ontario, CA",1769,1773,1777,1781,4.18824194460147,10.241398759165273,18.0,68.0,"Thu, Jun  7, 2018","Fri, Jun 15, 2018"
3830,Chicago O'Hare International,Chicago,United States,ORD,KORD,41.978603,-87.904842,668,-6,A,"Chicago, IL",28046,28108,29169,29175,14.821471867646014,25.463675821830158,148.0,163.0,"Mon, Jun 18, 2018","Tue, Jun 19, 2018"
3611,Norfolk International,Norfolk,United States,ORF,KORF,36.894611,-76.201222,26,-5,A,"Norfolk, VA",2000,1987,2078,2074,4.542499999999992,15.34927025666835,60.0,136.0,"Sun, Jun 24, 2018","Fri, Jun  8, 2018"
6426,Worcester Regional Airport,Worcester,United States,ORH,KORH,42.2673,-71.8757,1009,-5,U,"Worcester, MA",87,86,90,90,4.735632183908045,11.069767441860462,29.0,34.0,"Sun, Jun 10, 2018","Sat, Jun 23, 2018"
5757,Southwest Oregon Regional Airport,North Bend,United States,OTH,KOTH,43.4171,-124.246,17,-8,A,"North Bend/Coos Bay, OR",35,35,36,36,3.9714285714285715,13.942857142857143,7.0,29.0,"Sun, Jun 17, 2018","Sat, Jun  9, 2018"
3693,Ralph Wien Memorial,Kotzebue,United States,OTZ,PAOT,66.884678,-162.59855,11,-9,A,"Kotzebue, AK",58,58,60,60,3.1551724137931036,7.724137931034483,6.0,19.0,"Fri, Jun 15, 2018","Wed, Jun  6, 2018"
5758,Owensboro Daviess County Airport,Owensboro,United States,OWB,KOWB,37.7401,-87.1668,406,-6,A,"Owensboro, KY",9,9,9,9,6.333333333333333,6.444444444444445,10.0,9.0,"Fri, Jun 22, 2018","Mon, Jun  4, 2018"
4117,Barkley Regional Airport,PADUCAH,United States,PAH,KPAH,37.0602875,-88.7729583,410,-6,A,"Paducah, KY",57,57,60,60,4.7719298245614015,12.701754385964913,8.0,46.0,"Sun, Jun 10, 2018","Sat, Jun  9, 2018"
3771,Plattsburgh International,Plattsburgh,United States,PBG,KPBG,44.650944,-73.468139,234,-5,A,"Plattsburgh, NY",44,44,45,45,5.681818181818182,12.02272727272727,8.0,25.0,"Sat, Jun 23, 2018","Sun, Jun 10, 2018"
3722,Palm Beach International,West Palm Beach,United States,PBI,KPBI,26.683161,-80.095589,19,-5,A,"West Palm Beach/Palm Beach, FL",1800,1800,1814,1816,5.111111111111113,14.357222222222223,141.0,112.0,"Mon, Jun 11, 2018","Fri, Jun  8, 2018"
3720,Portland International,Portland,United States,PDX,KPDX,45.588722,-122.5975,30,-8,A,"Portland, OR",5561,5557,5586,5584,4.900017982377252,14.235378801511601,49.0,82.0,"Tue, Jun 12, 2018","Fri, Jun 15, 2018"
7056,Charlotte County-Punta Gorda Airport,Punta Gorda,United States,PGD,KPGD,26.919722,-81.990556,26,-5,A,"Punta Gorda, FL",435,436,446,446,7.625287356321839,10.270642201834866,138.0,38.0,"Sun, Jun 24, 2018","Wed, Jun 27, 2018"
6959,Pitt-Greenville Airport,Greenville,United States,PGV,KPGV,35.635278,-77.385278,27,-5,A,"Greenville, NC",118,118,138,137,3.4237288135593222,13.627118644067796,24.0,45.0,"Sat, Jun 30, 2018","Fri, Jun  1, 2018"
3633,Newport News Williamsburg International,Newport News,United States,PHF,KPHF,37.131894,-76.492989,43,-5,A,"Newport News/Williamsburg, VA",267,266,296,298,5.146067415730337,13.571428571428571,124.0,58.0,"Sat, Jun  2, 2018","Wed, Jun 13, 2018"
3752,Philadelphia International,Philadelphia,United States,PHL,KPHL,39.871944,-75.241139,36,-5,A,"Philadelphia, PA",10219,10233,10536,10532,9.100596927292317,24.23433988077786,127.0,175.0,"Sat, Jun  2, 2018","Sun, Jun 24, 2018"
3462,Phoenix Sky Harbor International,Phoenix,United States,PHX,KPHX,33.434278,-112.011583,1135,-7,N,"Phoenix, AZ",14323,14367,14444,14451,7.8482859736088795,14.529825294076703,75.0,128.0,"Sat, Jun 23, 2018","Tue, Jun 26, 2018"
4046,Peoria Regional,Peoria,United States,PIA,KPIA,40.664203,-89.693258,660,-6,A,"Peoria, IL",458,458,476,475,5.026200873362451,15.556768558951966,36.0,107.0,"Sat, Jun  2, 2018","Sun, Jun 10, 2018"
5759,Hattiesburg Laurel Regional Airport,Hattiesburg/Laurel,United States,PIB,KPIB,31.4671,-89.3371,298,-6,A,"Hattiesburg/Laurel, MS",58,58,60,60,4.655172413793103,16.51724137931034,7.0,43.0,"Sun, Jun 24, 2018","Thu, Jun 28, 2018"
3617,St. Petersburg Clearwater International,St. Petersburg,United States,PIE,KPIE,27.910167,-82.687389,10,-5,A,"St. Petersburg, FL",720,719,742,739,8.055555555555554,13.104311543810843,102.0,41.0,"Wed, Jun 13, 2018","Sun, Jun 10, 2018"
5760,Pocatello Regional Airport,Pocatello,United States,PIH,KPIH,42.9098,-112.596,4452,-7,A,"Pocatello, ID",106,106,106,106,3.19811320754717,12.40566037735849,6.0,30.0,"Tue, Jun  5, 2018","Wed, Jun  6, 2018"
3570,Pittsburgh International,Pittsburgh (pennsylva),United States,PIT,KPIT,40.491467,-80.232872,1204,-5,A,"Pittsburgh, PA",4179,4165,4252,4254,5.564489112227804,15.601680672268905,60.0,164.0,"Sun, Jun 10, 2018","Mon, Jun 18, 2018"
5762,Pellston Regional Airport of Emmet County Airport,Pellston,United States,PLN,KPLN,45.5709,-84.7967,720,-5,A,"Pellston, MI",102,101,102,101,4.519607843137256,13.841584158415841,9.0,37.0,"Fri, Jun 22, 2018","Sun, Jun 10, 2018"
3564,Pensacola Regional,Pensacola,United States,PNS,KPNS,30.473425,-87.186611,121,-6,A,"Pensacola, FL",1068,1067,1103,1105,4.774344569288394,13.650421743205246,90.0,110.0,"Sun, Jun 10, 2018","Sat, Jun  2, 2018"
6133,Tri Cities Airport,Pasco,United States,PSC,PSC,46.2647,-119.119,410,-8,A,"Pasco/Kennewick/Richland, WA",302,301,302,301,5.0761589403973515,13.740863787375416,14.0,40.0,"Mon, Jun 25, 2018","Wed, Jun 20, 2018"
4147,Petersburg James A. Johnson,Petersburg,United States,PSG,PAPG,56.801667,-132.945278,105,-9,A,"Petersburg, AK",60,60,60,60,3.4833333333333334,9.283333333333331,6.0,22.0,"Thu, Jun 21, 2018","Fri, Jun 22, 2018"
5763,Pease International Tradeport,Portsmouth,United States,PSM,KPSM,43.0779,-70.8233,100,-5,A,"Portsmouth, NH",22,22,23,23,4.954545454545454,13.045454545454545,10.0,20.0,"Sun, Jun 10, 2018","Sun, Jun 10, 2018"
3839,Palm Springs International,Palm Springs,United States,PSP,KPSP,33.829667,-116.506694,477,-8,A,"Palm Springs, CA",575,575,579,579,5.038260869565216,14.573913043478267,18.0,93.0,"Sun, Jun  3, 2018","Fri, Jun 29, 2018"
3527,Pueblo Memorial,Pueblo Memorial,United States,PUB,KPUB,38.289085,-104.496572,4726,-7,A,"Pueblo, CO",77,76,77,76,4.3376623376623344,14.552631578947368,10.0,35.0,"Sat, Jun 16, 2018","Tue, Jun  5, 2018"
3641,Theodore Francis Green State,Providence,United States,PVD,KPVD,41.732581,-71.420383,55,-5,A,"Providence, RI",1594,1594,1634,1634,4.843789209535754,12.380175658720196,32.0,63.0,"Sat, Jun 16, 2018","Mon, Jun 11, 2018"
7579,Provo Municipal Airport,Provo,United States,PVU,KPVU,40.21805555,-111.7222222,4497,-6,A,"Provo, UT",46,47,48,49,6.06521739130435,13.851063829787234,12.0,27.0,"Tue, Jun 12, 2018","Mon, Jun 18, 2018"
3862,Portland International Jetport,Portland,United States,PWM,KPWM,43.646161,-70.309281,77,-5,A,"Portland, ME",1167,1162,1201,1197,4.7360754070265605,14.080895008605864,65.0,116.0,"Sat, Jun 30, 2018","Thu, Jun 28, 2018"
4087,Rapid City Regional Airport,Rapid City,United States,RAP,KRAP,44.045278,-103.057222,3204,-7,A,"Rapid City, SD",467,464,468,467,5.946466809421842,14.672413793103448,40.0,48.0,"Sun, Jun 24, 2018","Sat, Jun  9, 2018"
4098,Redding Municipal,Redding,United States,RDD,KRDD,40.509,-122.293389,504,-8,A,"Redding, CA",112,112,112,112,4.294642857142859,15.41964285714287,7.0,81.0,"Tue, Jun 26, 2018","Wed, Jun  6, 2018"
4103,Roberts Field,Redmond-Bend,United States,RDM,KRDM,44.254066,-121.149964,3077,-8,A,"Bend/Redmond, OR",307,306,308,307,5.13355048859935,15.196078431372548,16.0,78.0,"Sat, Jun 23, 2018","Fri, Jun 15, 2018"
3626,Raleigh Durham International,Raleigh-durham,United States,RDU,KRDU,35.877639,-78.787472,435,-5,A,"Raleigh/Durham, NC",5219,5210,5304,5303,5.505652423835989,17.2188099808061,70.0,120.0,"Mon, Jun  4, 2018","Fri, Jun 15, 2018"
4028,Chicago Rockford International Airport ,Rockford,United States,RFD,KRFD,42.1953611,-89.0972222,742,-6,A,"Rockford, IL",63,63,64,64,6.301587301587301,9.476190476190476,12.0,16.0,"Tue, Jun 26, 2018","Tue, Jun  5, 2018"
5765,Rhinelander Oneida County Airport,Rhinelander,United States,RHI,KRHI,45.6312,-89.4675,1624,-6,A,"Rhinelander, WI",60,60,60,60,3.3666666666666667,18.08333333333334,8.0,47.0,"Sat, Jun 30, 2018","Tue, Jun  5, 2018"
3608,Richmond International,Richmond,United States,RIC,KRIC,37.505167,-77.319667,167,-5,A,"Richmond, VA",1914,1914,1962,1963,6.793103448275862,17.066353187042814,73.0,138.0,"Fri, Jun 22, 2018","Tue, Jun 19, 2018"
5766,Rock Springs Sweetwater County Airport,Rock Springs,United States,RKS,KRKS,41.5942,-109.065,6760,-7,A,"Rock Springs, WY",54,54,55,55,3.1851851851851847,13.055555555555555,7.0,44.0,"Fri, Jun  1, 2018","Fri, Jun 29, 2018"
3807,Reno Tahoe International,Reno,United States,RNO,KRNO,39.499108,-119.768108,4415,-8,A,"Reno, NV",1506,1503,1514,1514,4.369189907038514,13.278775781769808,28.0,62.0,"Fri, Jun 29, 2018","Sun, Jun 17, 2018"
4016,Roanoke Regional,Roanoke VA,United States,ROA,KROA,37.325472,-79.975417,1175,-5,A,"Roanoke, VA",199,198,201,200,5.889447236180904,18.53030303030303,34.0,85.0,"Fri, Jun  1, 2018","Tue, Jun 19, 2018"
3622,Greater Rochester International,Rochester,United States,ROC,KROC,43.118866,-77.672389,559,-5,A,"Rochester, NY",1143,1142,1168,1167,5.122484689413824,13.772329246935211,36.0,100.0,"Fri, Jun  8, 2018","Tue, Jun 19, 2018"
3736,Roswell International Air Center,Roswell,United States,ROW,KROW,33.301556,-104.530556,3671,-7,A,"Roswell, NM",114,113,115,115,4.377192982456138,12.530973451327434,17.0,39.0,"Wed, Jun 13, 2018","Tue, Jun  5, 2018"
4048,Rochester,Rochester,United States,RST,KRST,43.908283,-92.500014,1317,-6,A,"Rochester, MN",272,273,280,281,3.849264705882353,17.80586080586082,22.0,60.0,"Sat, Jun 30, 2018","Wed, Jun  6, 2018"
3793,Southwest Florida International,Fort Myers,United States,RSW,KRSW,26.536167,-81.755167,30,-5,A,"Fort Myers, FL",1878,1875,1895,1894,4.548455804046867,12.468799999999996,46.0,142.0,"Fri, Jun 29, 2018","Tue, Jun 19, 2018"
3784,Santa Fe Municipal,Santa Fe,United States,SAF,KSAF,35.617108,-106.089422,6348,-7,A,"Santa Fe, NM",120,120,120,120,3.8,13.366666666666667,22.0,42.0,"Sun, Jun  3, 2018","Wed, Jun 13, 2018"
3731,San Diego International,San Diego,United States,SAN,KSAN,32.733556,-117.189667,17,-8,A,"San Diego, CA",7879,7868,7935,7934,3.9565934763294797,16.47572445348239,72.0,85.0,"Sat, Jun 23, 2018","Sun, Jun 17, 2018"
3621,San Antonio International,San Antonio,United States,SAT,KSAT,29.533694,-98.469778,809,-6,A,"San Antonio, TX",3295,3290,3332,3333,3.9526555386949913,12.441945288753791,72.0,112.0,"Sun, Jun 24, 2018","Mon, Jun 11, 2018"
3613,Savannah Hilton Head International,Savannah,United States,SAV,KSAV,32.127583,-81.202139,51,-5,A,"Savannah, GA",1522,1512,1571,1570,6.40013140604468,15.277116402116402,100.0,80.0,"Sat, Jun 16, 2018","Fri, Jun  1, 2018"
3949,Santa Barbara Municipal,Santa Barbara,United States,SBA,KSBA,34.426211,-119.840372,10,-8,A,"Santa Barbara, CA",609,610,612,613,4.151067323481122,15.831147540983613,19.0,76.0,"Sat, Jun 23, 2018","Sun, Jun 17, 2018"
4359,South Bend Regional,South Bend,United States,SBN,KSBN,41.708661,-86.31725,799,-5,A,"South Bend, IN",620,620,629,626,5.295161290322584,15.461290322580645,38.0,70.0,"Mon, Jun 18, 2018","Thu, Jun 14, 2018"
5768,San Luis County Regional Airport,San Luis Obispo,United States,SBP,KSBP,35.2368,-120.642,212,-8,A,"San Luis Obispo, CA",417,417,419,419,4.282973621103112,15.94244604316546,13.0,75.0,"Wed, Jun 13, 2018","Wed, Jun  6, 2018"
3620,Deadhorse,Deadhorse,United States,SCC,PASC,70.19475,-148.465167,64,-9,A,"Deadhorse, AK",81,81,81,81,3.4074074074074074,7.604938271604938,5.0,26.0,"Mon, Jun 11, 2018","Fri, Jun  8, 2018"
4318,University Park Airport,State College Pennsylvania,United States,SCE,KUNV,40.849278,-77.848694,1239,-5,A,"State College, PA",98,98,99,99,3.9285714285714284,16.224489795918366,27.0,46.0,"Sun, Jun 10, 2018","Sun, Jun 10, 2018"
3805,Stockton Metropolitan,Stockton,United States,SCK,KSCK,37.894167,-121.238306,33,-8,A,"Stockton, CA",65,65,68,68,7.569230769230769,9.292307692307691,74.0,28.0,"Fri, Jun 15, 2018","Tue, Jun 26, 2018"
4014,Louisville International Airport,Louisville,United States,SDF,KSDF,38.1740858,-85.7364989,501,-5,A,"Louisville, KY",1934,1929,2002,2000,7.825749741468463,14.258164852255053,58.0,97.0,"Sun, Jun 10, 2018","Thu, Jun 28, 2018"
3577,Seattle Tacoma International,Seattle,United States,SEA,KSEA,47.449,-122.309306,433,-8,A,"Seattle, WA",12796,12795,12841,12836,9.620428258830872,19.250879249706884,73.0,134.0,"Sat, Jun 23, 2018","Fri, Jun  8, 2018"
4167,Orlando Sanford International,Sanford,United States,SFB,KSFB,28.777639,-81.237489,55,-5,A,"Sanford, FL",920,924,934,929,6.785869565217394,14.714285714285714,88.0,153.0,"Tue, Jun 26, 2018","Mon, Jun  4, 2018"
3469,San Francisco International,San Francisco,United States,SFO,KSFO,37.618972,-122.374889,13,-8,A,"San Francisco, CA",15170,15178,15313,15317,9.893144363876102,24.142179470285857,101.0,147.0,"Fri, Jun 15, 2018","Fri, Jun 15, 2018"
4348,Springfield Branson National,Springfield,United States,SGF,KSGF,37.245667,-93.388639,1268,-6,A,"Springfield, MO",770,774,789,789,5.844155844155839,15.607235142118864,34.0,86.0,"Sat, Jun  9, 2018","Thu, Jun 21, 2018"
4064,St. George Municipal,Saint George,United States,SGU,KSGU,37.090583,-113.593056,2941,-7,A,"St. George, UT",256,256,256,256,3.242187500000001,14.14453125,9.0,38.0,"Wed, Jun 13, 2018","Tue, Jun 19, 2018"
7062,Shenandoah Valley Regional Airport,Weyers Cave,United States,SHD,KSHD,38.263889,-78.896389,1201,-5,A,"Staunton, VA",78,78,81,81,4.256410256410256,13.320512820512821,14.0,40.0,"Sun, Jun  3, 2018","Sat, Jun 16, 2018"
3609,Shreveport Regional,Shreveport,United States,SHV,KSHV,32.446629,-93.8256,258,-6,A,"Shreveport, LA",556,555,564,564,6.0863309352518,12.313513513513511,45.0,86.0,"Mon, Jun 18, 2018","Fri, Jun  1, 2018"
3856,Sitka Rocky Gutierrez,Sitka,United States,SIT,PASI,57.047138,-135.361611,21,-9,A,"Sitka, AK",166,166,169,170,4.078313253012049,11.487951807228917,11.0,45.0,"Wed, Jun 13, 2018","Mon, Jun 11, 2018"
3748,Norman Y. Mineta San Jose International,San Jose,United States,SJC,KSJC,37.3626,-121.929022,62,-8,A,"San Jose, CA",4593,4611,4642,4654,4.581972566949699,13.336369551073526,80.0,106.0,"Thu, Jun 14, 2018","Tue, Jun 19, 2018"
3708,San Angelo Regional-Mathis Field,San Angelo,United States,SJT,KSJT,31.35775,-100.496306,1919,-6,A,"San Angelo, TX",119,119,120,120,3.8907563025210083,10.84873949579832,7.0,23.0,"Sat, Jun 16, 2018","Sat, Jun 30, 2018"
3536,Salt Lake City International,Salt Lake City,United States,SLC,KSLC,40.788389,-111.977772,4227,-7,A,"Salt Lake City, UT",9612,9614,9633,9637,6.649292550977937,16.947680465987176,57.0,84.0,"Mon, Jun  4, 2018","Sat, Jun 30, 2018"
5771,Salina Municipal Airport,Salina,United States,SLN,KSLN,38.791,-97.6522,1288,-6,A,"Salina, KS",73,74,75,76,5.17808219178082,17.783783783783782,11.0,63.0,"Sun, Jun 10, 2018","Thu, Jun 21, 2018"
3817,Sacramento International,Sacramento,United States,SMF,KSMF,38.695417,-121.590778,27,-8,A,"Sacramento, CA",4048,4044,4062,4057,4.400938735177867,11.686696340257166,43.0,79.0,"Fri, Jun  1, 2018","Sat, Jun 23, 2018"
5772,Santa Maria Public-Captain G. Allan Hancock Airport,Santa Maria,United States,SMX,KSMX,34.8989,-120.457,261,-8,A,"Santa Maria, CA",13,13,13,13,4.615384615384615,7.615384615384615,7.0,23.0,"Fri, Jun  8, 2018","Wed, Jun 13, 2018"
3867,John Wayne Airport Orange County,Santa Ana,United States,SNA,KSNA,33.675667,-117.868222,56,-8,A,"Santa Ana, CA",3546,3549,3571,3572,5.626339537507056,13.363200901662426,53.0,84.0,"Fri, Jun 15, 2018","Fri, Jun 29, 2018"
4336,Abraham Lincoln Capital,Springfield,United States,SPI,KSPI,39.8441,-89.677889,597,-6,A,"Springfield, IL",149,148,154,154,4.456375838926179,12.081081081081088,8.0,40.0,"Sun, Jun  3, 2018","Tue, Jun 19, 2018"
3680,Sheppard AFB Wichita Falls Municipal,Wichita Falls,United States,SPS,KSPS,33.988797,-98.491894,1019,-6,A,"Wichita Falls, TX",88,88,90,90,7.875,15.034090909090908,16.0,53.0,"Sat, Jun 30, 2018","Mon, Jun 25, 2018"
4067,Sarasota Bradenton International,Sarasota,United States,SRQ,KSRQ,27.395444,-82.554389,30,-5,A,"Sarasota/Bradenton, FL",481,478,498,498,4.571725571725573,12.644351464435143,71.0,97.0,"Mon, Jun 25, 2018","Sun, Jun 24, 2018"
4271,Saint Cloud Regional Airport,Saint Cloud,United States,STC,KSTC,45.546556,-94.059889,1031,-6,A,"St. Cloud, MN",9,9,9,9,8.444444444444445,10.222222222222221,9.0,15.0,"Wed, Jun  6, 2018","Wed, Jun 13, 2018"
3678,Lambert St. Louis International,St. Louis,United States,STL,KSTL,38.748697,-90.370028,618,-6,A,"St. Louis, MO",5645,5631,5726,5723,4.769530558015922,11.678209909429919,65.0,96.0,"Tue, Jun 19, 2018","Fri, Jun 22, 2018"
6992,Charles M. Schulz Sonoma County,Santa Rosa,United States,STS,KSTS,38.508978,-122.81288,125,-8,A,"Santa Rosa, CA",150,149,150,150,4.020000000000003,16.05369127516778,8.0,43.0,"Sun, Jun  3, 2018","Thu, Jun 28, 2018"
6494,Friedman Memorial,Hailey,United States,SUN,KSUN,43.504444,-114.296194,5320,-7,A,"Sun Valley/Hailey/Ketchum, ID",83,81,83,81,2.3855421686746987,12.320987654320987,5.0,30.0,"Sun, Jun  3, 2018","Mon, Jun 18, 2018"
3753,Sioux Gateway-Colonel Bud Day Field,Sioux City,United States,SUX,KSUX,42.402603,-96.384367,1098,-6,A,"Sioux City, IA",81,80,85,85,5.555555555555557,12.524999999999997,32.0,40.0,"Fri, Jun  1, 2018","Tue, Jun 26, 2018"
3661,Stewart International,Newburgh,United States,SWF,KSWF,41.504094,-74.104839,491,-5,A,"Newburgh/Poughkeepsie, NY",143,143,146,146,5.384615384615385,15.678321678321685,14.0,143.0,"Sun, Jun 24, 2018","Sun, Jun 24, 2018"
3745,Syracuse Hancock International,Syracuse,United States,SYR,KSYR,43.111187,-76.106311,421,-5,A,"Syracuse, NY",1124,1121,1165,1166,4.759786476868327,14.615521855486175,44.0,79.0,"Mon, Jun 25, 2018","Fri, Jun  1, 2018"
3698,Tallahassee Regional,Tallahassee,United States,TLH,KTLH,30.396528,-84.350333,81,-5,A,"Tallahassee, FL",490,488,513,513,4.587755102040822,12.774590163934425,41.0,51.0,"Sat, Jun  2, 2018","Fri, Jun 15, 2018"
4040,Toledo,Toledo,United States,TOL,KTOL,41.586806,-83.807833,684,-5,A,"Toledo, OH",156,156,171,171,3.8653846153846154,13.192307692307692,9.0,104.0,"Wed, Jun  6, 2018","Tue, Jun 26, 2018"
3646,Tampa International,Tampa,United States,TPA,KTPA,27.975472,-82.53325,26,-5,A,"Tampa, FL",5955,5950,6009,6006,5.458438287153654,12.75310924369747,116.0,148.0,"Sun, Jun 24, 2018","Tue, Jun 19, 2018"
4116,Tri-Cities Regional Airport,BRISTOL,United States,TRI,KTRI,36.4752222,-82.4074167,1519,-5,A,"Bristol/Johnson City/Kingsport, TN",304,303,322,322,4.950657894736844,15.933993399339935,30.0,65.0,"Sun, Jun 24, 2018","Sat, Jun 16, 2018"
3447,Trenton Mercer,Trenton,United States,TTN,KTTN,40.276692,-74.813469,213,-5,A,"Trenton, NJ",238,236,240,240,7.4789915966386555,14.775423728813559,27.0,95.0,"Sat, Jun  2, 2018","Sun, Jun 24, 2018"
3855,Tulsa International,Tulsa,United States,TUL,KTUL,36.198389,-95.888111,677,-6,A,"Tulsa, OK",1494,1497,1518,1520,4.4986613119143115,15.458249832999327,87.0,80.0,"Thu, Jun  7, 2018","Thu, Jun  7, 2018"
3636,Tucson International,Tucson,United States,TUS,KTUS,32.116083,-110.941028,2643,-7,N,"Tucson, AZ",1382,1383,1390,1392,4.226483357452962,14.275488069414308,31.0,53.0,"Sun, Jun  3, 2018","Fri, Jun 22, 2018"
4023,Cherry Capital Airport,Traverse City,United States,TVC,KTVC,44.741445,-85.582235,624,-5,A,"Traverse City, MI",383,377,390,385,4.908616187989552,14.448275862068966,50.0,67.0,"Sat, Jun 30, 2018","Mon, Jun  4, 2018"
4263,Magic Valley Regional Airport,Twin Falls,United States,TWF,KTWF,42.481803,-114.487733,4151,-7,A,"Twin Falls, ID",103,103,103,103,3.3300970873786406,12.281553398058252,6.0,38.0,"Tue, Jun 19, 2018","Tue, Jun  5, 2018"
3770,Texarkana Regional-Webb Field,Texarkana,United States,TXK,KTXK,33.453722,-93.991028,390,-6,A,"Texarkana, AR",113,112,117,115,3.982300884955752,12.446428571428571,8.0,38.0,"Tue, Jun 12, 2018","Wed, Jun 20, 2018"
3848,Tyler Pounds Regional,Tyler,United States,TYR,KTYR,32.354139,-95.402386,544,-6,A,"Tyler, TX",113,113,116,116,3.2920353982300883,14.893805309734514,6.0,41.0,"Mon, Jun 18, 2018","Sat, Jun  2, 2018"
3676,McGhee Tyson,Knoxville,United States,TYS,KTYS,35.810972,-83.994028,981,-5,A,"Knoxville, TN",1355,1355,1406,1405,4.8405904059040585,15.365313653136527,59.0,148.0,"Wed, Jun 27, 2018","Fri, Jun  1, 2018"
5774,Quincy Regional-Baldwin Field,Quincy,United States,UIN,KUIN,39.9427,-91.1946,769,-6,A,"Quincy, IL",71,71,76,76,4.169014084507041,13.084507042253522,9.0,25.0,"Wed, Jun 27, 2018","Wed, Jun 27, 2018"
7076,Vernal Regional Airport,Vernal,United States,VEL,KVEL,40.440833,-109.51,5278,-7,A,"Vernal, UT",9,9,9,9,4.555555555555555,21.333333333333332,7.0,59.0,"Wed, Jun 27, 2018","Fri, Jun 29, 2018"
5776,Valdosta Regional Airport,Valdosta,United States,VLD,KVLD,30.7825,-83.2767,203,-5,A,"Valdosta, GA",85,85,86,86,4.341176470588237,15.188235294117646,10.0,35.0,"Thu, Jun 21, 2018","Mon, Jun 18, 2018"
3873,Eglin AFB,Valparaiso,United States,VPS,KVPS,30.48325,-86.5254,87,-6,A,"Valparaiso, FL",824,824,849,849,8.87985436893205,14.52669902912621,72.0,68.0,"Sun, Jun 10, 2018","Wed, Jun 27, 2018"
5969,Wrangell Airport,Wrangell,United States,WRG,PAWG,56.4843,-132.37,44,-9,A,"Wrangell, AK",60,60,60,60,3.6666666666666665,7.433333333333334,6.0,23.0,"Mon, Jun 11, 2018","Fri, Jun 22, 2018"
7072,Yellowstone Airport,West Yellowstone,United States,WYS,KWYS,44.688333,-111.1175,6644,-7,A,"West Yellowstone, MT",52,52,52,52,3.980769230769231,14.76923076923077,6.0,27.0,"Fri, Jun 29, 2018","Sat, Jun 23, 2018"
4356,NW Arkansas Regional,Bentonville,United States,XNA,KXNA,36.2818694,-94.3068111,1287,-6,A,"Fayetteville, AR",1090,1093,1119,1122,6.962385321100916,15.16010978956999,96.0,152.0,"Fri, Jun  1, 2018","Sat, Jun  9, 2018"
6803,Yakutat,Yakutat,United States,YAK,PAYA,59.3012,-139.3937,33,-9,A,"Yakutat, AK",60,60,60,60,4.0666666666666655,7.6333333333333355,14.0,20.0,"Mon, Jun 25, 2018","Sun, Jun 24, 2018"
3596,Yuma MCAS Yuma International,Yuma,United States,YUM,KYUM,32.656578,-114.60598,216,-7,N,"Yuma, AZ",115,115,115,115,3.4608695652173913,12.521739130434781,7.0,27.0,"Mon, Jun 18, 2018","Wed, Jun 27, 2018"
