airport_id,name,city,country,iata_faa,iaco,latitude,longitude,altitude,zone,dst,city_state,avg_able_landings,avg_able_takeoffs,total_landings,total_takeoffs,avg_taxi_in,avg_taxi_out,longest_taxi_in,longest_taxi_out,lng_tx_in_date,lng_tx_out_date
4355,Lehigh Valley International,Allentown,United States,ABE,KABE,40.652083,-75.440806,393,-5,A,"Allentown/Bethlehem/Easton, PA",298,299,303,303,4.577181208053693,14.040133779264211,21.0,43.0,"Sun, Sep 16, 2018","Tue, Sep 25, 2018"
3718,Abilene Regional,Abilene,United States,ABI,KABI,32.411319,-99.681897,1791,-6,A,"Abilene, TX",165,166,169,169,3.478787878787879,16.265060240963855,14.0,71.0,"Fri, Sep  7, 2018","Sat, Sep 15, 2018"
4019,Albuquerque International Sunport,Albuquerque,United States,ABQ,KABQ,35.0402222,-106.6091944,5355,-7,A,"Albuquerque, NM",2059,2058,2076,2077,5.259834871296739,12.000000000000004,34.0,109.0,"Wed, Sep  5, 2018","Thu, Sep 20, 2018"
5714,Aberdeen Regional Airport,Aberdeen,United States,ABR,KABR,45.4491,-98.4218,1302,-6,A,"Aberdeen, SD",60,60,60,60,4.666666666666667,15.73333333333333,11.0,37.0,"Mon, Sep 24, 2018","Thu, Sep 20, 2018"
5715,Southwest Georgia Regional Airport,Albany,United States,ABY,KABY,31.5355,-84.1945,197,-5,A,"Albany, GA",79,79,79,79,3.721518987341772,16.101265822784814,7.0,46.0,"Thu, Sep 20, 2018","Wed, Sep 12, 2018"
3517,Nantucket Memorial,Nantucket,United States,ACK,KACK,41.253053,-70.060181,48,-5,A,"Nantucket, MA",129,129,129,129,4.837209302325581,14.465116279069768,40.0,48.0,"Mon, Sep  3, 2018","Fri, Sep 28, 2018"
3700,Waco Regional,Waco,United States,ACT,KACT,31.611289,-97.230519,516,-6,A,"Waco, TX",127,127,135,135,3.6141732283464565,15.92913385826772,7.0,45.0,"Wed, Sep 26, 2018","Sun, Sep 23, 2018"
4384,Arcata,Arcata CA,United States,ACV,KACV,40.978111,-124.108611,221,-8,A,"Arcata/Eureka, CA",118,119,122,122,7.194915254237288,12.61344537815126,38.0,42.0,"Wed, Sep 19, 2018","Mon, Sep  3, 2018"
3524,Atlantic City International,Atlantic City,United States,ACY,KACY,39.457583,-74.577167,75,-5,A,"Atlantic City, NJ",239,239,242,242,4.468619246861922,10.891213389121342,11.0,29.0,"Thu, Sep  6, 2018","Tue, Sep 11, 2018"
5959,Adak Airport,Adak Island,United States,ADK,PADK,51.878,-176.646,18,-10,A,"Adak Island, AK",9,9,9,9,5.111111111111111,6.777777777777778,7.0,11.0,"Sat, Sep 22, 2018","Sat, Sep  8, 2018"
3531,Kodiak,Kodiak,United States,ADQ,PADQ,57.749967,-152.493856,78,-9,A,"Kodiak, AK",51,51,51,51,3.019607843137255,7.941176470588235,4.0,27.0,"Mon, Sep  3, 2018","Fri, Sep 21, 2018"
3852,Alexandria International,Alexandria,United States,AEX,KAEX,31.3274,-92.549833,89,-6,A,"Alexandria, LA",276,274,279,278,3.4384057971014492,15.281021897810218,21.0,112.0,"Sun, Sep  9, 2018","Wed, Sep 26, 2018"
3658,Augusta Regional At Bush Field,Bush Field,United States,AGS,KAGS,33.369944,-81.9645,144,-5,A,"Augusta, GA",384,383,394,394,4.744791666666663,15.650130548302874,82.0,75.0,"Wed, Sep 26, 2018","Sun, Sep  9, 2018"
3864,Albany International,Albany,United States,ALB,KALB,42.748267,-73.801692,285,-5,A,"Albany, NY",898,897,904,904,3.6146993318485534,11.405797101449275,20.0,98.0,"Tue, Sep 25, 2018","Wed, Sep  5, 2018"
5718,Waterloo Regional Airport,Waterloo,United States,ALO,KALO,42.5571,-92.4003,873,-6,A,"Waterloo, IA",54,54,55,55,4.351851851851855,11.296296296296298,14.0,24.0,"Tue, Sep  4, 2018","Mon, Sep 17, 2018"
3840,Rick Husband Amarillo International,Amarillo,United States,AMA,KAMA,35.219369,-101.705931,3607,-6,A,"Amarillo, TX",458,456,466,465,4.829694323144108,13.567982456140351,38.0,45.0,"Thu, Sep 13, 2018","Fri, Sep 14, 2018"
3774,Ted Stevens Anchorage International,Anchorage,United States,ANC,PANC,61.174361,-149.996361,152,-9,A,"Anchorage, AK",1554,1562,1559,1562,3.9948519948519947,12.20742637644047,16.0,47.0,"Sun, Sep 16, 2018","Tue, Sep 25, 2018"
5720,Alpena County Regional Airport,Alpena,United States,APN,KAPN,45.0781,-83.5603,689,-5,A,"Alpena, MI",51,51,51,51,4.568627450980392,12.764705882352942,9.0,31.0,"Fri, Sep  7, 2018","Sun, Sep 16, 2018"
7001,Aspen/Pitkin County-Sardy Field,Aspen,United States,ASE,KASE,39.2232,-106.869,7820,-7,A,"Aspen, CO",368,372,371,373,3.1467391304347827,15.0,35.0,81.0,"Thu, Sep  6, 2018","Sun, Sep  2, 2018"
3682,Hartsfield Jackson Atlanta International,Atlanta,United States,ATL,KATL,33.636719,-84.428067,1026,-5,A,"Atlanta, GA",31336,31342,31521,31525,8.69424942558079,16.302214281156367,93.0,172.0,"Tue, Sep 25, 2018","Tue, Sep 25, 2018"
4047,Appleton,Appleton,United States,ATW,KATW,44.257526,-88.507576,680,-6,A,"Appleton, WI",289,289,294,294,4.695501730103806,15.768166089965398,29.0,55.0,"Fri, Sep 14, 2018","Wed, Sep 19, 2018"
3673,Austin Bergstrom International,Austin,United States,AUS,KAUS,30.194528,-97.669889,542,-6,A,"Austin, TX",5186,5178,5224,5224,6.827805630543769,13.608149864812658,91.0,89.0,"Fri, Sep 21, 2018","Mon, Sep  3, 2018"
4007,Asheville Regional Airport,Asheville,United States,AVL,KAVL,35.436194,-82.541806,2165,-5,A,"Asheville, NC",668,666,678,678,5.0074850299401215,16.887387387387406,66.0,78.0,"Mon, Sep  3, 2018","Fri, Sep 28, 2018"
4286,Wilkes Barre Scranton International,Scranton,United States,AVP,KAVP,41.338478,-75.723403,962,-5,A,"Scranton/Wilkes-Barre, PA",297,297,305,305,4.575757575757576,14.831649831649834,43.0,73.0,"Tue, Sep 25, 2018","Mon, Sep  3, 2018"
6505,Phoenix-Mesa Gateway,Mesa,United States,AZA,KIWA,33.307833,-111.655,1382,-7,N,"Phoenix, AZ",314,314,315,315,5.866242038216556,11.939490445859867,17.0,30.0,"Sat, Sep 22, 2018","Mon, Sep 10, 2018"
4039,Kalamazoo,Kalamazoo,United States,AZO,KAZO,42.234875,-85.552058,874,-5,A,"Kalamazoo, MI",255,255,258,258,3.3529411764705883,17.94117647058822,10.0,56.0,"Fri, Sep 28, 2018","Tue, Sep 11, 2018"
3825,Bradley International,Windsor Locks,United States,BDL,KBDL,41.938889,-72.683222,173,-5,A,"Hartford, CT",2222,2218,2232,2232,5.607110711071107,12.730387736699736,58.0,144.0,"Tue, Sep 18, 2018","Wed, Sep 26, 2018"
3599,Bethel,Bethel,United States,BET,PABE,60.779778,-161.838,121,-9,A,"Bethel, AK",68,68,68,68,3.75,8.029411764705879,6.0,20.0,"Mon, Sep  3, 2018","Wed, Sep  5, 2018"
5723,Western Nebraska Regional Airport,Scottsbluff,United States,BFF,KBFF,41.874,-103.596,3967,-7,A,"Scottsbluff, NE",50,50,50,50,3.88,15.88,7.0,103.0,"Tue, Sep  4, 2018","Mon, Sep 24, 2018"
3558,Meadows Field,Bakersfield,United States,BFL,KBFL,35.433598,-119.05677,507,-8,A,"Bakersfield, CA",191,191,193,193,4.554973821989527,16.931937172774873,20.0,44.0,"Mon, Sep 10, 2018","Fri, Sep 21, 2018"
4129,Greater Binghamton-Edwin A. Link Field,Binghamton,United States,BGM,KBGM,42.208689,-75.979839,1636,-5,A,"Binghamton, NY",85,85,85,85,3.552941176470588,15.823529411764707,5.0,41.0,"Sat, Sep  8, 2018","Wed, Sep 26, 2018"
3463,Bangor International,Bangor,United States,BGR,KBGR,44.807444,-68.828139,192,-5,A,"Bangor, ME",429,432,437,437,5.179487179487179,15.386574074074074,27.0,137.0,"Tue, Sep 11, 2018","Tue, Sep 18, 2018"
3811,Birmingham International,Birmingham,United States,BHM,KBHM,33.562942,-86.75355,644,-6,A,"Birmingham, AL",1518,1516,1536,1536,3.5718050065876175,14.565303430079156,43.0,108.0,"Thu, Sep 13, 2018","Fri, Sep  7, 2018"
4021,Billings Logan International Airport,Billings,United States,BIL,KBIL,45.80921,-108.537654,3652,-7,A,"Billings, MT",279,279,283,284,4.075268817204297,12.430107526881722,32.0,54.0,"Fri, Sep 21, 2018","Sun, Sep  9, 2018"
4083,Bismarck Municipal Airport,Bismarck,United States,BIS,KBIS,46.775842,-100.757931,1661,-6,A,"Bismarck/Mandan, ND",316,316,317,317,5.743670886075951,14.658227848101266,43.0,57.0,"Tue, Sep  4, 2018","Wed, Sep  5, 2018"
4287,Bemidji Regional Airport,Bemidji,United States,BJI,KBJI,47.510722,-94.934722,1391,-6,A,"Bemidji, MN",60,60,60,60,4.0500000000000025,14.35,6.0,47.0,"Thu, Sep 20, 2018","Tue, Sep 18, 2018"
6962,Branson LLC,Branson,United States,BKG,KBBG,36.531994,-93.200556,1302,-6,A,"Branson, MO",17,17,17,17,7.0,10.529411764705882,11.0,24.0,"Fri, Sep 14, 2018","Fri, Sep  7, 2018"
3777,Bellingham International,Bellingham,United States,BLI,KBLI,48.792694,-122.537528,170,-8,A,"Bellingham, WA",114,114,114,114,6.4824561403508785,10.982456140350882,16.0,23.0,"Sun, Sep  9, 2018","Thu, Sep 27, 2018"
3790,Scott AFB Midamerica,Belleville,United States,BLV,KBLV,38.545178,-89.835183,459,-6,A,"Belleville, IL",56,56,56,56,5.464285714285714,10.42857142857143,7.0,18.0,"Sat, Sep  1, 2018","Thu, Sep 13, 2018"
4037,Central Illinois Regional,Bloomington,United States,BMI,KBMI,40.477111,-88.915917,871,-6,A,"Bloomington/Normal, IL",249,250,256,256,3.819277108433735,12.623999999999997,11.0,63.0,"Mon, Sep 24, 2018","Fri, Sep 14, 2018"
3690,Nashville International,Nashville,United States,BNA,KBNA,36.124472,-86.678194,599,-6,A,"Nashville, TN",6306,6306,6369,6369,6.351728512527747,14.037741833174765,51.0,121.0,"Mon, Sep 24, 2018","Tue, Sep 25, 2018"
3495,Boise Air Terminal,Boise,United States,BOI,KBOI,43.564361,-116.222861,2871,-7,A,"Boise, ID",1526,1525,1528,1529,3.9076015727391864,13.843934426229508,28.0,73.0,"Tue, Sep 18, 2018","Tue, Sep 11, 2018"
3448,General Edward Lawrence Logan International,Boston,United States,BOS,KBOS,42.364347,-71.005181,19,-5,A,"Boston, MA",12076,12066,12227,12223,8.332891685988798,19.071937676114665,93.0,162.0,"Mon, Sep  3, 2018","Sat, Sep  1, 2018"
3612,Southeast Texas Regional,Beaumont,United States,BPT,KBPT,29.950833,-94.020694,15,-6,A,"Beaumont/Port Arthur, TX",73,73,76,76,3.972602739726028,15.876712328767118,8.0,94.0,"Mon, Sep 17, 2018","Fri, Sep 14, 2018"
5725,Brunswick Golden Isles Airport,Brunswick,United States,BQK,KBQK,31.2588,-81.4665,26,-5,A,"Brunswick, GA",84,84,84,84,3.511904761904762,17.964285714285708,6.0,52.0,"Tue, Sep 18, 2018","Fri, Sep 28, 2018"
6957,Brainerd Lakes Regional,Brainerd,United States,BRD,KBRD,46.398308,-94.138078,1226,-6,U,"Brainerd, MN",50,50,50,50,4.259999999999999,14.36,10.0,42.0,"Fri, Sep 14, 2018","Wed, Sep  5, 2018"
3738,Brownsville South Padre Island International,Brownsville,United States,BRO,KBRO,25.906833,-97.425861,22,-6,A,"Brownsville, TX",239,239,248,248,4.690376569037654,14.648535564853558,15.0,121.0,"Sat, Sep 22, 2018","Fri, Sep 21, 2018"
3571,Wiley Post Will Rogers Memorial,Barrow,United States,BRW,PABR,71.285446,-156.766003,44,-9,A,"Barrow, AK",58,58,60,60,4.000000000000001,6.379310344827586,18.0,17.0,"Tue, Sep  4, 2018","Fri, Sep 21, 2018"
4022,Bert Mooney Airport,Butte,United States,BTM,KBTM,45.954806,-112.497472,5550,-7,A,"Butte, MT",55,55,55,55,3.090909090909091,11.454545454545457,6.0,31.0,"Thu, Sep 20, 2018","Sun, Sep 30, 2018"
3846,Baton Rouge Metro-Ryan Field,Baton Rouge,United States,BTR,KBTR,30.533167,-91.149639,70,-6,A,"Baton Rouge, LA",580,580,587,588,4.222413793103452,14.53448275862069,24.0,89.0,"Wed, Sep 12, 2018","Fri, Sep 21, 2018"
3711,Burlington International,Burlington,United States,BTV,KBTV,44.471861,-73.153278,335,-5,A,"Burlington, VT",862,861,872,872,4.700696055684455,15.998838559814157,29.0,77.0,"Sun, Sep 16, 2018","Tue, Sep 18, 2018"
3820,Buffalo Niagara International,Buffalo,United States,BUF,KBUF,42.940525,-78.732167,724,-5,A,"Buffalo, NY",2227,2222,2253,2251,4.171531207903014,12.945994599459947,50.0,102.0,"Fri, Sep 28, 2018","Tue, Sep 25, 2018"
3644,Bob Hope,Burbank,United States,BUR,KBUR,34.200667,-118.358667,778,-8,A,"Burbank, CA",2121,2122,2156,2156,2.6190476190476217,13.06691800188501,46.0,68.0,"Wed, Sep 19, 2018","Mon, Sep 17, 2018"
3849,Baltimore Washington International,Baltimore,United States,BWI,KBWI,39.175361,-76.668333,146,-5,A,"Baltimore, MD",8384,8397,8502,8504,5.278148854961831,14.186018816243902,65.0,143.0,"Fri, Sep  7, 2018","Thu, Sep  6, 2018"
4020,Gallatin Field,Bozeman,United States,BZN,KBZN,45.777643,-111.160151,4500,-7,A,"Bozeman, MT",467,466,471,471,4.676659528907927,13.592274678111588,20.0,57.0,"Tue, Sep  4, 2018","Sun, Sep  9, 2018"
3561,Columbia Metropolitan,Colombia,United States,CAE,KCAE,33.938833,-81.119528,236,-5,A,"Columbia, SC",555,553,586,586,4.85945945945946,14.802893309222425,59.0,64.0,"Mon, Sep 17, 2018","Mon, Sep 17, 2018"
4112,Akron Canton Regional Airport,Akron,United States,CAK,KCAK,40.9160833,-81.4421944,1228,-5,A,"Akron, OH",574,576,585,585,4.89721254355401,14.76388888888889,25.0,79.0,"Tue, Sep 11, 2018","Tue, Sep 18, 2018"
3824,Cedar City Regional,Cedar City,United States,CDC,KCDC,37.700967,-113.098847,5622,-7,A,"Cedar City, UT",50,50,50,50,3.96,17.480000000000004,9.0,71.0,"Tue, Sep 25, 2018","Mon, Sep 10, 2018"
3610,Merle K. Mudhole Smith,Cordova,United States,CDV,PACV,60.491778,-145.477556,48,-9,A,"Cordova, AK",60,60,60,60,3.9833333333333334,9.683333333333335,6.0,23.0,"Wed, Sep  5, 2018","Fri, Sep 28, 2018"
5728,Cape Girardeau Regional Airport,Cape Girardeau,United States,CGI,KCGI,37.2253,-89.5708,342,-6,A,"Cape Girardeau, MO",49,48,50,50,5.163265306122449,20.64583333333333,26.0,44.0,"Fri, Sep  7, 2018","Sat, Sep 29, 2018"
3578,Lovell Field,Chattanooga,United States,CHA,KCHA,35.035278,-85.203808,683,-5,A,"Chattanooga, TN",700,703,713,713,5.365714285714286,16.559032716927447,24.0,89.0,"Fri, Sep 28, 2018","Thu, Sep 27, 2018"
4015,Charlottesville-Albemarle,Charlottesville VA,United States,CHO,KCHO,38.138639,-78.452861,639,-5,A,"Charlottesville, VA",453,451,467,467,3.878587196467991,15.685144124168515,23.0,92.0,"Fri, Sep 21, 2018","Tue, Sep 25, 2018"
3806,Charleston AFB International,Charleston,United States,CHS,KCHS,32.898647,-80.040528,45,-5,A,"Charleston, SC",1692,1690,1939,1938,5.817375886524824,15.007692307692308,70.0,156.0,"Sat, Sep 29, 2018","Thu, Sep  6, 2018"
4043,Cedar Rapids,Cedar Rapids,United States,CID,KCID,41.884694,-91.710806,869,-6,A,"Cedar Rapids/Iowa City, IA",776,776,788,788,5.229381443298972,14.671391752577314,28.0,95.0,"Sun, Sep  9, 2018","Fri, Sep  7, 2018"
5729,Chippewa County International Airport,Sault Ste. Marie,United States,CIU,KCIU,46.2508,-84.4724,800,-5,A,"Sault Ste. Marie, MI",55,55,55,55,4.345454545454546,16.90909090909091,10.0,104.0,"Sun, Sep 30, 2018","Thu, Sep 13, 2018"
5730,Harrison Marion Regional Airport,Clarksburg,United States,CKB,KCKB,39.2966,-80.2281,1217,-5,A,"Clarksburg/Fairmont, WV",60,59,62,62,4.066666666666666,16.322033898305083,11.0,34.0,"Wed, Sep 12, 2018","Sat, Sep  1, 2018"
3486,Cleveland Hopkins International,Cleveland,United States,CLE,KCLE,41.411689,-81.849794,791,-5,A,"Cleveland, OH",3912,3911,3966,3960,6.521983640081801,15.772692406034269,49.0,89.0,"Fri, Sep 14, 2018","Mon, Sep  3, 2018"
3715,Easterwood Field,College Station,United States,CLL,KCLL,30.588583,-96.363833,321,-6,A,"College Station/Bryan, TX",186,186,189,189,4.811827956989245,12.21505376344086,32.0,60.0,"Sat, Sep 15, 2018","Thu, Sep 20, 2018"
3876,Charlotte Douglas International,Charlotte,United States,CLT,KCLT,35.214,-80.943139,748,-5,A,"Charlotte, NC",18793,18861,19654,19655,12.516681743202245,19.971316473145524,114.0,162.0,"Sun, Sep  2, 2018","Tue, Sep 25, 2018"
3759,Port Columbus International,Columbus,United States,CMH,KCMH,39.997972,-82.891889,815,-5,A,"Columbus, OH",3665,3662,3713,3713,5.523328785811728,14.087657018022941,60.0,96.0,"Sat, Sep  1, 2018","Tue, Sep 25, 2018"
4049,Champaign,Champaign,United States,CMI,KCMI,40.03925,-88.278056,754,-6,A,"Champaign/Urbana, IL",186,187,193,193,4.456989247311828,10.898395721925137,27.0,35.0,"Thu, Sep 20, 2018","Wed, Sep  5, 2018"
5732,Houghton County Memorial Airport,Hancock,United States,CMX,KCMX,47.1684,-88.4891,1095,-5,A,"Hancock/Houghton, MI",56,57,62,60,4.392857142857144,13.982456140350877,7.0,39.0,"Sat, Sep 29, 2018","Wed, Sep 12, 2018"
7074,Canyonlands Field,Moab,United States,CNY,KCNY,38.755,-109.754722,4555,-7,A,"Moab, UT",52,52,52,52,4.557692307692309,16.442307692307693,10.0,62.0,"Sat, Sep 22, 2018","Tue, Sep 11, 2018"
4344,Yellowstone Regional,Cody,United States,COD,KCOD,44.520194,-109.023806,5102,-7,A,"Cody, WY",96,96,96,96,4.333333333333332,16.447916666666657,8.0,54.0,"Mon, Sep 24, 2018","Mon, Sep  3, 2018"
3819,City Of Colorado Springs Municipal,Colorado Springs,United States,COS,KCOS,38.805805,-104.700778,6187,-7,A,"Colorado Springs, CO",869,871,879,880,7.2520138089758355,18.12743972445467,27.0,138.0,"Sat, Sep 29, 2018","Mon, Sep  3, 2018"
3719,Columbia Regional,Columbia,United States,COU,KCOU,38.818094,-92.219631,889,-6,A,"Columbia, MO",165,164,166,166,4.278787878787878,14.737804878048781,74.0,84.0,"Fri, Sep 14, 2018","Fri, Sep  7, 2018"
3872,Natrona County International,Casper,United States,CPR,KCPR,42.908,-106.464417,5347,-7,A,"Casper, WY",60,60,60,60,3.6166666666666667,11.4,9.0,24.0,"Fri, Sep  7, 2018","Thu, Sep 27, 2018"
3744,Corpus Christi International,Corpus Christi,United States,CRP,KCRP,27.770361,-97.501222,44,-6,A,"Corpus Christi, TX",450,450,465,466,4.52444444444444,12.87555555555556,39.0,73.0,"Sun, Sep 16, 2018","Wed, Sep 26, 2018"
4285,Yeager,Charleston,United States,CRW,KCRW,38.373147,-81.593189,981,-5,A,"Charleston/Dunbar, WV",369,371,377,377,3.6260162601626016,13.026954177897569,16.0,83.0,"Sat, Sep  1, 2018","Sun, Sep  9, 2018"
4255,Columbus Metropolitan Airport,Columbus,United States,CSG,KCSG,32.5163333,-84.9388611,397,-5,A,"Columbus, GA",106,106,106,106,3.273584905660376,17.924528301886788,7.0,58.0,"Tue, Sep 18, 2018","Mon, Sep 24, 2018"
3488,Cincinnati Northern Kentucky International,Cincinnati,United States,CVG,KCVG,39.048836,-84.667822,896,-5,A,"Cincinnati, OH",4094,4086,4135,4133,5.830727894479719,14.926823299070001,83.0,86.0,"Wed, Sep  5, 2018","Mon, Sep 17, 2018"
4045,Central Wisconsin,Wassau,United States,CWA,KCWA,44.772726,-89.646635,840,-6,A,"Mosinee, WI",214,214,218,218,3.8457943925233646,16.789719626168225,9.0,62.0,"Sat, Sep  1, 2018","Tue, Sep 25, 2018"
3950,Daytona Beach International,Daytona Beach,United States,DAB,KDAB,29.179917,-81.058056,34,-5,A,"Daytona Beach, FL",287,287,291,291,3.3275261324041816,14.75609756097561,26.0,108.0,"Fri, Sep 21, 2018","Sun, Sep  2, 2018"
3502,Dallas Love Field,Dallas,United States,DAL,KDAL,32.847111,-96.851778,487,-6,A,"Dallas, TX",5672,5681,5770,5770,5.0266220028208775,13.713782784720994,87.0,148.0,"Fri, Sep 21, 2018","Fri, Sep  7, 2018"
3627,James M. Cox Dayton International,Dayton,United States,DAY,KDAY,39.902375,-84.219375,1009,-5,A,"Dayton, OH",1204,1207,1226,1226,5.040697674418605,14.090306545153272,26.0,91.0,"Tue, Sep  4, 2018","Fri, Sep  7, 2018"
4388,Dubuque Regional,Dubuque IA,United States,DBQ,KDBQ,42.402,-90.709472,1076,-6,A,"Dubuque, IA",83,82,85,85,4.481927710843374,13.451219512195122,9.0,46.0,"Mon, Sep 10, 2018","Tue, Sep 25, 2018"
3520,Ronald Reagan Washington National,Washington,United States,DCA,KDCA,38.852083,-77.037722,15,-5,A,"Washington, DC",10777,10765,10981,10981,6.981998700937173,19.841337668369796,141.0,158.0,"Fri, Sep  7, 2018","Tue, Sep 25, 2018"
3751,Denver International,Denver,United States,DEN,KDEN,39.861656,-104.673178,5431,-7,A,"Denver, CO",19685,19714,19807,19807,8.476301752603506,16.149893476717086,91.0,137.0,"Tue, Sep 11, 2018","Wed, Sep 19, 2018"
3670,Dallas Fort Worth International,Dallas-fort Worth,United States,DFW,KDFW,32.896828,-97.037997,607,-6,A,"Dallas/Fort Worth, TX",22065,22112,22795,22802,13.058191706322159,19.882009768451336,135.0,162.0,"Thu, Sep  6, 2018","Thu, Sep 20, 2018"
3739,Dothan Regional,Dothan,United States,DHN,KDHN,31.321339,-85.449628,401,-6,A,"Dothan, AL",106,106,106,106,3.2358490566037736,21.707547169811317,9.0,89.0,"Wed, Sep 26, 2018","Sun, Sep 30, 2018"
3598,Duluth International,Duluth,United States,DLH,KDLH,46.842091,-92.193649,1428,-6,A,"Duluth, MN",251,250,252,252,5.051792828685259,15.7,21.0,61.0,"Fri, Sep 28, 2018","Thu, Sep 20, 2018"
3713,Durango La Plata County,Durango,United States,DRO,KDRO,37.151516,-107.75377,6685,-7,A,"Durango, CO",203,205,215,215,4.699507389162561,13.663414634146337,22.0,62.0,"Sat, Sep  8, 2018","Mon, Sep 24, 2018"
3729,Des Moines International,Des Moines,United States,DSM,KDSM,41.533972,-93.663083,958,-6,A,"Des Moines, IA",1226,1228,1239,1239,5.538336052202279,13.418566775244294,35.0,138.0,"Tue, Sep 11, 2018","Mon, Sep  3, 2018"
3645,Detroit Metro Wayne County,Detroit,United States,DTW,KDTW,42.212444,-83.353389,645,-5,A,"Detroit, MI",12680,12676,12724,12725,8.213564668769756,17.523903439570798,103.0,156.0,"Sat, Sep  1, 2018","Sat, Sep  1, 2018"
7063,Devils Lake Regional Airport,Devils Lake,United States,DVL,KDVL,48.114444,-98.908611,1445,-6,A,"Devils Lake, ND",51,51,51,51,5.274509803921569,18.45098039215687,10.0,45.0,"Thu, Sep 13, 2018","Fri, Sep  7, 2018"
6129,Kearney Municipal Airport,Kearney,United States,EAR,EAR,40.727,-99.0068,2131,-6,A,"Kearney, NE",44,43,44,43,4.795454545454546,18.302325581395348,11.0,34.0,"Tue, Sep 25, 2018","Thu, Sep  6, 2018"
5735,Chippewa Valley Regional Airport,Eau Claire,United States,EAU,KEAU,44.8658,-91.4843,913,-6,A,"Eau Claire, WI",60,58,60,60,4.016666666666667,13.03448275862069,13.0,31.0,"Sat, Sep 15, 2018","Sat, Sep 29, 2018"
7669,Northwest Florida Beaches International,Panama City,United States,ECP,KECP,30.3417,-85.7973,69,-6,A,"Panama City, FL",529,528,536,536,3.24007561436673,13.073863636363637,33.0,72.0,"Thu, Sep 13, 2018","Sat, Sep 22, 2018"
4250,Eagle County Regional,Vail,United States,EGE,KEGE,39.642556,-106.917694,6540,-7,A,"Eagle, CO",89,89,89,89,4.910112359550559,14.247191011235955,17.0,38.0,"Sat, Sep 15, 2018","Fri, Sep  7, 2018"
5736,Elko Regional Airport,Elko,United States,EKO,KEKO,40.8249,-115.792,5140,-8,A,"Elko, NV",55,55,55,55,4.236363636363635,9.96363636363636,8.0,26.0,"Wed, Sep 19, 2018","Tue, Sep 25, 2018"
3946,Elmira Corning Regional,Elmira,United States,ELM,KELM,42.159889,-76.891611,954,-5,A,"Elmira/Corning, NY",20,20,20,20,5.25,10.8,10.0,21.0,"Sat, Sep  1, 2018","Sat, Sep  1, 2018"
3559,El Paso International,El Paso,United States,ELP,KELP,31.80725,-106.377583,3958,-7,A,"El Paso, TX",1359,1358,1375,1375,3.7571743929359824,13.49631811487481,32.0,93.0,"Thu, Sep  6, 2018","Wed, Sep  5, 2018"
4276,Erie International-Tom Ridge Field,Erie,United States,ERI,KERI,42.082022,-80.176217,733,-5,A,"Erie, PA",90,90,90,90,3.6444444444444444,18.74444444444445,8.0,58.0,"Sat, Sep 15, 2018","Mon, Sep 24, 2018"
6800,Delta County Airport,Escanaba,United States,ESC,KESC,45.722778,-87.093611,609,-5,A,"Escanaba, MI",50,50,50,50,3.86,15.079999999999995,6.0,37.0,"Fri, Sep 28, 2018","Wed, Sep 19, 2018"
4099,Mahlon Sweet Field,Eugene,United States,EUG,KEUG,44.124583,-123.211972,374,-8,A,"Eugene, OR",333,334,335,335,4.972972972972969,14.164670658682635,27.0,70.0,"Sun, Sep  2, 2018","Thu, Sep 27, 2018"
4018,Evansville Regional,Evansville,United States,EVV,KEVV,38.036997,-87.532364,418,-6,A,"Evansville, IN",353,351,362,362,4.135977337110483,17.11965811965813,11.0,140.0,"Fri, Sep  7, 2018","Fri, Sep 28, 2018"
3730,Craven County Regional,New Bern,United States,EWN,KEWN,35.072972,-77.042944,18,-5,A,"New Bern/Morehead/Beaufort, NC",162,161,203,203,2.9506172839506175,13.062111801242237,7.0,65.0,"Fri, Sep  7, 2018","Thu, Sep 27, 2018"
3494,Newark Liberty International,Newark,United States,EWR,KEWR,40.6925,-74.168667,18,-5,A,"Newark, NJ",11423,11432,11590,11591,9.16536811695701,23.085111966410036,65.0,156.0,"Sat, Sep 22, 2018","Wed, Sep 26, 2018"
3875,Key West International,Key West,United States,EYW,KEYW,24.556111,-81.759556,3,-5,A,"Key West, FL",274,274,277,277,4.642335766423359,10.142335766423358,80.0,24.0,"Mon, Sep  3, 2018","Tue, Sep  4, 2018"
3832,Fairbanks International,Fairbanks,United States,FAI,PAFA,64.815114,-147.856267,434,-9,A,"Fairbanks, AK",372,373,373,373,3.736559139784946,11.378016085790884,17.0,32.0,"Wed, Sep 19, 2018","Wed, Sep 19, 2018"
4292,Hector International Airport,Fargo,United States,FAR,KFAR,46.92065,-96.8157639,902,-6,A,"Fargo, ND",475,475,480,480,5.210526315789472,15.018947368421053,21.0,71.0,"Wed, Sep 26, 2018","Fri, Sep  7, 2018"
3687,Fresno Yosemite International,Fresno,United States,FAT,KFAT,36.776194,-119.71814,336,-8,A,"Fresno, CA",991,990,997,997,5.335015136226034,15.348484848484848,30.0,53.0,"Sun, Sep  9, 2018","Mon, Sep 17, 2018"
5738,Fayetteville Regional-Grannis Field,Fayetteville,United States,FAY,KFAY,34.9912,-78.8803,189,-5,A,"Fayetteville, NC",278,277,327,327,4.928057553956833,15.794223826714818,53.0,67.0,"Thu, Sep 27, 2018","Thu, Sep 27, 2018"
4127,Glacier Park International,Kalispell,United States,FCA,KFCA,48.310472,-114.256,2977,-7,A,"Kalispell, MT",259,259,259,259,3.9382239382239375,14.1003861003861,8.0,50.0,"Mon, Sep  3, 2018","Mon, Sep  3, 2018"
4261,Flagstaff Pulliam Airport,Flagstaff,United States,FLG,KFLG,35.140318,-111.6692392,7015,-7,N,"Flagstaff, AZ",82,81,82,82,3.926829268292683,19.037037037037038,10.0,68.0,"Mon, Sep 24, 2018","Sun, Sep 30, 2018"
3533,Fort Lauderdale Hollywood International,Fort Lauderdale,United States,FLL,KFLL,26.072583,-80.15275,9,-5,A,"Fort Lauderdale, FL",7064,7056,7110,7105,5.965175537938848,15.71329365079365,103.0,109.0,"Sun, Sep  2, 2018","Tue, Sep 18, 2018"
4089,Bishop International,Flint,United States,FNT,KFNT,42.965424,-83.743629,782,-5,A,"Flint, MI",308,308,311,311,5.103896103896103,13.551948051948052,50.0,89.0,"Mon, Sep 24, 2018","Tue, Sep 11, 2018"
4009,Sioux Falls,Sioux Falls,United States,FSD,KFSD,43.582014,-96.741914,1429,-6,A,"Sioux Falls, SD",502,500,510,510,4.348605577689241,16.53799999999998,40.0,70.0,"Sun, Sep 23, 2018","Fri, Sep  7, 2018"
3437,Fort Smith Regional,Fort Smith,United States,FSM,KFSM,35.336583,-94.367444,469,-6,A,"Fort Smith, AR",170,171,174,174,3.5941176470588236,15.637426900584796,39.0,92.0,"Mon, Sep 17, 2018","Fri, Sep 14, 2018"
4041,Fort Wayne,Fort Wayne,United States,FWA,KFWA,40.978472,-85.195139,815,-5,A,"Fort Wayne, IN",557,557,565,564,5.491921005386001,15.608617594254937,27.0,54.0,"Sun, Sep  9, 2018","Mon, Sep  3, 2018"
4296,Gillette-Campbell County Airport,Gillette,United States,GCC,KGCC,44.3489167,-105.5393611,4365,-7,A,"Gillette, WY",60,60,60,60,5.533333333333331,15.88333333333333,9.0,49.0,"Sat, Sep 22, 2018","Fri, Sep 28, 2018"
3497,Garden City Regional,Garden City,United States,GCK,KGCK,37.927528,-100.724417,2891,-6,A,"Garden City, KS",60,60,60,60,4.616666666666668,11.983333333333333,8.0,30.0,"Sun, Sep  2, 2018","Sat, Sep 22, 2018"
3467,Spokane International,Spokane,United States,GEG,KGEG,47.619861,-117.533833,2376,-8,A,"Spokane, WA",1094,1093,1098,1097,4.434186471663614,14.716376944190309,37.0,86.0,"Tue, Sep 25, 2018","Thu, Sep 13, 2018"
3442,Grand Forks International,Grand Forks,United States,GFK,KGFK,47.949256,-97.176111,845,-6,A,"Grand Forks, ND",166,166,167,167,4.265060240963856,15.349397590361447,8.0,65.0,"Thu, Sep 27, 2018","Wed, Sep 19, 2018"
3465,East Texas Regional,Longview,United States,GGG,KGGG,32.384014,-94.711486,365,-6,A,"Longview, TX",59,59,60,61,4.423728813559321,12.0,9.0,87.0,"Tue, Sep 11, 2018","Fri, Sep 14, 2018"
4063,Grand Junction Regional,Grand Junction,United States,GJT,KGJT,39.122413,-108.526735,4858,-7,A,"Grand Junction, CO",321,321,323,323,4.049844236760131,13.962616822429906,23.0,73.0,"Fri, Sep  7, 2018","Fri, Sep 21, 2018"
3472,Gainesville Regional,Gainesville,United States,GNV,KGNV,29.690056,-82.271778,152,-5,A,"Gainesville, FL",349,349,354,354,4.048710601719194,13.252148997134675,22.0,48.0,"Fri, Sep 28, 2018","Sun, Sep  9, 2018"
4038,Gulfport-Biloxi,Gulfport,United States,GPT,KGPT,30.407278,-89.070111,28,-6,A,"Gulfport/Biloxi, MS",334,335,345,345,4.772455089820359,13.313432835820898,22.0,46.0,"Thu, Sep  6, 2018","Mon, Sep  3, 2018"
3653,Austin Straubel International,Green Bay,United States,GRB,KGRB,44.485072,-88.129589,695,-6,A,"Green Bay, WI",356,355,363,363,4.308988764044946,14.673239436619724,30.0,92.0,"Mon, Sep 17, 2018","Sat, Sep  1, 2018"
5740,Central Nebraska Regional Airport,Grand Island,United States,GRI,KGRI,40.9675,-98.3096,1847,-6,A,"Grand Island, NE",88,88,88,88,4.556818181818182,14.352272727272727,22.0,106.0,"Mon, Sep  3, 2018","Fri, Sep  7, 2018"
3775,Robert Gray AAF,Killeen,United States,GRK,KGRK,31.06725,-97.828917,1015,-6,A,"Killeen, TX",253,252,258,258,4.055335968379445,16.88492063492064,22.0,50.0,"Mon, Sep  3, 2018","Wed, Sep 26, 2018"
3685,Gerald R. Ford International,Grand Rapids,United States,GRR,KGRR,42.880833,-85.522806,794,-5,A,"Grand Rapids, MI",1433,1433,1447,1447,5.805303558967203,14.364270760642015,43.0,61.0,"Sun, Sep 23, 2018","Fri, Sep 21, 2018"
4008,Piedmont Triad,Greensboro,United States,GSO,KGSO,36.09775,-79.937306,925,-5,A,"Greensboro/High Point, NC",1007,1008,1036,1036,7.583912611717978,18.77876984126983,125.0,90.0,"Sat, Sep  1, 2018","Sun, Sep 23, 2018"
4034,Greenville-Spartanburg International,Greenville,United States,GSP,KGSP,34.895556,-82.218889,964,-5,A,"Greer, SC",1297,1295,1315,1315,4.313030069390899,14.959845559845565,59.0,109.0,"Mon, Sep 10, 2018","Sun, Sep  9, 2018"
3880,Great Falls International,Great Falls,United States,GTF,KGTF,47.482,-111.370689,3677,-7,A,"Great Falls, MT",156,156,156,156,4.038461538461541,12.384615384615389,41.0,45.0,"Fri, Sep 21, 2018","Sun, Sep  9, 2018"
4273,Golden Triangle Regional Airport,Columbus Mississippi,United States,GTR,KGTR,33.450333,-88.591361,264,-6,A,"Columbus, MS",84,84,84,84,3.80952380952381,16.738095238095234,10.0,65.0,"Thu, Sep 20, 2018","Tue, Sep 25, 2018"
4339,Yampa Valley,Hayden,United States,HDN,KHDN,40.481181,-107.21766,6602,-7,A,"Hayden, CO",10,11,11,12,5.4,13.0,8.0,20.0,"Sun, Sep  2, 2018","Tue, Sep 18, 2018"
6739,Hagerstown Regional-Richard A. Henson Field,Hagerstown,United States,HGR,KHGR,39.7079,-77.7295,704,-5,A,"Hagerstown, MD",8,8,8,8,5.125,8.25,7.0,12.0,"Fri, Sep 28, 2018","Mon, Sep 10, 2018"
7002,Hilton Head,Hilton Head,United States,HHH,KHHH,32.216,-80.752,10,-5,U,"Hilton Head, SC",79,79,89,89,6.620253164556962,22.075949367088608,11.0,78.0,"Sun, Sep  9, 2018","Sun, Sep  9, 2018"
3650,Chisholm Hibbing,Hibbing,United States,HIB,KHIB,47.3866,-92.838994,1353,-6,A,"Hibbing, MN",50,50,50,50,4.040000000000001,14.58,7.0,38.0,"Tue, Sep 11, 2018","Sat, Sep  1, 2018"
3504,Helena Regional,Helena,United States,HLN,KHLN,46.606806,-111.98275,3877,-7,A,"Helena, MT",172,172,172,172,3.255813953488372,14.906976744186046,12.0,52.0,"Wed, Sep 26, 2018","Sun, Sep  9, 2018"
3728,Honolulu International,Honolulu,United States,HNL,PHNL,21.318681,-157.922428,13,-10,N,"Honolulu, HI",3952,3956,3978,3980,7.159159919028341,15.47396359959554,72.0,58.0,"Thu, Sep 20, 2018","Mon, Sep 17, 2018"
3749,Lea County Regional,Hobbs,United States,HOB,KHOB,32.687528,-103.217028,3661,-7,A,"Hobbs, NM",55,55,55,55,5.163636363636364,12.50909090909091,19.0,45.0,"Wed, Sep 19, 2018","Thu, Sep 27, 2018"
3566,William P. Hobby,Houston,United States,HOU,KHOU,29.645419,-95.278889,46,-6,A,"Houston, TX",4451,4453,4512,4512,5.45585261738936,11.853132719514944,47.0,99.0,"Sat, Sep 15, 2018","Sat, Sep 22, 2018"
3589,Westchester County,White Plains,United States,HPN,KHPN,41.066959,-73.707575,439,-5,A,"White Plains, NY",811,809,822,821,6.106041923551176,18.75401730531519,37.0,105.0,"Wed, Sep 12, 2018","Thu, Sep  6, 2018"
3560,Valley International,Harlingen,United States,HRL,KHRL,26.2285,-97.654389,36,-6,A,"Harlingen/San Benito, TX",266,266,268,268,3.030075187969924,11.093984962406017,9.0,44.0,"Thu, Sep  6, 2018","Wed, Sep 19, 2018"
4113,Huntsville International Airport-Carl T. Jones Field,Huntsville,United States,HSV,KHSV,34.6371944,-86.7750556,629,-6,A,"Huntsville, AL",723,717,737,737,5.071922544951594,15.746164574616458,29.0,99.0,"Fri, Sep 14, 2018","Wed, Sep 26, 2018"
5742,TriState-Milton J. Ferguson Field,Huntington,United States,HTS,KHTS,38.3667,-82.558,828,-5,A,"Ashland, WV",61,62,68,69,4.491803278688525,10.919354838709678,10.0,50.0,"Mon, Sep  3, 2018","Sun, Sep  9, 2018"
4006,Tweed-New Haven Airport,New Haven,United States,HVN,KHVN,41.26375,-72.886806,14,-5,A,"New Haven, CT",82,82,85,85,3.8658536585365852,11.353658536585368,67.0,61.0,"Thu, Sep  6, 2018","Tue, Sep 18, 2018"
4278,Barnstable Municipal-Boardman Polando Field,Barnstable,United States,HYA,KHYA,41.669336,-70.280356,55,-5,A,"Hyannis, MA",4,4,4,4,4.75,7.75,7.0,13.0,"Tue, Sep  4, 2018","Sun, Sep  2, 2018"
7014,Hays Regional Airport,Hays,United States,HYS,KHYS,38.8422,-99.2732,1998,-5,A,"Hays, KS",99,99,100,100,5.555555555555558,13.272727272727273,61.0,31.0,"Sun, Sep  2, 2018","Sat, Sep 29, 2018"
3714,Washington Dulles International,Washington,United States,IAD,KIAD,38.944533,-77.455811,313,-5,A,"Washington, DC",5875,5875,5951,5951,6.102808510638299,20.6857872340425,156.0,160.0,"Fri, Sep  7, 2018","Fri, Sep  7, 2018"
3630,Niagara Falls International,Niagara Falls,United States,IAG,KIAG,43.107333,-78.946194,589,-5,A,"Niagara Falls, NY",52,51,54,53,7.634615384615385,12.823529411764707,9.0,39.0,"Mon, Sep 10, 2018","Mon, Sep  3, 2018"
3550,George Bush Intercontinental Houston,Houston,United States,IAH,KIAH,29.984433,-95.341442,97,-6,A,"Houston, TX",14077,14100,14203,14210,8.540740214534326,18.854113475177222,149.0,123.0,"Thu, Sep 20, 2018","Wed, Sep 26, 2018"
3457,Wichita Mid Continent,Wichita,United States,ICT,KICT,37.649944,-97.433056,1333,-6,A,"Wichita, KS",828,828,837,837,4.647342995169082,12.7572463768116,43.0,55.0,"Sun, Sep  2, 2018","Fri, Sep  7, 2018"
4100,Idaho Falls Regional,Idaho Falls,United States,IDA,KIDA,43.514556,-112.07075,4744,-7,A,"Idaho Falls, ID",113,112,113,112,4.601769911504425,13.517857142857142,14.0,35.0,"Sat, Sep 22, 2018","Fri, Sep 21, 2018"
3845,Wilmington International,Wilmington,United States,ILM,KILM,34.270615,-77.902569,32,-5,A,"Wilmington, NC",405,406,520,520,4.160493827160498,15.522167487684733,24.0,124.0,"Thu, Sep 27, 2018","Sun, Sep  9, 2018"
6837,Ford Airport,Iron Mountain,United States,IMT,KIMT,45.8183611,-88.1145556,1182,-5,A,"Iron Mountain/Kingsfd, MI",55,55,55,55,4.072727272727273,12.2,7.0,36.0,"Thu, Sep  6, 2018","Thu, Sep 13, 2018"
3585,Indianapolis International,Indianapolis,United States,IND,KIND,39.717331,-86.294383,797,-5,A,"Indianapolis, IN",3750,3750,3791,3790,5.926666666666665,14.034666666666663,51.0,109.0,"Sat, Sep  1, 2018","Sun, Sep  2, 2018"
3535,Falls International,International Falls,United States,INL,KINL,48.566186,-93.403067,1185,-6,A,"International Falls, MN",53,53,54,54,4.056603773584905,16.566037735849058,9.0,40.0,"Tue, Sep 11, 2018","Wed, Sep 19, 2018"
3659,Sloulin Field International,Williston,United States,ISN,KISN,48.177939,-103.642347,1982,-7,A,"Williston, ND",131,131,131,131,5.679389312977099,24.137404580152673,24.0,58.0,"Thu, Sep 13, 2018","Wed, Sep 26, 2018"
3857,Long Island MacArthur,Islip,United States,ISP,KISP,40.79525,-73.100222,99,-5,A,"Islip, NY",383,383,392,393,4.201044386422975,10.148825065274151,15.0,34.0,"Wed, Sep  5, 2018","Tue, Sep 18, 2018"
3947,Ithaca Tompkins Regional,Ithaca,United States,ITH,KITH,42.491028,-76.458444,1099,-5,A,"Ithaca/Cortland, NY",85,85,85,85,3.470588235294118,17.07058823529411,15.0,43.0,"Mon, Sep  3, 2018","Wed, Sep  5, 2018"
3415,Hilo International,Hilo,United States,ITO,PHTO,19.721375,-155.048469,38,-10,N,"Hilo, HI",507,504,511,508,5.530571992110455,9.583333333333341,17.0,23.0,"Sat, Sep  1, 2018","Tue, Sep 25, 2018"
4027,Jackson Hole Airport,Jacksn Hole,United States,JAC,KJAC,43.60733333,-110.73775,6451,-7,A,"Jackson, WY",388,390,390,392,3.8762886597938166,15.238461538461538,52.0,80.0,"Fri, Sep  7, 2018","Mon, Sep  3, 2018"
3580,Jackson Evers International,Jackson,United States,JAN,KJAN,32.311167,-90.075889,346,-6,A,"Jackson/Vicksburg, MS",623,618,635,635,4.882825040128414,14.648867313915858,54.0,112.0,"Mon, Sep 10, 2018","Fri, Sep 14, 2018"
3712,Jacksonville International,Jacksonville,United States,JAX,KJAX,30.494056,-81.687861,30,-5,A,"Jacksonville, FL",2677,2673,2699,2700,5.806126260739632,13.493453049008602,75.0,96.0,"Wed, Sep 19, 2018","Fri, Sep  7, 2018"
3797,John F. Kennedy International,New York,United States,JFK,KJFK,40.639751,-73.778925,13,-5,A,"New York, NY",10610,10618,10714,10711,10.667295004712487,28.941043511019014,111.0,165.0,"Thu, Sep  6, 2018","Wed, Sep 26, 2018"
4354,Joplin Regional,Joplin,United States,JLN,KJLN,37.151814,-94.498269,981,-6,A,"Joplin, MO",59,58,59,59,3.7457627118644066,19.81034482758621,6.0,47.0,"Fri, Sep  7, 2018","Fri, Sep 14, 2018"
5745,Jamestown Regional Airport,Jamestown,United States,JMS,KJMS,46.9297,-98.6782,1498,-6,A,"Jamestown, ND",81,81,81,81,5.234567901234566,14.962962962962964,28.0,31.0,"Tue, Sep  4, 2018","Tue, Sep  4, 2018"
3492,Juneau International,Juneau,United States,JNU,PAJN,58.354972,-134.576278,21,-9,A,"Juneau, AK",341,343,342,344,4.0909090909090855,12.005830903790082,14.0,30.0,"Wed, Sep  5, 2018","Mon, Sep 17, 2018"
3514,Kona International At Keahole,Kona,United States,KOA,PHKO,19.738767,-156.045631,47,-10,N,"Kona, HI",1075,1076,1083,1086,4.749767441860467,10.95539033457249,33.0,63.0,"Mon, Sep  3, 2018","Thu, Sep 20, 2018"
3808,Ketchikan International,Ketchikan,United States,KTN,PAKT,55.355556,-131.71375,88,-9,A,"Ketchikan, AK",193,193,193,193,4.253886010362694,10.652849740932645,33.0,50.0,"Sun, Sep 30, 2018","Fri, Sep  7, 2018"
3544,Capital City,Lansing,United States,LAN,KLAN,42.7787,-84.587357,861,-5,A,"Lansing, MI",336,334,339,338,4.4196428571428585,14.748502994011975,30.0,101.0,"Sun, Sep  9, 2018","Tue, Sep 25, 2018"
5746,Laramie Regional Airport,Laramie,United States,LAR,KLAR,41.3121,-105.675,7284,-7,A,"Laramie, WY",50,50,50,50,5.32,19.3,9.0,61.0,"Mon, Sep  3, 2018","Fri, Sep  7, 2018"
3877,McCarran International,Las Vegas,United States,LAS,KLAS,36.080056,-115.15225,2141,-8,A,"Las Vegas, NV",13251,13255,13322,13318,6.91661006716475,15.523877781969077,89.0,113.0,"Sun, Sep 23, 2018","Sun, Sep 16, 2018"
4256,Lawton-Fort Sill Regional Airport,Lawton,United States,LAW,KLAW,34.5677144,-98.4166367,1110,-6,A,"Lawton/Fort Sill, OK",103,104,110,110,3.0485436893203883,15.836538461538469,19.0,72.0,"Mon, Sep 24, 2018","Wed, Sep  5, 2018"
3484,Los Angeles International,Los Angeles,United States,LAX,KLAX,33.942536,-118.408075,126,-8,A,"Los Angeles, CA",17744,17747,17873,17875,10.93462578899913,17.890291316842255,73.0,155.0,"Fri, Sep 14, 2018","Thu, Sep  6, 2018"
3829,Lubbock Preston Smith International,Lubbock,United States,LBB,KLBB,33.663639,-101.822778,3282,-6,A,"Lubbock, TX",485,485,503,502,4.216494845360828,13.354639175257736,38.0,93.0,"Fri, Sep 21, 2018","Wed, Sep 26, 2018"
5747,Arnold Palmer Regional Airport,Latrobe,United States,LBE,KLBE,40.2759,-79.4048,1185,-5,A,"Latrobe, PA",77,78,81,81,6.571428571428572,11.320512820512821,22.0,27.0,"Sat, Sep 29, 2018","Sun, Sep 23, 2018"
5748,North Platte Regional Airport-Lee Bird Field,North Platte,United States,LBF,KLBF,41.1262,-100.684,2776,-6,A,"North Platte, NE",50,50,50,50,5.76,11.44,11.0,24.0,"Wed, Sep 26, 2018","Wed, Sep 12, 2018"
4341,Liberal Municipal,Liberal,United States,LBL,KLBL,37.044222,-100.95986,2885,-6,A,"Liberal, KS",50,50,50,50,5.46,14.9,14.0,57.0,"Tue, Sep 25, 2018","Mon, Sep 24, 2018"
3513,Lake Charles Regional,Lake Charles,United States,LCH,KLCH,30.126112,-93.223335,15,-6,A,"Lake Charles, LA",167,166,169,169,5.083832335329343,12.355421686746988,8.0,50.0,"Mon, Sep 10, 2018","Wed, Sep  5, 2018"
3674,Rickenbacker International,Columbus,United States,LCK,KLCK,39.813786,-82.927822,744,-5,A,"Columbus, OH",65,65,68,68,6.584615384615384,12.06153846153846,38.0,31.0,"Fri, Sep 28, 2018","Mon, Sep 17, 2018"
4017,Blue Grass,Lexington KY,United States,LEX,KLEX,38.0365,-84.605889,979,-5,A,"Lexington, KY",831,832,847,847,4.504211793020455,16.110576923076934,36.0,109.0,"Wed, Sep  5, 2018","Fri, Sep 28, 2018"
3493,Lafayette Regional,Lafayette,United States,LFT,KLFT,30.205278,-91.987611,43,-6,A,"Lafayette, LA",364,364,371,371,4.950549450549451,15.082417582417582,10.0,67.0,"Tue, Sep 25, 2018","Sat, Sep 29, 2018"
3697,LaGuardia Airport,New York,United States,LGA,KLGA,40.777245,-73.872608,22,-5,A,"New York, NY",13501,13520,13850,13850,8.401525812902756,25.175147928994075,98.0,169.0,"Wed, Sep 26, 2018","Wed, Sep 26, 2018"
3582,Long Beach,Long Beach,United States,LGB,KLGB,33.817722,-118.151611,60,-8,A,"Long Beach, CA",1252,1252,1258,1257,4.042332268370612,12.899361022364216,21.0,88.0,"Sat, Sep  1, 2018","Sat, Sep  8, 2018"
3602,Lihue,Lihue,United States,LIH,PHLI,21.975983,-159.338958,153,-10,N,"Lihue, HI",1103,1102,1103,1103,5.893019038984588,10.37658802177859,38.0,36.0,"Fri, Sep 21, 2018","Mon, Sep 24, 2018"
3660,Adams Field,Little Rock,United States,LIT,KLIT,34.729444,-92.224306,262,-6,A,"Little Rock, AR",1031,1029,1045,1043,5.1619786614936976,14.236151603498543,39.0,115.0,"Mon, Sep  3, 2018","Fri, Sep 14, 2018"
3543,Lincoln,Lincoln,United States,LNK,KLNK,40.850971,-96.75925,1219,-6,A,"Lincoln, NE",127,127,127,127,3.622047244094488,16.71653543307088,7.0,74.0,"Sun, Sep  9, 2018","Wed, Sep 19, 2018"
3691,Laredo International,Laredo,United States,LRD,KLRD,27.54375,-99.461556,508,-6,A,"Laredo, TX",191,191,196,196,4.539267015706804,15.193717277486911,9.0,118.0,"Thu, Sep 13, 2018","Thu, Sep 20, 2018"
4044,LaCrosse Municipal,LaCrosse,United States,LSE,KLSE,43.878986,-91.256711,654,-6,A,"La Crosse, WI",174,173,176,176,3.1494252873563218,15.104046242774567,8.0,58.0,"Fri, Sep 28, 2018","Fri, Sep 21, 2018"
6958,Greenbrier Valley Airport,Lewisburg,United States,LWB,KLWB,37.858333,-80.399444,2302,-5,U,"Lewisburg, WV",68,67,68,68,4.617647058823529,14.253731343283581,8.0,28.0,"Fri, Sep 28, 2018","Mon, Sep 24, 2018"
3945,Lewiston Nez Perce County,Lewiston,United States,LWS,KLWS,46.3745,-117.015389,1442,-8,A,"Lewiston, ID",56,56,56,56,4.107142857142857,10.232142857142858,7.0,29.0,"Fri, Sep  7, 2018","Fri, Sep 21, 2018"
5753,Lynchburg Regional-Preston Glenn Field,Lynchburg,United States,LYH,KLYH,37.3267,-79.2004,938,-5,A,"Lynchburg, VA",135,134,139,139,3.1333333333333333,16.91044776119403,25.0,57.0,"Sat, Sep  1, 2018","Fri, Sep  7, 2018"
3652,Midland International,Midland,United States,MAF,KMAF,31.942528,-102.201914,2871,-6,A,"Midland/Odessa, TX",724,722,740,740,3.6988950276243093,13.218836565096955,70.0,83.0,"Fri, Sep 21, 2018","Fri, Sep 14, 2018"
4128,MBS International,Saginaw,United States,MBS,KMBS,43.532913,-84.079647,668,-5,A,"Saginaw/Bay City/Midland, MI",239,242,242,243,4.154811715481171,18.533057851239665,12.0,63.0,"Sun, Sep 23, 2018","Tue, Sep 11, 2018"
3458,Kansas City International,Kansas City,United States,MCI,KMCI,39.297606,-94.713905,1026,-6,A,"Kansas City, MO",4494,4492,4536,4534,4.877837116154869,11.951246660730211,26.0,108.0,"Wed, Sep 26, 2018","Fri, Sep 14, 2018"
3878,Orlando International,Orlando,United States,MCO,KMCO,28.429394,-81.308994,96,-5,A,"Orlando, FL",9905,9919,9981,9978,9.082988389702178,14.851799576570214,95.0,133.0,"Mon, Sep 10, 2018","Mon, Sep 10, 2018"
3542,Harrisburg International,Harrisburg,United States,MDT,KMDT,40.193494,-76.763403,310,-5,A,"Harrisburg, PA",496,495,504,504,4.8286290322580685,14.93131313131313,25.0,84.0,"Sun, Sep 30, 2018","Sat, Sep  8, 2018"
3747,Chicago Midway International,Chicago,United States,MDW,KMDW,41.785972,-87.752417,620,-6,A,"Chicago, IL",7075,7086,7168,7171,5.624169611307437,11.951876940445946,83.0,131.0,"Mon, Sep  3, 2018","Mon, Sep  3, 2018"
4335,Key Field,Meridian,United States,MEI,KMEI,32.332624,-88.751868,297,-6,A,"Meridian, MS",89,89,90,90,4.797752808988764,16.505617977528093,15.0,68.0,"Thu, Sep  6, 2018","Tue, Sep 11, 2018"
3473,Memphis International,Memphis,United States,MEM,KMEM,35.042417,-89.976667,341,-6,A,"Memphis, TN",1878,1870,1890,1890,5.089456869009586,14.745989304812834,65.0,78.0,"Sat, Sep  1, 2018","Wed, Sep 12, 2018"
3826,McAllen Miller International,Mcallen,United States,MFE,KMFE,26.175833,-98.238611,107,-6,A,"Mission/McAllen/Edinburg, TX",373,370,389,388,3.8820375335120643,12.92972972972973,25.0,110.0,"Sun, Sep  9, 2018","Thu, Sep 20, 2018"
4101,Rogue Valley International Medford,Medford,United States,MFR,KMFR,42.374228,-122.8735,1335,-8,A,"Medford, OR",365,369,370,372,5.115068493150684,14.341463414634147,39.0,52.0,"Fri, Sep 14, 2018","Wed, Sep 19, 2018"
4115,Montgomery Regional Airport ,MONTGOMERY,United States,MGM,KMGM,32.3006389,-86.3939722,221,-6,A,"Montgomery, AL",344,344,347,347,3.5697674418604652,16.008720930232556,28.0,75.0,"Sat, Sep 29, 2018","Sun, Sep 30, 2018"
4050,Manhattan Regional,Manhattan,United States,MHK,KMHK,39.140972,-96.670833,1057,-6,A,"Manhattan/Ft. Riley, KS",138,138,142,142,3.3623188405797104,12.594202898550726,6.0,89.0,"Thu, Sep  6, 2018","Fri, Sep 14, 2018"
4011,Manchester Regional Airport,Manchester NH,United States,MHT,KMHT,42.932556,-71.435667,266,-5,A,"Manchester, NH",734,734,743,744,4.925068119891006,12.6975476839237,17.0,76.0,"Mon, Sep  3, 2018","Thu, Sep 27, 2018"
3576,Miami International,Miami,United States,MIA,KMIA,25.79325,-80.290556,8,-5,A,"Miami, FL",6603,6612,6652,6657,8.339088293200032,18.287507562008447,94.0,130.0,"Sun, Sep  9, 2018","Fri, Sep  7, 2018"
3717,General Mitchell International,Milwaukee,United States,MKE,KMKE,42.947222,-87.896583,723,-6,A,"Milwaukee, WI",2435,2432,2461,2461,4.89158110882957,12.790296052631593,61.0,92.0,"Sun, Sep  2, 2018","Wed, Sep 12, 2018"
5754,Muskegon County Airport,Muskegon,United States,MKG,KMKG,43.1695,-86.2382,628,-5,A,"Muskegon, MI",58,57,60,60,4.17241379310345,13.771929824561404,7.0,32.0,"Fri, Sep 28, 2018","Sun, Sep 16, 2018"
3671,Melbourne International,Melbourne,United States,MLB,KMLB,28.102753,-80.645258,33,-5,A,"Melbourne, FL",193,193,196,196,4.22279792746114,14.186528497409327,87.0,61.0,"Sun, Sep  9, 2018","Wed, Sep 26, 2018"
4072,Quad City International,Moline,United States,MLI,KMLI,41.448528,-90.507539,590,-6,A,"Moline, IL",414,415,419,419,5.611111111111115,14.25301204819277,47.0,45.0,"Sun, Sep 23, 2018","Fri, Sep 28, 2018"
3732,Monroe Regional,Monroe,United States,MLU,KMLU,32.510864,-92.037689,79,-6,A,"Monroe, LA",254,253,258,258,4.303149606299213,13.798418972332016,10.0,54.0,"Thu, Sep 13, 2018","Thu, Sep 27, 2018"
3782,Mobile Regional,Mobile,United States,MOB,KMOB,30.691231,-88.242814,219,-6,A,"Mobile, AL",498,498,520,521,3.923694779116466,13.823293172690763,39.0,57.0,"Thu, Sep 27, 2018","Mon, Sep 24, 2018"
3498,Minot International,Minot,United States,MOT,KMOT,48.259378,-101.280333,1716,-6,A,"Minot, ND",206,205,206,205,4.9951456310679605,15.560975609756097,27.0,79.0,"Fri, Sep 21, 2018","Fri, Sep  7, 2018"
6838,Sawyer International Airport,Marquette,United States,MQT,KMQT,46.353611,-87.395278,1221,-5,A,"Marquette, MI",119,119,120,120,4.924369747899156,13.016806722689072,49.0,41.0,"Sat, Sep  1, 2018","Fri, Sep 28, 2018"
3948,Monterey Peninsula,Monterey,United States,MRY,KMRY,36.587,-121.842944,257,-8,A,"Monterey, CA",283,282,287,287,3.5265017667844525,15.70567375886525,8.0,48.0,"Sat, Sep 22, 2018","Sun, Sep  2, 2018"
3459,Dane County Regional-Truax Field,Madison,United States,MSN,KMSN,43.139858,-89.337514,887,-6,A,"Madison, WI",1215,1216,1233,1233,4.437037037037026,13.856085526315786,39.0,100.0,"Sat, Sep  1, 2018","Wed, Sep 26, 2018"
4216,Missoula International,Missoula,United States,MSO,KMSO,46.916306,-114.090556,3205,-7,A,"Missoula, MT",338,338,338,338,6.3284023668639025,12.934911242603548,46.0,51.0,"Mon, Sep  3, 2018","Mon, Sep  3, 2018"
3858,Minneapolis St. Paul International,Minneapolis,United States,MSP,KMSP,44.881956,-93.221767,841,-6,A,"Minneapolis, MN",13307,13302,13347,13349,5.806192229653576,17.76146444143739,89.0,118.0,"Thu, Sep 27, 2018","Tue, Sep 25, 2018"
3861,Louis Armstrong New Orleans International,New Orleans,United States,MSY,KMSY,29.993389,-90.258028,4,-6,A,"New Orleans, LA",4280,4271,4308,4306,5.052336448598135,12.870287988761408,108.0,121.0,"Sun, Sep 30, 2018","Fri, Sep 14, 2018"
6880,Montrose Regional Airport,Montrose CO,United States,MTJ,KMTJ,38.509794,-107.894242,5759,-7,A,"Montrose/Delta, CO",70,70,75,75,4.542857142857141,15.657142857142857,13.0,34.0,"Sat, Sep 29, 2018","Tue, Sep 11, 2018"
4265,Martha's Vineyard,Vineyard Haven MA,United States,MVY,KMVY,41.391667,-70.615278,67,-5,A,"Martha's Vineyard, MA",43,43,43,43,4.906976744186046,13.511627906976743,25.0,32.0,"Sat, Sep  1, 2018","Mon, Sep 10, 2018"
3515,Myrtle Beach International,Myrtle Beach,United States,MYR,KMYR,33.67975,-78.928333,25,-5,A,"Myrtle Beach, SC",971,970,1123,1124,4.870236869206999,13.04845360824742,30.0,89.0,"Mon, Sep  3, 2018","Sat, Sep  1, 2018"
4386,Albert J. Ellis,Jacksonville NC,United States,OAJ,KOAJ,34.829164,-77.612139,94,-5,A,"Jacksonville/Camp Lejeune, NC",182,183,250,250,3.6373626373626373,19.934426229508198,17.0,86.0,"Fri, Sep 21, 2018","Mon, Sep 24, 2018"
3453,Metropolitan Oakland International,Oakland,United States,OAK,KOAK,37.721278,-122.220722,9,-8,A,"Oakland, CA",4302,4308,4352,4357,5.769642026964198,12.097260909935018,37.0,51.0,"Fri, Sep 28, 2018","Tue, Sep  4, 2018"
3456,Kahului,Kahului,United States,OGG,PHOG,20.89865,-156.430458,54,-10,N,"Kahului, HI",2018,2015,2023,2024,6.201189296333005,10.388585607940447,74.0,63.0,"Sun, Sep 30, 2018","Sat, Sep 29, 2018"
3863,Will Rogers World,Oklahoma City,United States,OKC,KOKC,35.393089,-97.600733,1295,-6,A,"Oklahoma City, OK",1933,1932,1959,1959,5.093119503362645,13.67287784679089,40.0,91.0,"Fri, Sep 21, 2018","Fri, Sep 21, 2018"
3454,Eppley Airfield,Omaha,United States,OMA,KOMA,41.303167,-95.894069,984,-6,A,"Omaha, NE",2150,2148,2169,2168,4.188372093023265,12.818435754189942,72.0,56.0,"Thu, Sep 20, 2018","Thu, Sep 20, 2018"
3615,Nome,Nome,United States,OME,PAOM,64.512203,-165.445247,37,-9,A,"Nome, AK",60,60,60,60,3.466666666666667,6.983333333333333,6.0,19.0,"Sat, Sep 29, 2018","Sat, Sep 15, 2018"
3734,Ontario International,Ontario,United States,ONT,KONT,34.056,-117.601194,944,-8,A,"Ontario, CA",1754,1755,1769,1769,4.339224629418476,10.905413105413105,21.0,69.0,"Mon, Sep  3, 2018","Fri, Sep 28, 2018"
3830,Chicago O'Hare International,Chicago,United States,ORD,KORD,41.978603,-87.904842,668,-6,A,"Chicago, IL",27785,27801,28250,28257,14.366168796112985,22.422215028236465,136.0,162.0,"Mon, Sep  3, 2018","Mon, Sep  3, 2018"
3611,Norfolk International,Norfolk,United States,ORF,KORF,36.894611,-76.201222,26,-5,A,"Norfolk, VA",2010,2007,2101,2101,4.8014925373134245,15.045341305430997,77.0,127.0,"Sat, Sep  8, 2018","Wed, Sep 19, 2018"
6426,Worcester Regional Airport,Worcester,United States,ORH,KORH,42.2673,-71.8757,1009,-5,U,"Worcester, MA",89,89,90,90,4.01123595505618,12.52808988764045,11.0,27.0,"Fri, Sep 21, 2018","Mon, Sep 17, 2018"
5757,Southwest Oregon Regional Airport,North Bend,United States,OTH,KOTH,43.4171,-124.246,17,-8,A,"North Bend/Coos Bay, OR",38,37,39,39,4.578947368421052,13.72972972972973,7.0,32.0,"Wed, Sep 26, 2018","Sun, Sep  9, 2018"
3693,Ralph Wien Memorial,Kotzebue,United States,OTZ,PAOT,66.884678,-162.59855,11,-9,A,"Kotzebue, AK",60,59,60,60,3.55,7.288135593220339,7.0,21.0,"Sun, Sep  2, 2018","Fri, Sep 21, 2018"
5758,Owensboro Daviess County Airport,Owensboro,United States,OWB,KOWB,37.7401,-87.1668,406,-6,A,"Owensboro, KY",8,8,8,9,6.5,5.625,8.0,7.0,"Mon, Sep  3, 2018","Mon, Sep 10, 2018"
4117,Barkley Regional Airport,PADUCAH,United States,PAH,KPAH,37.0602875,-88.7729583,410,-6,A,"Paducah, KY",59,58,60,60,4.033898305084746,12.03448275862069,6.0,29.0,"Fri, Sep 21, 2018","Sat, Sep  1, 2018"
3771,Plattsburgh International,Plattsburgh,United States,PBG,KPBG,44.650944,-73.468139,234,-5,A,"Plattsburgh, NY",72,73,72,73,5.208333333333333,12.506849315068495,11.0,38.0,"Fri, Sep 14, 2018","Fri, Sep 14, 2018"
3722,Palm Beach International,West Palm Beach,United States,PBI,KPBI,26.683161,-80.095589,19,-5,A,"West Palm Beach/Palm Beach, FL",1504,1504,1516,1516,4.093749999999995,13.411569148936168,34.0,123.0,"Fri, Sep  7, 2018","Wed, Sep 26, 2018"
3720,Portland International,Portland,United States,PDX,KPDX,45.588722,-122.5975,30,-8,A,"Portland, OR",5222,5223,5243,5246,4.669092301800078,13.9048439594103,61.0,70.0,"Tue, Sep 18, 2018","Wed, Sep 19, 2018"
7056,Charlotte County-Punta Gorda Airport,Punta Gorda,United States,PGD,KPGD,26.919722,-81.990556,26,-5,A,"Punta Gorda, FL",260,260,261,261,8.146153846153847,10.188461538461542,152.0,25.0,"Thu, Sep 13, 2018","Mon, Sep 24, 2018"
6959,Pitt-Greenville Airport,Greenville,United States,PGV,KPGV,35.635278,-77.385278,27,-5,A,"Greenville, NC",82,82,114,114,3.097560975609755,13.817073170731707,5.0,50.0,"Mon, Sep  3, 2018","Fri, Sep  7, 2018"
3633,Newport News Williamsburg International,Newport News,United States,PHF,KPHF,37.131894,-76.492989,43,-5,A,"Newport News/Williamsburg, VA",203,202,218,218,4.847290640394092,12.905940594059405,30.0,89.0,"Fri, Sep  7, 2018","Sun, Sep  9, 2018"
3752,Philadelphia International,Philadelphia,United States,PHL,KPHL,39.871944,-75.241139,36,-5,A,"Philadelphia, PA",9343,9365,9506,9508,8.953441078882577,21.634810464495448,170.0,167.0,"Fri, Sep  7, 2018","Fri, Sep  7, 2018"
3462,Phoenix Sky Harbor International,Phoenix,United States,PHX,KPHX,33.434278,-112.011583,1135,-7,N,"Phoenix, AZ",12995,13013,13128,13126,8.22193151212011,14.761315607469452,195.0,88.0,"Sun, Sep 16, 2018","Sun, Sep  2, 2018"
4046,Peoria Regional,Peoria,United States,PIA,KPIA,40.664203,-89.693258,660,-6,A,"Peoria, IL",395,393,401,401,5.3291139240506356,14.402035623409668,33.0,50.0,"Mon, Sep  3, 2018","Fri, Sep 14, 2018"
5759,Hattiesburg Laurel Regional Airport,Hattiesburg/Laurel,United States,PIB,KPIB,31.4671,-89.3371,298,-6,A,"Hattiesburg/Laurel, MS",59,59,60,60,4.491525423728812,18.677966101694917,7.0,56.0,"Mon, Sep 10, 2018","Sun, Sep 16, 2018"
3617,St. Petersburg Clearwater International,St. Petersburg,United States,PIE,KPIE,27.910167,-82.687389,10,-5,A,"St. Petersburg, FL",415,415,418,417,9.296385542168665,12.419277108433734,123.0,40.0,"Mon, Sep 10, 2018","Fri, Sep 28, 2018"
5760,Pocatello Regional Airport,Pocatello,United States,PIH,KPIH,42.9098,-112.596,4452,-7,A,"Pocatello, ID",119,119,119,119,3.159663865546219,12.268907563025211,7.0,68.0,"Mon, Sep 17, 2018","Mon, Sep 10, 2018"
3570,Pittsburgh International,Pittsburgh (pennsylva),United States,PIT,KPIT,40.491467,-80.232872,1204,-5,A,"Pittsburgh, PA",3967,3971,4022,4022,5.776909503403072,14.346260387811636,33.0,143.0,"Wed, Sep  5, 2018","Fri, Sep  7, 2018"
5762,Pellston Regional Airport of Emmet County Airport,Pellston,United States,PLN,KPLN,45.5709,-84.7967,720,-5,A,"Pellston, MI",81,81,81,81,5.0,14.345679012345679,7.0,44.0,"Thu, Sep 20, 2018","Wed, Sep 26, 2018"
3564,Pensacola Regional,Pensacola,United States,PNS,KPNS,30.473425,-87.186611,121,-6,A,"Pensacola, FL",957,955,970,970,4.597701149425295,13.61780104712042,31.0,80.0,"Sat, Sep 15, 2018","Tue, Sep 18, 2018"
3446,Ernest A. Love Field,Prescott,United States,PRC,KPRC,34.654472,-112.419583,5045,-7,A,"Prescott, AZ",55,55,55,55,3.8,19.545454545454547,13.0,76.0,"Thu, Sep 27, 2018","Sun, Sep 16, 2018"
6133,Tri Cities Airport,Pasco,United States,PSC,PSC,46.2647,-119.119,410,-8,A,"Pasco/Kennewick/Richland, WA",177,177,177,178,4.96045197740113,14.63276836158192,10.0,42.0,"Sat, Sep  1, 2018","Tue, Sep 11, 2018"
4147,Petersburg James A. Johnson,Petersburg,United States,PSG,PAPG,56.801667,-132.945278,105,-9,A,"Petersburg, AK",60,60,60,60,3.85,8.583333333333337,14.0,24.0,"Sat, Sep  8, 2018","Sun, Sep  9, 2018"
5763,Pease International Tradeport,Portsmouth,United States,PSM,KPSM,43.0779,-70.8233,100,-5,A,"Portsmouth, NH",11,11,11,11,5.2727272727272725,10.454545454545455,7.0,18.0,"Sun, Sep  9, 2018","Sun, Sep 30, 2018"
3839,Palm Springs International,Palm Springs,United States,PSP,KPSP,33.829667,-116.506694,477,-8,A,"Palm Springs, CA",616,617,620,620,4.8928571428571415,15.162074554294975,21.0,81.0,"Fri, Sep  7, 2018","Wed, Sep 19, 2018"
3527,Pueblo Memorial,Pueblo Memorial,United States,PUB,KPUB,38.289085,-104.496572,4726,-7,A,"Pueblo, CO",75,75,75,75,5.12,14.706666666666667,15.0,51.0,"Fri, Sep 14, 2018","Sat, Sep 15, 2018"
3641,Theodore Francis Green State,Providence,United States,PVD,KPVD,41.732581,-71.420383,55,-5,A,"Providence, RI",1426,1424,1446,1445,4.4460028050491,12.707865168539335,38.0,95.0,"Thu, Sep 20, 2018","Mon, Sep  3, 2018"
7579,Provo Municipal Airport,Provo,United States,PVU,KPVU,40.21805555,-111.7222222,4497,-6,A,"Provo, UT",39,39,39,39,5.282051282051282,14.717948717948717,11.0,25.0,"Fri, Sep 14, 2018","Fri, Sep 14, 2018"
3862,Portland International Jetport,Portland,United States,PWM,KPWM,43.646161,-70.309281,77,-5,A,"Portland, ME",1154,1149,1170,1170,4.4514731369150775,14.204525674499562,89.0,108.0,"Thu, Sep  6, 2018","Tue, Sep 18, 2018"
4087,Rapid City Regional Airport,Rapid City,United States,RAP,KRAP,44.045278,-103.057222,3204,-7,A,"Rapid City, SD",384,383,387,387,6.026041666666669,14.446475195822455,44.0,51.0,"Thu, Sep 20, 2018","Tue, Sep 25, 2018"
4098,Redding Municipal,Redding,United States,RDD,KRDD,40.509,-122.293389,504,-8,A,"Redding, CA",83,83,84,84,4.409638554216869,14.602409638554217,7.0,32.0,"Sun, Sep 23, 2018","Tue, Sep 18, 2018"
4103,Roberts Field,Redmond-Bend,United States,RDM,KRDM,44.254066,-121.149964,3077,-8,A,"Bend/Redmond, OR",383,381,384,383,4.5926892950391665,13.666666666666664,12.0,51.0,"Fri, Sep 28, 2018","Thu, Sep 27, 2018"
3626,Raleigh Durham International,Raleigh-durham,United States,RDU,KRDU,35.877639,-78.787472,435,-5,A,"Raleigh/Durham, NC",4742,4726,5027,5026,6.231336988612399,18.49767245027507,118.0,135.0,"Sat, Sep  1, 2018","Tue, Sep 18, 2018"
4028,Chicago Rockford International Airport ,Rockford,United States,RFD,KRFD,42.1953611,-89.0972222,742,-6,A,"Rockford, IL",43,43,43,43,6.023255813953488,9.209302325581397,10.0,16.0,"Mon, Sep 17, 2018","Fri, Sep 14, 2018"
5765,Rhinelander Oneida County Airport,Rhinelander,United States,RHI,KRHI,45.6312,-89.4675,1624,-6,A,"Rhinelander, WI",60,60,60,60,3.25,17.83333333333333,6.0,62.0,"Thu, Sep 27, 2018","Mon, Sep 17, 2018"
3608,Richmond International,Richmond,United States,RIC,KRIC,37.505167,-77.319667,167,-5,A,"Richmond, VA",1909,1904,1944,1945,6.507071765322151,16.89705882352938,112.0,132.0,"Tue, Sep 11, 2018","Thu, Sep  6, 2018"
5766,Rock Springs Sweetwater County Airport,Rock Springs,United States,RKS,KRKS,41.5942,-109.065,6760,-7,A,"Rock Springs, WY",55,55,55,55,3.0909090909090904,12.709090909090909,5.0,30.0,"Tue, Sep 18, 2018","Fri, Sep 28, 2018"
3807,Reno Tahoe International,Reno,United States,RNO,KRNO,39.499108,-119.768108,4415,-8,A,"Reno, NV",1563,1564,1564,1566,4.779910428662829,12.896419437340148,38.0,58.0,"Fri, Sep 28, 2018","Sat, Sep 29, 2018"
4016,Roanoke Regional,Roanoke VA,United States,ROA,KROA,37.325472,-79.975417,1175,-5,A,"Roanoke, VA",207,207,209,209,5.951690821256037,18.159420289855095,28.0,108.0,"Wed, Sep  5, 2018","Tue, Sep 18, 2018"
3622,Greater Rochester International,Rochester,United States,ROC,KROC,43.118866,-77.672389,559,-5,A,"Rochester, NY",1208,1204,1232,1232,5.00993377483443,14.059800664451828,22.0,126.0,"Sun, Sep 16, 2018","Fri, Sep 21, 2018"
3736,Roswell International Air Center,Roswell,United States,ROW,KROW,33.301556,-104.530556,3671,-7,A,"Roswell, NM",114,114,115,115,5.394736842105262,13.359649122807017,54.0,44.0,"Wed, Sep  5, 2018","Thu, Sep 20, 2018"
4048,Rochester,Rochester,United States,RST,KRST,43.908283,-92.500014,1317,-6,A,"Rochester, MN",319,319,324,324,4.100313479623824,16.285266457680255,14.0,88.0,"Thu, Sep 13, 2018","Thu, Sep 20, 2018"
3793,Southwest Florida International,Fort Myers,United States,RSW,KRSW,26.536167,-81.755167,30,-5,A,"Fort Myers, FL",1528,1527,1539,1540,4.5628272251308974,12.311067452521273,96.0,62.0,"Thu, Sep 20, 2018","Thu, Sep 13, 2018"
3784,Santa Fe Municipal,Santa Fe,United States,SAF,KSAF,35.617108,-106.089422,6348,-7,A,"Santa Fe, NM",105,105,109,109,5.219047619047619,17.552380952380947,12.0,62.0,"Wed, Sep 26, 2018","Sat, Sep 15, 2018"
3731,San Diego International,San Diego,United States,SAN,KSAN,32.733556,-117.189667,17,-8,A,"San Diego, CA",7403,7397,7443,7440,4.156017830609216,17.138299310531405,81.0,87.0,"Thu, Sep 27, 2018","Mon, Sep 17, 2018"
3621,San Antonio International,San Antonio,United States,SAT,KSAT,29.533694,-98.469778,809,-6,A,"San Antonio, TX",3302,3299,3337,3334,4.470926711084184,12.236435283419226,62.0,158.0,"Sat, Sep  1, 2018","Mon, Sep  3, 2018"
3613,Savannah Hilton Head International,Savannah,United States,SAV,KSAV,32.127583,-81.202139,51,-5,A,"Savannah, GA",1248,1249,1264,1264,5.349358974358968,15.32906325060048,58.0,154.0,"Fri, Sep  7, 2018","Tue, Sep 18, 2018"
3949,Santa Barbara Municipal,Santa Barbara,United States,SBA,KSBA,34.426211,-119.840372,10,-8,A,"Santa Barbara, CA",581,581,591,591,4.378657487091224,16.392426850258165,20.0,103.0,"Sun, Sep 16, 2018","Wed, Sep 26, 2018"
4359,South Bend Regional,South Bend,United States,SBN,KSBN,41.708661,-86.31725,799,-5,A,"South Bend, IN",610,613,618,618,4.860655737704916,16.68026101141926,40.0,59.0,"Fri, Sep 28, 2018","Thu, Sep 13, 2018"
5768,San Luis County Regional Airport,San Luis Obispo,United States,SBP,KSBP,35.2368,-120.642,212,-8,A,"San Luis Obispo, CA",390,390,398,398,4.53333333333333,16.46666666666668,22.0,57.0,"Sun, Sep  9, 2018","Wed, Sep  5, 2018"
3620,Deadhorse,Deadhorse,United States,SCC,PASC,70.19475,-148.465167,64,-9,A,"Deadhorse, AK",79,79,80,80,3.430379746835443,8.518987341772151,6.0,32.0,"Mon, Sep 10, 2018","Thu, Sep 13, 2018"
4318,University Park Airport,State College Pennsylvania,United States,SCE,KUNV,40.849278,-77.848694,1239,-5,A,"State College, PA",140,139,141,141,3.4285714285714284,15.18705035971223,6.0,44.0,"Wed, Sep  5, 2018","Sat, Sep  1, 2018"
3805,Stockton Metropolitan,Stockton,United States,SCK,KSCK,37.894167,-121.238306,33,-8,A,"Stockton, CA",63,63,63,63,5.158730158730158,8.365079365079362,7.0,23.0,"Fri, Sep 28, 2018","Fri, Sep 21, 2018"
4014,Louisville International Airport,Louisville,United States,SDF,KSDF,38.1740858,-85.7364989,501,-5,A,"Louisville, KY",1972,1973,2005,2005,7.231237322515213,14.770907247845917,55.0,97.0,"Fri, Sep  7, 2018","Thu, Sep  6, 2018"
3577,Seattle Tacoma International,Seattle,United States,SEA,KSEA,47.449,-122.309306,433,-8,A,"Seattle, WA",11812,11807,11877,11872,9.933626820182823,19.526297958837944,75.0,91.0,"Tue, Sep 25, 2018","Mon, Sep  3, 2018"
4167,Orlando Sanford International,Sanford,United States,SFB,KSFB,28.777639,-81.237489,55,-5,A,"Sanford, FL",471,471,475,473,6.435244161358813,13.520169851380048,45.0,63.0,"Sun, Sep  9, 2018","Mon, Sep 10, 2018"
3469,San Francisco International,San Francisco,United States,SFO,KSFO,37.618972,-122.374889,13,-8,A,"San Francisco, CA",14175,14183,14348,14332,8.335026455026473,21.84051329055915,78.0,137.0,"Sun, Sep 16, 2018","Sun, Sep 16, 2018"
4348,Springfield Branson National,Springfield,United States,SGF,KSGF,37.245667,-93.388639,1268,-6,A,"Springfield, MO",708,708,725,724,5.700564971751416,15.457627118644067,51.0,92.0,"Sun, Sep 30, 2018","Thu, Sep 20, 2018"
4064,St. George Municipal,Saint George,United States,SGU,KSGU,37.090583,-113.593056,2941,-7,A,"St. George, UT",269,269,269,269,3.2565055762081783,14.513011152416357,8.0,38.0,"Tue, Sep 25, 2018","Fri, Sep  7, 2018"
7062,Shenandoah Valley Regional Airport,Weyers Cave,United States,SHD,KSHD,38.263889,-78.896389,1201,-5,A,"Staunton, VA",78,78,80,80,4.499999999999997,14.564102564102564,10.0,32.0,"Mon, Sep 17, 2018","Thu, Sep  6, 2018"
3609,Shreveport Regional,Shreveport,United States,SHV,KSHV,32.446629,-93.8256,258,-6,A,"Shreveport, LA",553,552,566,565,5.410488245931286,13.273550724637676,38.0,123.0,"Fri, Sep 21, 2018","Thu, Sep  6, 2018"
3856,Sitka Rocky Gutierrez,Sitka,United States,SIT,PASI,57.047138,-135.361611,21,-9,A,"Sitka, AK",105,106,105,106,4.1428571428571415,10.518867924528301,10.0,44.0,"Sat, Sep 15, 2018","Tue, Sep  4, 2018"
3748,Norman Y. Mineta San Jose International,San Jose,United States,SJC,KSJC,37.3626,-121.929022,62,-8,A,"San Jose, CA",4649,4651,4682,4682,4.445257044525694,13.789292625241872,82.0,96.0,"Wed, Sep 26, 2018","Fri, Sep 21, 2018"
3708,San Angelo Regional-Mathis Field,San Angelo,United States,SJT,KSJT,31.35775,-100.496306,1919,-6,A,"San Angelo, TX",106,106,110,110,3.490566037735849,13.764150943396226,17.0,68.0,"Sun, Sep  2, 2018","Fri, Sep 14, 2018"
3536,Salt Lake City International,Salt Lake City,United States,SLC,KSLC,40.788389,-111.977772,4227,-7,A,"Salt Lake City, UT",9279,9269,9292,9289,6.752236232352628,16.851008738806737,61.0,85.0,"Sun, Sep 16, 2018","Wed, Sep 19, 2018"
5771,Salina Municipal Airport,Salina,United States,SLN,KSLN,38.791,-97.6522,1288,-6,A,"Salina, KS",74,75,75,75,5.22972972972973,17.53333333333333,11.0,37.0,"Sun, Sep  2, 2018","Fri, Sep 14, 2018"
3817,Sacramento International,Sacramento,United States,SMF,KSMF,38.695417,-121.590778,27,-8,A,"Sacramento, CA",3914,3912,3932,3931,4.4016351558507925,12.318251533742327,27.0,152.0,"Sat, Sep 29, 2018","Sun, Sep 16, 2018"
5772,Santa Maria Public-Captain G. Allan Hancock Airport,Santa Maria,United States,SMX,KSMX,34.8989,-120.457,261,-8,A,"Santa Maria, CA",13,13,13,13,4.6923076923076925,7.0,6.0,10.0,"Wed, Sep 26, 2018","Sun, Sep 30, 2018"
3867,John Wayne Airport Orange County,Santa Ana,United States,SNA,KSNA,33.675667,-117.868222,56,-8,A,"Santa Ana, CA",3434,3435,3459,3459,5.63337216074549,13.766521106259106,51.0,83.0,"Thu, Sep 20, 2018","Thu, Sep 20, 2018"
4336,Abraham Lincoln Capital,Springfield,United States,SPI,KSPI,39.8441,-89.677889,597,-6,A,"Springfield, IL",145,147,148,148,4.26206896551724,13.0,8.0,46.0,"Mon, Sep 17, 2018","Fri, Sep  7, 2018"
3680,Sheppard AFB Wichita Falls Municipal,Wichita Falls,United States,SPS,KSPS,33.988797,-98.491894,1019,-6,A,"Wichita Falls, TX",77,77,80,80,7.363636363636363,16.48051948051948,16.0,95.0,"Thu, Sep 20, 2018","Fri, Sep 14, 2018"
4067,Sarasota Bradenton International,Sarasota,United States,SRQ,KSRQ,27.395444,-82.554389,30,-5,A,"Sarasota/Bradenton, FL",465,464,467,467,4.197849462365592,13.775862068965518,65.0,61.0,"Thu, Sep 27, 2018","Wed, Sep 26, 2018"
4271,Saint Cloud Regional Airport,Saint Cloud,United States,STC,KSTC,45.546556,-94.059889,1031,-6,A,"St. Cloud, MN",5,5,5,5,9.0,9.0,9.0,12.0,"Sat, Sep 29, 2018","Sat, Sep 22, 2018"
3678,Lambert St. Louis International,St. Louis,United States,STL,KSTL,38.748697,-90.370028,618,-6,A,"St. Louis, MO",5373,5363,5419,5419,4.663502698678601,11.825284355770998,43.0,82.0,"Wed, Sep 12, 2018","Tue, Sep 25, 2018"
6992,Charles M. Schulz Sonoma County,Santa Rosa,United States,STS,KSTS,38.508978,-122.81288,125,-8,A,"Santa Rosa, CA",143,142,144,144,5.391608391608392,16.000000000000007,41.0,58.0,"Sun, Sep  9, 2018","Tue, Sep 18, 2018"
6494,Friedman Memorial,Hailey,United States,SUN,KSUN,43.504444,-114.296194,5320,-7,A,"Sun Valley/Hailey/Ketchum, ID",85,87,85,87,2.282352941176471,10.781609195402302,5.0,37.0,"Sat, Sep  1, 2018","Thu, Sep 27, 2018"
3753,Sioux Gateway-Colonel Bud Day Field,Sioux City,United States,SUX,KSUX,42.402603,-96.384367,1098,-6,A,"Sioux City, IA",109,109,110,110,7.715596330275231,13.477064220183488,50.0,52.0,"Sun, Sep 23, 2018","Wed, Sep 19, 2018"
3661,Stewart International,Newburgh,United States,SWF,KSWF,41.504094,-74.104839,491,-5,A,"Newburgh/Poughkeepsie, NY",148,148,149,149,5.297297297297297,15.378378378378372,18.0,90.0,"Sun, Sep 23, 2018","Mon, Sep  3, 2018"
3745,Syracuse Hancock International,Syracuse,United States,SYR,KSYR,43.111187,-76.106311,421,-5,A,"Syracuse, NY",1114,1113,1135,1135,4.358168761220829,15.047619047619047,24.0,111.0,"Tue, Sep 25, 2018","Fri, Sep 21, 2018"
3698,Tallahassee Regional,Tallahassee,United States,TLH,KTLH,30.396528,-84.350333,81,-5,A,"Tallahassee, FL",520,521,529,529,4.528846153846157,13.717850287907872,31.0,75.0,"Fri, Sep 21, 2018","Thu, Sep  6, 2018"
4040,Toledo,Toledo,United States,TOL,KTOL,41.586806,-83.807833,684,-5,A,"Toledo, OH",128,127,134,134,3.3359375000000013,8.251968503937006,7.0,23.0,"Wed, Sep 19, 2018","Tue, Sep 25, 2018"
3646,Tampa International,Tampa,United States,TPA,KTPA,27.975472,-82.53325,26,-5,A,"Tampa, FL",5247,5247,5278,5278,5.2992186011053946,13.113016962073527,93.0,108.0,"Mon, Sep 24, 2018","Fri, Sep  7, 2018"
4116,Tri-Cities Regional Airport,BRISTOL,United States,TRI,KTRI,36.4752222,-82.4074167,1519,-5,A,"Bristol/Johnson City/Kingsport, TN",175,175,175,175,4.034285714285712,17.75428571428572,8.0,69.0,"Thu, Sep 20, 2018","Fri, Sep 28, 2018"
3447,Trenton Mercer,Trenton,United States,TTN,KTTN,40.276692,-74.813469,213,-5,A,"Trenton, NJ",222,226,240,240,7.468468468468468,14.380530973451323,27.0,85.0,"Tue, Sep 18, 2018","Fri, Sep  7, 2018"
3855,Tulsa International,Tulsa,United States,TUL,KTUL,36.198389,-95.888111,677,-6,A,"Tulsa, OK",1371,1373,1386,1386,4.760758570386582,15.10924981791697,44.0,112.0,"Tue, Sep 11, 2018","Thu, Sep  6, 2018"
3636,Tucson International,Tucson,United States,TUS,KTUS,32.116083,-110.941028,2643,-7,N,"Tucson, AZ",1341,1334,1354,1352,4.431767337807598,13.81709145427286,57.0,69.0,"Sun, Sep  2, 2018","Fri, Sep 21, 2018"
4023,Cherry Capital Airport,Traverse City,United States,TVC,KTVC,44.741445,-85.582235,624,-5,A,"Traverse City, MI",409,410,416,416,4.621026894865527,15.346341463414634,52.0,49.0,"Fri, Sep 21, 2018","Sat, Sep 22, 2018"
4263,Magic Valley Regional Airport,Twin Falls,United States,TWF,KTWF,42.481803,-114.487733,4151,-7,A,"Twin Falls, ID",85,85,85,85,2.8235294117647056,11.71764705882353,5.0,51.0,"Fri, Sep  7, 2018","Sun, Sep  9, 2018"
3770,Texarkana Regional-Webb Field,Texarkana,United States,TXK,KTXK,33.453722,-93.991028,390,-6,A,"Texarkana, AR",102,103,106,106,3.1176470588235294,16.961165048543684,8.0,65.0,"Mon, Sep  3, 2018","Fri, Sep 14, 2018"
3848,Tyler Pounds Regional,Tyler,United States,TYR,KTYR,32.354139,-95.402386,544,-6,A,"Tyler, TX",123,124,129,129,3.642276422764228,14.653225806451612,7.0,57.0,"Sun, Sep 23, 2018","Fri, Sep 21, 2018"
3676,McGhee Tyson,Knoxville,United States,TYS,KTYS,35.810972,-83.994028,981,-5,A,"Knoxville, TN",1249,1247,1269,1269,4.483586869495593,15.829991980753809,37.0,139.0,"Fri, Sep 21, 2018","Wed, Sep 26, 2018"
5774,Quincy Regional-Baldwin Field,Quincy,United States,UIN,KUIN,39.9427,-91.1946,769,-6,A,"Quincy, IL",72,73,75,75,4.166666666666667,14.273972602739725,7.0,42.0,"Fri, Sep 21, 2018","Wed, Sep 19, 2018"
7076,Vernal Regional Airport,Vernal,United States,VEL,KVEL,40.440833,-109.51,5278,-7,A,"Vernal, UT",50,50,50,50,4.26,15.96,7.0,37.0,"Sun, Sep 23, 2018","Sun, Sep 16, 2018"
5776,Valdosta Regional Airport,Valdosta,United States,VLD,KVLD,30.7825,-83.2767,203,-5,A,"Valdosta, GA",84,84,84,84,4.273809523809522,17.96428571428571,10.0,49.0,"Wed, Sep 19, 2018","Mon, Sep  3, 2018"
3873,Eglin AFB,Valparaiso,United States,VPS,KVPS,30.48325,-86.5254,87,-6,A,"Valparaiso, FL",647,646,662,662,8.618238021638339,14.428792569659443,34.0,86.0,"Mon, Sep  3, 2018","Thu, Sep 27, 2018"
5969,Wrangell Airport,Wrangell,United States,WRG,PAWG,56.4843,-132.37,44,-9,A,"Wrangell, AK",60,60,60,60,3.4833333333333334,7.6,5.0,21.0,"Tue, Sep  4, 2018","Sat, Sep 29, 2018"
7072,Yellowstone Airport,West Yellowstone,United States,WYS,KWYS,44.688333,-111.1175,6644,-7,A,"West Yellowstone, MT",52,52,52,52,3.903846153846154,13.26923076923077,8.0,27.0,"Tue, Sep 11, 2018","Thu, Sep 27, 2018"
4356,NW Arkansas Regional,Bentonville,United States,XNA,KXNA,36.2818694,-94.3068111,1287,-6,A,"Fayetteville, AR",980,983,1004,1004,6.422448979591837,15.040691759918616,50.0,84.0,"Sat, Sep  8, 2018","Sun, Sep  9, 2018"
6803,Yakutat,Yakutat,United States,YAK,PAYA,59.3012,-139.3937,33,-9,A,"Yakutat, AK",60,60,60,60,3.7333333333333334,10.916666666666666,10.0,22.0,"Sun, Sep  9, 2018","Fri, Sep 14, 2018"
3596,Yuma MCAS Yuma International,Yuma,United States,YUM,KYUM,32.656578,-114.60598,216,-7,N,"Yuma, AZ",96,96,96,96,4.14583333333333,13.39583333333333,12.0,40.0,"Thu, Sep 20, 2018","Sun, Sep 16, 2018"
2883,Cyril E. King,St. Thomas,Virgin Islands,STT,TIST,18.337306,-64.973361,23,-4,U,"Charlotte Amalie, VI",193,193,193,193,3.911917098445596,11.51295336787565,8.0,26.0,"Mon, Sep 24, 2018","Sun, Sep 30, 2018"
2884,Henry E. Rohlsen,St. Croix Island,Virgin Islands,STX,TISX,17.701889,-64.798556,74,-4,U,"Christiansted, VI",60,60,60,60,3.1333333333333333,12.0,7.0,29.0,"Thu, Sep 27, 2018","Fri, Sep  7, 2018"
1970,Pago Pago Internatonal,Pago Pago,American Samoa,PPG,NSTU,-14.331,-170.7105,32,-11,U,"Pago Pago, TT",8,8,8,8,13.625,15.125,15.0,17.0,"Thu, Sep  6, 2018","Mon, Sep 17, 2018"
2246,Guam International,Agana,Guam,GUM,PGUM,13.48345,144.795983,298,10,U,"Guam, TT",66,66,68,68,3.303030303030303,13.984848484848484,8.0,31.0,"Mon, Sep 24, 2018","Sat, Sep 15, 2018"
2885,Rafael Hernndez,Aguadilla,Puerto Rico,BQN,TJBQ,18.494861,-67.129444,237,-4,U,"Aguadilla, PR",142,141,142,141,7.394366197183099,12.75886524822695,22.0,38.0,"Tue, Sep 18, 2018","Thu, Sep 13, 2018"
2889,Aeropuerto Mercedita,Ponce,Puerto Rico,PSE,TJPS,18.008306,-66.563028,29,-4,U,"Ponce, PR",54,54,55,55,5.018518518518518,12.61111111111111,17.0,24.0,"Wed, Sep 12, 2018","Sat, Sep 15, 2018"
2890,Luis Muoz Marn International,San Juan,Puerto Rico,SJU,TJSJ,18.439417,-66.001833,9,-4,U,"San Juan, PR",1565,1565,1566,1572,5.676677316293932,12.978913738019173,45.0,37.0,"Sun, Sep  2, 2018","Fri, Sep 21, 2018"
2244,Francisco C. Ada Saipan International,Saipan,Northern Mariana Islands,SPN,PGSN,15.119003,145.729356,215,10,U,"Saipan, TT",37,37,38,38,4.108108108108109,13.378378378378379,6.0,21.0,"Thu, Sep  6, 2018","Fri, Sep 21, 2018"
