airport_id,name,city,country,iata_faa,iaco,latitude,longitude,altitude,zone,dst,city_state,avg_able_landings,avg_able_takeoffs,total_landings,total_takeoffs,avg_taxi_in,avg_taxi_out,longest_taxi_in,longest_taxi_out,lng_tx_in_date,lng_tx_out_date
4355,Lehigh Valley International,Allentown,United States,ABE,KABE,40.652083,-75.440806,393,-5,A,"Allentown/Bethlehem/Easton, PA",324,321,340,339,4.888888888888888,17.71339563862929,27.0,146.0,"Mon, Jan 28, 2019","Tue, Jan 29, 2019"
3718,Abilene Regional,Abilene,United States,ABI,KABI,32.411319,-99.681897,1791,-6,A,"Abilene, TX",169,168,170,170,3.6863905325443787,19.05952380952381,24.0,56.0,"Sun, Jan  6, 2019","Thu, Jan  3, 2019"
4019,Albuquerque International Sunport,Albuquerque,United States,ABQ,KABQ,35.0402222,-106.6091944,5355,-7,A,"Albuquerque, NM",1708,1694,1732,1731,5.064402810304471,14.660566706021255,40.0,94.0,"Tue, Jan  1, 2019","Wed, Jan  2, 2019"
5714,Aberdeen Regional Airport,Aberdeen,United States,ABR,KABR,45.4491,-98.4218,1302,-6,A,"Aberdeen, SD",60,60,62,62,4.266666666666667,23.1,7.0,60.0,"Fri, Jan 18, 2019","Fri, Jan 11, 2019"
5715,Southwest Georgia Regional Airport,Albany,United States,ABY,KABY,31.5355,-84.1945,197,-5,A,"Albany, GA",83,83,84,84,3.3373493975903616,13.180722891566266,5.0,42.0,"Sat, Jan  5, 2019","Thu, Jan  3, 2019"
3700,Waco Regional,Waco,United States,ACT,KACT,31.611289,-97.230519,516,-6,A,"Waco, TX",115,114,116,116,3.8956521739130436,11.087719298245618,8.0,56.0,"Sat, Jan 19, 2019","Thu, Jan 10, 2019"
4384,Arcata,Arcata CA,United States,ACV,KACV,40.978111,-124.108611,221,-8,A,"Arcata/Eureka, CA",113,114,130,129,5.265486725663717,15.631578947368421,31.0,116.0,"Fri, Jan  4, 2019","Thu, Jan 10, 2019"
3524,Atlantic City International,Atlantic City,United States,ACY,KACY,39.457583,-74.577167,75,-5,A,"Atlantic City, NJ",298,298,298,298,5.208053691275172,12.812080536912747,21.0,63.0,"Sat, Jan 19, 2019","Sun, Jan 13, 2019"
5959,Adak Airport,Adak Island,United States,ADK,PADK,51.878,-176.646,18,-10,A,"Adak Island, AK",9,9,9,9,5.111111111111111,7.444444444444445,7.0,12.0,"Sat, Jan  5, 2019","Wed, Jan  2, 2019"
3531,Kodiak,Kodiak,United States,ADQ,PADQ,57.749967,-152.493856,78,-9,A,"Kodiak, AK",53,53,53,53,3.018867924528302,7.339622641509434,4.0,18.0,"Sun, Jan 27, 2019","Fri, Jan 11, 2019"
3852,Alexandria International,Alexandria,United States,AEX,KAEX,31.3274,-92.549833,89,-6,A,"Alexandria, LA",255,254,256,255,3.933333333333333,19.535433070866134,22.0,97.0,"Thu, Jan 31, 2019","Wed, Jan 23, 2019"
3658,Augusta Regional At Bush Field,Bush Field,United States,AGS,KAGS,33.369944,-81.9645,144,-5,A,"Augusta, GA",339,338,340,339,3.997050147492626,16.890532544378697,21.0,67.0,"Thu, Jan 17, 2019","Tue, Jan 15, 2019"
3864,Albany International,Albany,United States,ALB,KALB,42.748267,-73.801692,285,-5,A,"Albany, NY",892,886,965,964,4.080717488789229,15.390519187358919,43.0,129.0,"Tue, Jan 29, 2019","Thu, Jan 24, 2019"
5718,Waterloo Regional Airport,Waterloo,United States,ALO,KALO,42.5571,-92.4003,873,-6,A,"Waterloo, IA",47,47,54,54,4.42553191489362,21.574468085106385,10.0,53.0,"Thu, Jan 24, 2019","Wed, Jan  2, 2019"
3840,Rick Husband Amarillo International,Amarillo,United States,AMA,KAMA,35.219369,-101.705931,3607,-6,A,"Amarillo, TX",419,418,423,423,4.16706443914081,14.078947368421051,11.0,95.0,"Mon, Jan  7, 2019","Tue, Jan  1, 2019"
3774,Ted Stevens Anchorage International,Anchorage,United States,ANC,PANC,61.174361,-149.996361,152,-9,A,"Anchorage, AK",1292,1305,1317,1317,4.306501547987617,15.452873563218379,25.0,65.0,"Tue, Jan 29, 2019","Mon, Jan 28, 2019"
5720,Alpena County Regional Airport,Alpena,United States,APN,KAPN,45.0781,-83.5603,689,-5,A,"Alpena, MI",48,49,54,53,5.770833333333333,24.163265306122447,15.0,68.0,"Wed, Jan 23, 2019","Wed, Jan  2, 2019"
3838,Watertown International,Watertown,United States,ART,KART,43.991922,-76.021739,325,-5,A,"Watertown, NY",45,48,62,62,4.7555555555555555,22.562500000000004,11.0,69.0,"Mon, Jan 14, 2019","Sun, Jan 27, 2019"
7001,Aspen/Pitkin County-Sardy Field,Aspen,United States,ASE,KASE,39.2232,-106.869,7820,-7,A,"Aspen, CO",830,824,920,921,5.380722891566262,23.85558252427183,72.0,108.0,"Fri, Jan  4, 2019","Thu, Jan 17, 2019"
3682,Hartsfield Jackson Atlanta International,Atlanta,United States,ATL,KATL,33.636719,-84.428067,1026,-5,A,"Atlanta, GA",30818,30842,31151,31155,8.353559608021287,17.082517346475544,142.0,119.0,"Mon, Jan 21, 2019","Mon, Jan 28, 2019"
4047,Appleton,Appleton,United States,ATW,KATW,44.257526,-88.507576,680,-6,A,"Appleton, WI",378,376,391,390,5.645502645502648,24.659574468085093,54.0,121.0,"Mon, Jan 28, 2019","Wed, Jan 23, 2019"
3673,Austin Bergstrom International,Austin,United States,AUS,KAUS,30.194528,-97.669889,542,-6,A,"Austin, TX",4896,4887,4951,4947,6.017565359477113,13.648864333947207,53.0,114.0,"Thu, Jan 17, 2019","Tue, Jan 15, 2019"
4007,Asheville Regional Airport,Asheville,United States,AVL,KAVL,35.436194,-82.541806,2165,-5,A,"Asheville, NC",596,594,619,619,5.201342281879193,16.801346801346785,39.0,70.0,"Thu, Jan  3, 2019","Wed, Jan 23, 2019"
4286,Wilkes Barre Scranton International,Scranton,United States,AVP,KAVP,41.338478,-75.723403,962,-5,A,"Scranton/Wilkes-Barre, PA",222,222,237,237,4.531531531531533,18.39189189189189,31.0,111.0,"Sun, Jan 20, 2019","Mon, Jan 28, 2019"
6505,Phoenix-Mesa Gateway,Mesa,United States,AZA,KIWA,33.307833,-111.655,1382,-7,N,"Phoenix, AZ",452,452,454,454,6.022123893805312,11.993362831858395,14.0,27.0,"Mon, Jan  7, 2019","Thu, Jan 31, 2019"
4039,Kalamazoo,Kalamazoo,United States,AZO,KAZO,42.234875,-85.552058,874,-5,A,"Kalamazoo, MI",130,130,148,147,4.092307692307692,25.05384615384616,22.0,94.0,"Thu, Jan 24, 2019","Mon, Jan 28, 2019"
3825,Bradley International,Windsor Locks,United States,BDL,KBDL,41.938889,-72.683222,173,-5,A,"Hartford, CT",2281,2283,2388,2390,5.458570802279711,13.928602715724914,60.0,102.0,"Tue, Jan 29, 2019","Fri, Jan 25, 2019"
3599,Bethel,Bethel,United States,BET,PABE,60.779778,-161.838,121,-9,A,"Bethel, AK",66,66,70,70,3.409090909090909,9.606060606060607,5.0,35.0,"Wed, Jan 30, 2019","Mon, Jan  7, 2019"
5723,Western Nebraska Regional Airport,Scottsbluff,United States,BFF,KBFF,41.874,-103.596,3967,-7,A,"Scottsbluff, NE",52,51,54,53,4.3076923076923075,16.235294117647058,6.0,45.0,"Wed, Jan 30, 2019","Thu, Jan 24, 2019"
3558,Meadows Field,Bakersfield,United States,BFL,KBFL,35.433598,-119.05677,507,-8,A,"Bakersfield, CA",178,178,179,179,4.3651685393258415,17.123595505617978,10.0,58.0,"Mon, Jan 14, 2019","Thu, Jan 17, 2019"
4129,Greater Binghamton-Edwin A. Link Field,Binghamton,United States,BGM,KBGM,42.208689,-75.979839,1636,-5,A,"Binghamton, NY",54,54,61,61,3.7962962962962963,26.537037037037038,7.0,84.0,"Sat, Jan  5, 2019","Wed, Jan  9, 2019"
3463,Bangor International,Bangor,United States,BGR,KBGR,44.807444,-68.828139,192,-5,A,"Bangor, ME",178,176,192,190,4.9438202247191025,24.613636363636374,13.0,106.0,"Sat, Jan 19, 2019","Thu, Jan 31, 2019"
3811,Birmingham International,Birmingham,United States,BHM,KBHM,33.562942,-86.75355,644,-6,A,"Birmingham, AL",1390,1388,1423,1422,3.465467625899282,15.287463976945242,31.0,72.0,"Sun, Jan  6, 2019","Tue, Jan 29, 2019"
4021,Billings Logan International Airport,Billings,United States,BIL,KBIL,45.80921,-108.537654,3652,-7,A,"Billings, MT",260,261,262,263,3.8423076923076924,14.402298850574713,19.0,67.0,"Wed, Jan 23, 2019","Mon, Jan 21, 2019"
4083,Bismarck Municipal Airport,Bismarck,United States,BIS,KBIS,46.775842,-100.757931,1661,-6,A,"Bismarck/Mandan, ND",280,279,290,289,4.2964285714285735,22.519713261648754,22.0,103.0,"Sat, Jan 19, 2019","Tue, Jan 22, 2019"
4287,Bemidji Regional Airport,Bemidji,United States,BJI,KBJI,47.510722,-94.934722,1391,-6,A,"Bemidji, MN",60,60,62,62,4.599999999999997,21.0,8.0,112.0,"Sun, Jan  6, 2019","Mon, Jan 28, 2019"
3777,Bellingham International,Bellingham,United States,BLI,KBLI,48.792694,-122.537528,170,-8,A,"Bellingham, WA",185,187,188,187,5.686486486486489,12.919786096256685,30.0,38.0,"Sat, Jan  5, 2019","Wed, Jan 30, 2019"
3790,Scott AFB Midamerica,Belleville,United States,BLV,KBLV,38.545178,-89.835183,459,-6,A,"Belleville, IL",58,58,58,58,6.086206896551724,13.931034482758621,29.0,94.0,"Sun, Jan 13, 2019","Sun, Jan 20, 2019"
4037,Central Illinois Regional,Bloomington,United States,BMI,KBMI,40.477111,-88.915917,871,-6,A,"Bloomington/Normal, IL",210,210,233,233,4.671428571428567,19.52380952380953,18.0,72.0,"Sun, Jan 13, 2019","Tue, Jan 15, 2019"
3690,Nashville International,Nashville,United States,BNA,KBNA,36.124472,-86.678194,599,-6,A,"Nashville, TN",6025,6023,6205,6208,6.188713692946073,14.465382699651352,67.0,119.0,"Mon, Jan  7, 2019","Wed, Jan 23, 2019"
3495,Boise Air Terminal,Boise,United States,BOI,KBOI,43.564361,-116.222861,2871,-7,A,"Boise, ID",1560,1561,1575,1576,3.7224358974358975,15.77642536835362,34.0,76.0,"Wed, Jan  2, 2019","Wed, Jan 16, 2019"
3448,General Edward Lawrence Logan International,Boston,United States,BOS,KBOS,42.364347,-71.005181,19,-5,A,"Boston, MA",10748,10731,11429,11430,8.25772236695195,20.680178920883442,163.0,161.0,"Wed, Jan 30, 2019","Sun, Jan 20, 2019"
3612,Southeast Texas Regional,Beaumont,United States,BPT,KBPT,29.950833,-94.020694,15,-6,A,"Beaumont/Port Arthur, TX",81,81,81,81,3.9876543209876543,15.271604938271604,8.0,48.0,"Wed, Jan 16, 2019","Thu, Jan 24, 2019"
5725,Brunswick Golden Isles Airport,Brunswick,United States,BQK,KBQK,31.2588,-81.4665,26,-5,A,"Brunswick, GA",84,83,84,84,3.630952380952381,15.566265060240958,19.0,60.0,"Wed, Jan  2, 2019","Thu, Jan  3, 2019"
6957,Brainerd Lakes Regional,Brainerd,United States,BRD,KBRD,46.398308,-94.138078,1226,-6,U,"Brainerd, MN",51,51,54,54,4.588235294117646,20.901960784313726,8.0,60.0,"Sun, Jan 27, 2019","Mon, Jan  7, 2019"
3738,Brownsville South Padre Island International,Brownsville,United States,BRO,KBRO,25.906833,-97.425861,22,-6,A,"Brownsville, TX",186,185,189,188,5.075268817204301,15.345945945945948,19.0,86.0,"Mon, Jan  7, 2019","Thu, Jan 31, 2019"
3571,Wiley Post Will Rogers Memorial,Barrow,United States,BRW,PABR,71.285446,-156.766003,44,-9,A,"Barrow, AK",58,60,62,62,4.051724137931034,6.75,8.0,18.0,"Wed, Jan 23, 2019","Tue, Jan 22, 2019"
4022,Bert Mooney Airport,Butte,United States,BTM,KBTM,45.954806,-112.497472,5550,-7,A,"Butte, MT",58,58,58,58,3.7241379310344827,17.465517241379295,17.0,55.0,"Fri, Jan 11, 2019","Sun, Jan 20, 2019"
3846,Baton Rouge Metro-Ryan Field,Baton Rouge,United States,BTR,KBTR,30.533167,-91.149639,70,-6,A,"Baton Rouge, LA",602,603,615,616,4.245847176079739,16.868988391376444,15.0,105.0,"Wed, Jan  2, 2019","Wed, Jan 23, 2019"
3711,Burlington International,Burlington,United States,BTV,KBTV,44.471861,-73.153278,335,-5,A,"Burlington, VT",666,656,720,717,7.4969969969969945,26.0701219512195,174.0,107.0,"Mon, Jan 21, 2019","Sat, Jan 26, 2019"
3820,Buffalo Niagara International,Buffalo,United States,BUF,KBUF,42.940525,-78.732167,724,-5,A,"Buffalo, NY",1739,1740,1912,1911,5.283496262219676,19.536206896551747,87.0,101.0,"Sun, Jan 27, 2019","Tue, Jan 29, 2019"
3644,Bob Hope,Burbank,United States,BUR,KBUR,34.200667,-118.358667,778,-8,A,"Burbank, CA",2304,2294,2375,2377,3.5351562500000018,14.311682650392319,69.0,105.0,"Thu, Jan 31, 2019","Thu, Jan 31, 2019"
3849,Baltimore Washington International,Baltimore,United States,BWI,KBWI,39.175361,-76.668333,146,-5,A,"Baltimore, MD",7456,7466,7768,7772,5.249865879828326,14.818778462362708,75.0,181.0,"Sun, Jan 13, 2019","Sun, Jan 13, 2019"
4020,Gallatin Field,Bozeman,United States,BZN,KBZN,45.777643,-111.160151,4500,-7,A,"Bozeman, MT",569,573,579,581,5.449912126537789,19.389179755671886,61.0,93.0,"Tue, Jan  1, 2019","Tue, Jan  1, 2019"
3561,Columbia Metropolitan,Colombia,United States,CAE,KCAE,33.938833,-81.119528,236,-5,A,"Columbia, SC",617,617,624,625,4.316045380875203,15.824959481361436,16.0,77.0,"Wed, Jan  9, 2019","Wed, Jan 23, 2019"
4112,Akron Canton Regional Airport,Akron,United States,CAK,KCAK,40.9160833,-81.4421944,1228,-5,A,"Akron, OH",526,524,544,544,6.266159695817491,22.793893129771,46.0,115.0,"Tue, Jan 22, 2019","Sun, Jan 20, 2019"
3824,Cedar City Regional,Cedar City,United States,CDC,KCDC,37.700967,-113.098847,5622,-7,A,"Cedar City, UT",54,54,54,54,3.259259259259259,19.296296296296298,7.0,62.0,"Sat, Jan  5, 2019","Mon, Jan 21, 2019"
3610,Merle K. Mudhole Smith,Cordova,United States,CDV,PACV,60.491778,-145.477556,48,-9,A,"Cordova, AK",55,59,60,60,3.745454545454546,11.220338983050848,12.0,34.0,"Mon, Jan  7, 2019","Sat, Jan 12, 2019"
5728,Cape Girardeau Regional Airport,Cape Girardeau,United States,CGI,KCGI,37.2253,-89.5708,342,-6,A,"Cape Girardeau, MO",67,69,79,79,4.776119402985073,20.71014492753623,16.0,67.0,"Sun, Jan 27, 2019","Wed, Jan  2, 2019"
3578,Lovell Field,Chattanooga,United States,CHA,KCHA,35.035278,-85.203808,683,-5,A,"Chattanooga, TN",723,723,763,763,5.276625172890731,16.621023513139686,95.0,95.0,"Wed, Jan 23, 2019","Tue, Jan 22, 2019"
4015,Charlottesville-Albemarle,Charlottesville VA,United States,CHO,KCHO,38.138639,-78.452861,639,-5,A,"Charlottesville, VA",447,443,471,469,3.789709172259508,19.828442437923233,22.0,138.0,"Sun, Jan 13, 2019","Sun, Jan 13, 2019"
3806,Charleston AFB International,Charleston,United States,CHS,KCHS,32.898647,-80.040528,45,-5,A,"Charleston, SC",1659,1665,1698,1703,5.91742013261001,14.672072072072073,30.0,87.0,"Thu, Jan 24, 2019","Sat, Jan 19, 2019"
4043,Cedar Rapids,Cedar Rapids,United States,CID,KCID,41.884694,-91.710806,869,-6,A,"Cedar Rapids/Iowa City, IA",664,662,722,722,6.743975903614457,21.60574018126889,62.0,90.0,"Wed, Jan 30, 2019","Sat, Jan 12, 2019"
5729,Chippewa County International Airport,Sault Ste. Marie,United States,CIU,KCIU,46.2508,-84.4724,800,-5,A,"Sault Ste. Marie, MI",56,56,58,58,5.30357142857143,28.303571428571427,14.0,55.0,"Wed, Jan 23, 2019","Fri, Jan 25, 2019"
5730,Harrison Marion Regional Airport,Clarksburg,United States,CKB,KCKB,39.2966,-80.2281,1217,-5,A,"Clarksburg/Fairmont, WV",60,60,67,67,3.816666666666667,23.21666666666666,9.0,69.0,"Tue, Jan 29, 2019","Thu, Jan 10, 2019"
3486,Cleveland Hopkins International,Cleveland,United States,CLE,KCLE,41.411689,-81.849794,791,-5,A,"Cleveland, OH",3721,3708,3907,3902,7.900564364418165,19.922599784250306,61.0,95.0,"Tue, Jan  8, 2019","Thu, Jan 10, 2019"
3715,Easterwood Field,College Station,United States,CLL,KCLL,30.588583,-96.363833,321,-6,A,"College Station/Bryan, TX",175,174,180,179,4.64,11.94827586206896,12.0,56.0,"Fri, Jan 11, 2019","Wed, Jan  2, 2019"
3876,Charlotte Douglas International,Charlotte,United States,CLT,KCLT,35.214,-80.943139,748,-5,A,"Charlotte, NC",18787,18824,19105,19100,11.495289295789657,19.68056736081585,66.0,118.0,"Mon, Jan 28, 2019","Wed, Jan 23, 2019"
3759,Port Columbus International,Columbus,United States,CMH,KCMH,39.997972,-82.891889,815,-5,A,"Columbus, OH",3560,3561,3695,3697,6.183707865168546,19.332771693344682,48.0,121.0,"Sun, Jan 20, 2019","Thu, Jan 10, 2019"
4049,Champaign,Champaign,United States,CMI,KCMI,40.03925,-88.278056,754,-6,A,"Champaign/Urbana, IL",184,184,204,204,5.222826086956526,17.516304347826097,23.0,66.0,"Sat, Jan 12, 2019","Sat, Jan 12, 2019"
5732,Houghton County Memorial Airport,Hancock,United States,CMX,KCMX,47.1684,-88.4891,1095,-5,A,"Hancock/Houghton, MI",48,48,62,62,5.624999999999997,28.875,10.0,58.0,"Thu, Jan 24, 2019","Mon, Jan  7, 2019"
7074,Canyonlands Field,Moab,United States,CNY,KCNY,38.755,-109.754722,4555,-7,A,"Moab, UT",46,46,52,52,3.847826086956522,15.521739130434783,8.0,43.0,"Sun, Jan 13, 2019","Fri, Jan 11, 2019"
4344,Yellowstone Regional,Cody,United States,COD,KCOD,44.520194,-109.023806,5102,-7,A,"Cody, WY",59,59,60,60,3.864406779661017,18.338983050847453,7.0,35.0,"Mon, Jan 21, 2019","Wed, Jan 30, 2019"
3819,City Of Colorado Springs Municipal,Colorado Springs,United States,COS,KCOS,38.805805,-104.700778,6187,-7,A,"Colorado Springs, CO",699,694,712,713,6.618025751072961,22.710374639769455,26.0,91.0,"Tue, Jan  1, 2019","Thu, Jan 24, 2019"
3719,Columbia Regional,Columbia,United States,COU,KCOU,38.818094,-92.219631,889,-6,A,"Columbia, MO",162,157,188,186,4.345679012345676,20.872611464968152,14.0,48.0,"Tue, Jan  8, 2019","Tue, Jan 29, 2019"
3872,Natrona County International,Casper,United States,CPR,KCPR,42.908,-106.464417,5347,-7,A,"Casper, WY",68,70,68,70,2.838235294117647,14.014285714285714,6.0,31.0,"Mon, Jan 21, 2019","Thu, Jan 24, 2019"
3744,Corpus Christi International,Corpus Christi,United States,CRP,KCRP,27.770361,-97.501222,44,-6,A,"Corpus Christi, TX",441,439,442,441,4.646258503401364,14.708428246013668,25.0,91.0,"Tue, Jan  1, 2019","Wed, Jan 16, 2019"
4285,Yeager,Charleston,United States,CRW,KCRW,38.373147,-81.593189,981,-5,A,"Charleston/Dunbar, WV",329,328,339,338,3.48936170212766,17.579268292682922,22.0,89.0,"Sat, Jan 12, 2019","Tue, Jan 15, 2019"
4255,Columbus Metropolitan Airport,Columbus,United States,CSG,KCSG,32.5163333,-84.9388611,397,-5,A,"Columbus, GA",82,82,83,83,3.8658536585365852,18.085365853658537,52.0,48.0,"Wed, Jan 23, 2019","Wed, Jan 16, 2019"
3488,Cincinnati Northern Kentucky International,Cincinnati,United States,CVG,KCVG,39.048836,-84.667822,896,-5,A,"Cincinnati, OH",3594,3599,3712,3711,6.057595993322206,19.763545429285855,69.0,148.0,"Sat, Jan 12, 2019","Sun, Jan 13, 2019"
4045,Central Wisconsin,Wassau,United States,CWA,KCWA,44.772726,-89.646635,840,-6,A,"Mosinee, WI",178,177,192,192,3.915730337078649,21.61016949152543,20.0,60.0,"Fri, Jan 18, 2019","Wed, Jan  2, 2019"
3804,Cheyenne Regional-Jerry Olson Field,Cheyenne,United States,CYS,KCYS,41.155722,-104.811839,6156,-7,A,"Cheyenne, WY",30,31,31,31,3.9,16.77419354838709,5.0,37.0,"Tue, Jan  8, 2019","Fri, Jan 18, 2019"
3950,Daytona Beach International,Daytona Beach,United States,DAB,KDAB,29.179917,-81.058056,34,-5,A,"Daytona Beach, FL",258,259,259,260,3.4147286821705425,13.706563706563703,21.0,38.0,"Wed, Jan  2, 2019","Tue, Jan 29, 2019"
3502,Dallas Love Field,Dallas,United States,DAL,KDAL,32.847111,-96.851778,487,-6,A,"Dallas, TX",6090,6118,6223,6216,4.79326765188833,11.314645308924481,75.0,72.0,"Fri, Jan 18, 2019","Tue, Jan 22, 2019"
3627,James M. Cox Dayton International,Dayton,United States,DAY,KDAY,39.902375,-84.219375,1009,-5,A,"Dayton, OH",1021,1023,1063,1061,5.333006856023504,20.11436950146626,40.0,92.0,"Mon, Jan 14, 2019","Sun, Jan 20, 2019"
4388,Dubuque Regional,Dubuque IA,United States,DBQ,KDBQ,42.402,-90.709472,1076,-6,A,"Dubuque, IA",76,75,90,90,5.539473684210526,19.90666666666666,15.0,60.0,"Fri, Jan 25, 2019","Wed, Jan 23, 2019"
3520,Ronald Reagan Washington National,Washington,United States,DCA,KDCA,38.852083,-77.037722,15,-5,A,"Washington, DC",11196,11207,11851,11839,6.959985709181861,19.95743731596332,282.0,172.0,"Sun, Jan 13, 2019","Sun, Jan 13, 2019"
3751,Denver International,Denver,United States,DEN,KDEN,39.861656,-104.673178,5431,-7,A,"Denver, CO",18244,18305,18498,18507,8.741120368340226,18.16618410270412,78.0,120.0,"Tue, Jan  1, 2019","Fri, Jan 11, 2019"
3670,Dallas Fort Worth International,Dallas-fort Worth,United States,DFW,KDFW,32.896828,-97.037997,607,-6,A,"Dallas/Fort Worth, TX",22742,22783,23078,23063,12.388884003165954,18.395119167800335,83.0,110.0,"Tue, Jan 22, 2019","Wed, Jan  2, 2019"
3739,Dothan Regional,Dothan,United States,DHN,KDHN,31.321339,-85.449628,401,-6,A,"Dothan, AL",113,114,115,115,3.646017699115044,17.982456140350877,7.0,50.0,"Tue, Jan  8, 2019","Sat, Jan 19, 2019"
3598,Duluth International,Duluth,United States,DLH,KDLH,46.842091,-92.193649,1428,-6,A,"Duluth, MN",170,170,180,180,5.3352941176470585,20.40000000000001,16.0,67.0,"Thu, Jan 24, 2019","Mon, Jan  7, 2019"
3713,Durango La Plata County,Durango,United States,DRO,KDRO,37.151516,-107.75377,6685,-7,A,"Durango, CO",237,233,239,238,4.151898734177217,22.141630901287552,25.0,81.0,"Wed, Jan  9, 2019","Wed, Jan 16, 2019"
3792,Del Rio International,Del Rio,United States,DRT,KDRT,29.374208,-100.927158,1002,-6,A,"Del Rio, TX",61,61,61,61,5.131147540983607,16.06557377049181,10.0,57.0,"Sun, Jan  6, 2019","Thu, Jan 31, 2019"
3729,Des Moines International,Des Moines,United States,DSM,KDSM,41.533972,-93.663083,958,-6,A,"Des Moines, IA",1303,1292,1359,1358,6.167306216423635,20.344427244582047,96.0,125.0,"Sat, Jan 12, 2019","Fri, Jan 18, 2019"
3645,Detroit Metro Wayne County,Detroit,United States,DTW,KDTW,42.212444,-83.353389,645,-5,A,"Detroit, MI",11759,11786,12160,12172,9.139637724296293,24.651111488206357,87.0,147.0,"Wed, Jan 30, 2019","Thu, Jan 10, 2019"
7063,Devils Lake Regional Airport,Devils Lake,United States,DVL,KDVL,48.114444,-98.908611,1445,-6,A,"Devils Lake, ND",48,48,53,53,5.8125,24.041666666666668,10.0,64.0,"Mon, Jan  7, 2019","Mon, Jan 21, 2019"
6129,Kearney Municipal Airport,Kearney,United States,EAR,EAR,40.727,-99.0068,2131,-6,A,"Kearney, NE",51,50,54,53,4.1960784313725465,23.4,6.0,91.0,"Thu, Jan 24, 2019","Fri, Jan 11, 2019"
5735,Chippewa Valley Regional Airport,Eau Claire,United States,EAU,KEAU,44.8658,-91.4843,913,-6,A,"Eau Claire, WI",52,53,62,62,4.173076923076923,25.20754716981132,10.0,103.0,"Thu, Jan 10, 2019","Mon, Jan 28, 2019"
7669,Northwest Florida Beaches International,Panama City,United States,ECP,KECP,30.3417,-85.7973,69,-6,A,"Panama City, FL",441,441,451,451,3.7165532879818595,13.503401360544215,54.0,55.0,"Thu, Jan 17, 2019","Mon, Jan 21, 2019"
4250,Eagle County Regional,Vail,United States,EGE,KEGE,39.642556,-106.917694,6540,-7,A,"Eagle, CO",463,462,482,482,8.831533477321823,22.18398268398268,95.0,104.0,"Wed, Jan  2, 2019","Fri, Jan 25, 2019"
5736,Elko Regional Airport,Elko,United States,EKO,KEKO,40.8249,-115.792,5140,-8,A,"Elko, NV",54,54,58,58,4.148148148148148,14.055555555555555,18.0,33.0,"Sat, Jan 12, 2019","Fri, Jan 25, 2019"
3946,Elmira Corning Regional,Elmira,United States,ELM,KELM,42.159889,-76.891611,954,-5,A,"Elmira/Corning, NY",33,34,33,34,4.96969696969697,15.617647058823529,17.0,34.0,"Fri, Jan 25, 2019","Wed, Jan  2, 2019"
3559,El Paso International,El Paso,United States,ELP,KELP,31.80725,-106.377583,3958,-7,A,"El Paso, TX",1325,1326,1334,1335,3.6913207547169806,14.394419306184012,34.0,77.0,"Wed, Jan 30, 2019","Tue, Jan 15, 2019"
4276,Erie International-Tom Ridge Field,Erie,United States,ERI,KERI,42.082022,-80.176217,733,-5,A,"Erie, PA",75,75,76,76,3.386666666666667,23.653333333333332,10.0,54.0,"Thu, Jan 17, 2019","Thu, Jan 24, 2019"
6800,Delta County Airport,Escanaba,United States,ESC,KESC,45.722778,-87.093611,609,-5,A,"Escanaba, MI",50,50,54,54,5.42,24.46,66.0,87.0,"Wed, Jan 30, 2019","Mon, Jan 28, 2019"
4099,Mahlon Sweet Field,Eugene,United States,EUG,KEUG,44.124583,-123.211972,374,-8,A,"Eugene, OR",298,300,311,313,4.110738255033556,16.74,21.0,72.0,"Tue, Jan 29, 2019","Mon, Jan 14, 2019"
4018,Evansville Regional,Evansville,United States,EVV,KEVV,38.036997,-87.532364,418,-6,A,"Evansville, IN",332,330,346,347,4.150602409638554,19.96969696969697,19.0,105.0,"Sun, Jan 20, 2019","Fri, Jan 11, 2019"
3730,Craven County Regional,New Bern,United States,EWN,KEWN,35.072972,-77.042944,18,-5,A,"New Bern/Morehead/Beaufort, NC",179,178,182,181,2.938547486033519,14.073033707865168,18.0,53.0,"Mon, Jan 14, 2019","Sun, Jan 27, 2019"
3494,Newark Liberty International,Newark,United States,EWR,KEWR,40.6925,-74.168667,18,-5,A,"Newark, NJ",10278,10281,10536,10522,9.431406888499714,24.09911487209413,75.0,119.0,"Thu, Jan 24, 2019","Mon, Jan  7, 2019"
3875,Key West International,Key West,United States,EYW,KEYW,24.556111,-81.759556,3,-5,A,"Key West, FL",536,537,538,539,4.472014925373134,12.735567970204846,62.0,46.0,"Tue, Jan  8, 2019","Mon, Jan 21, 2019"
3832,Fairbanks International,Fairbanks,United States,FAI,PAFA,64.815114,-147.856267,434,-9,A,"Fairbanks, AK",347,346,353,353,3.5734870317002896,14.774566473988445,15.0,54.0,"Tue, Jan 15, 2019","Fri, Jan 25, 2019"
4292,Hector International Airport,Fargo,United States,FAR,KFAR,46.92065,-96.8157639,902,-6,A,"Fargo, ND",404,400,434,431,7.6683168316831685,23.835000000000004,55.0,131.0,"Sun, Jan 27, 2019","Thu, Jan 24, 2019"
3687,Fresno Yosemite International,Fresno,United States,FAT,KFAT,36.776194,-119.71814,336,-8,A,"Fresno, CA",957,957,977,976,5.240334378265413,16.642633228840115,31.0,115.0,"Tue, Jan  1, 2019","Thu, Jan 31, 2019"
5738,Fayetteville Regional-Grannis Field,Fayetteville,United States,FAY,KFAY,34.9912,-78.8803,189,-5,A,"Fayetteville, NC",259,261,264,266,4.6525096525096545,16.48659003831417,34.0,76.0,"Sun, Jan  6, 2019","Tue, Jan  8, 2019"
4127,Glacier Park International,Kalispell,United States,FCA,KFCA,48.310472,-114.256,2977,-7,A,"Kalispell, MT",191,191,195,195,4.026178010471203,22.1937172774869,10.0,110.0,"Wed, Jan 23, 2019","Wed, Jan  9, 2019"
4261,Flagstaff Pulliam Airport,Flagstaff,United States,FLG,KFLG,35.140318,-111.6692392,7015,-7,N,"Flagstaff, AZ",114,113,117,117,3.824561403508772,20.486725663716815,7.0,52.0,"Thu, Jan 17, 2019","Sun, Jan  6, 2019"
3533,Fort Lauderdale Hollywood International,Fort Lauderdale,United States,FLL,KFLL,26.072583,-80.15275,9,-5,A,"Fort Lauderdale, FL",8576,8570,8696,8696,7.258162313432837,17.29859976662767,92.0,157.0,"Fri, Jan 18, 2019","Thu, Jan 24, 2019"
4089,Bishop International,Flint,United States,FNT,KFNT,42.965424,-83.743629,782,-5,A,"Flint, MI",256,257,280,280,5.515625,18.727626459143977,40.0,56.0,"Sat, Jan  5, 2019","Sun, Jan 27, 2019"
4009,Sioux Falls,Sioux Falls,United States,FSD,KFSD,43.582014,-96.741914,1429,-6,A,"Sioux Falls, SD",555,551,591,587,6.41621621621622,23.13430127041742,50.0,135.0,"Wed, Jan  2, 2019","Wed, Jan 23, 2019"
3437,Fort Smith Regional,Fort Smith,United States,FSM,KFSM,35.336583,-94.367444,469,-6,A,"Fort Smith, AR",167,166,167,167,3.7784431137724552,15.921686746987952,7.0,50.0,"Thu, Jan  3, 2019","Sat, Jan 19, 2019"
4041,Fort Wayne,Fort Wayne,United States,FWA,KFWA,40.978472,-85.195139,815,-5,A,"Fort Wayne, IN",554,552,581,581,6.613718411552347,24.46376811594202,46.0,120.0,"Thu, Jan 31, 2019","Sat, Jan 12, 2019"
4296,Gillette-Campbell County Airport,Gillette,United States,GCC,KGCC,44.3489167,-105.5393611,4365,-7,A,"Gillette, WY",59,58,59,58,5.593220338983052,22.41379310344828,10.0,88.0,"Wed, Jan 23, 2019","Mon, Jan 28, 2019"
3497,Garden City Regional,Garden City,United States,GCK,KGCK,37.927528,-100.724417,2891,-6,A,"Garden City, KS",58,57,62,62,4.32758620689655,17.192982456140346,9.0,48.0,"Sat, Jan 12, 2019","Fri, Jan 11, 2019"
3467,Spokane International,Spokane,United States,GEG,KGEG,47.619861,-117.533833,2376,-8,A,"Spokane, WA",917,919,936,934,4.10905125408942,17.729053318824832,28.0,97.0,"Fri, Jan  4, 2019","Thu, Jan 17, 2019"
3442,Grand Forks International,Grand Forks,United States,GFK,KGFK,47.949256,-97.176111,845,-6,A,"Grand Forks, ND",160,158,168,168,4.4875,22.29113924050632,15.0,63.0,"Thu, Jan 31, 2019","Tue, Jan 15, 2019"
3465,East Texas Regional,Longview,United States,GGG,KGGG,32.384014,-94.711486,365,-6,A,"Longview, TX",59,59,59,59,4.508474576271189,13.932203389830509,8.0,63.0,"Fri, Jan 25, 2019","Wed, Jan  9, 2019"
4063,Grand Junction Regional,Grand Junction,United States,GJT,KGJT,39.122413,-108.526735,4858,-7,A,"Grand Junction, CO",285,287,285,287,3.571929824561403,18.334494773519147,25.0,82.0,"Fri, Jan 11, 2019","Sat, Jan 12, 2019"
3472,Gainesville Regional,Gainesville,United States,GNV,KGNV,29.690056,-82.271778,152,-5,A,"Gainesville, FL",355,354,357,357,3.6478873239436616,14.03954802259887,25.0,53.0,"Fri, Jan 11, 2019","Tue, Jan 15, 2019"
4038,Gulfport-Biloxi,Gulfport,United States,GPT,KGPT,30.407278,-89.070111,28,-6,A,"Gulfport/Biloxi, MS",358,355,362,361,4.12290502793296,16.315492957746486,10.0,94.0,"Mon, Jan  7, 2019","Mon, Jan 21, 2019"
3653,Austin Straubel International,Green Bay,United States,GRB,KGRB,44.485072,-88.129589,695,-6,A,"Green Bay, WI",329,329,357,357,4.735562310030391,22.370820668693025,41.0,126.0,"Sat, Jan 26, 2019","Wed, Jan 23, 2019"
5740,Central Nebraska Regional Airport,Grand Island,United States,GRI,KGRI,40.9675,-98.3096,1847,-6,A,"Grand Island, NE",98,97,99,99,5.76530612244898,16.31958762886598,25.0,74.0,"Wed, Jan  2, 2019","Mon, Jan 21, 2019"
3775,Robert Gray AAF,Killeen,United States,GRK,KGRK,31.06725,-97.828917,1015,-6,A,"Killeen, TX",250,247,251,250,4.452,16.194331983805665,25.0,62.0,"Wed, Jan 23, 2019","Thu, Jan 31, 2019"
3685,Gerald R. Ford International,Grand Rapids,United States,GRR,KGRR,42.880833,-85.522806,794,-5,A,"Grand Rapids, MI",1403,1392,1508,1506,7.539558089807562,22.365660919540222,117.0,133.0,"Tue, Jan 29, 2019","Tue, Jan 29, 2019"
4008,Piedmont Triad,Greensboro,United States,GSO,KGSO,36.09775,-79.937306,925,-5,A,"Greensboro/High Point, NC",1190,1190,1233,1233,4.560504201680669,18.558823529411818,65.0,96.0,"Mon, Jan 21, 2019","Mon, Jan 21, 2019"
4034,Greenville-Spartanburg International,Greenville,United States,GSP,KGSP,34.895556,-82.218889,964,-5,A,"Greer, SC",1163,1160,1197,1194,3.840928632846086,15.674999999999972,26.0,80.0,"Fri, Jan 11, 2019","Tue, Jan 15, 2019"
3880,Great Falls International,Great Falls,United States,GTF,KGTF,47.482,-111.370689,3677,-7,A,"Great Falls, MT",117,117,117,117,4.282051282051279,16.23076923076923,15.0,61.0,"Fri, Jan 25, 2019","Fri, Jan 18, 2019"
4273,Golden Triangle Regional Airport,Columbus Mississippi,United States,GTR,KGTR,33.450333,-88.591361,264,-6,A,"Columbus, MS",82,82,83,83,3.134146341463415,18.134146341463413,6.0,44.0,"Mon, Jan 21, 2019","Sat, Jan 26, 2019"
7051,Gunnison - Crested Butte,Gunnison,United States,GUC,KGUC,38.533889,-106.933056,7678,-7,A,"Gunnison, CO",44,44,44,44,4.181818181818181,14.909090909090908,10.0,37.0,"Fri, Jan  4, 2019","Sun, Jan  6, 2019"
4339,Yampa Valley,Hayden,United States,HDN,KHDN,40.481181,-107.21766,6602,-7,A,"Hayden, CO",249,247,258,258,7.180722891566259,22.2753036437247,74.0,73.0,"Sat, Jan 19, 2019","Wed, Jan 23, 2019"
6739,Hagerstown Regional-Richard A. Henson Field,Hagerstown,United States,HGR,KHGR,39.7079,-77.7295,704,-5,A,"Hagerstown, MD",10,10,10,10,6.1,6.9,9.0,12.0,"Mon, Jan 14, 2019","Sat, Jan  5, 2019"
7002,Hilton Head,Hilton Head,United States,HHH,KHHH,32.216,-80.752,10,-5,U,"Hilton Head, SC",84,84,88,88,7.273809523809524,18.071428571428573,12.0,45.0,"Tue, Jan 29, 2019","Wed, Jan 30, 2019"
3650,Chisholm Hibbing,Hibbing,United States,HIB,KHIB,47.3866,-92.838994,1353,-6,A,"Hibbing, MN",52,52,54,54,3.3653846153846154,19.807692307692307,7.0,52.0,"Fri, Jan  4, 2019","Wed, Jan 23, 2019"
3504,Helena Regional,Helena,United States,HLN,KHLN,46.606806,-111.98275,3877,-7,A,"Helena, MT",110,110,110,110,2.9909090909090907,24.336363636363636,9.0,96.0,"Mon, Jan 21, 2019","Thu, Jan  3, 2019"
3728,Honolulu International,Honolulu,United States,HNL,PHNL,21.318681,-157.922428,13,-10,N,"Honolulu, HI",3927,3930,3933,3933,7.560733384262796,15.504071246819343,84.0,103.0,"Tue, Jan  1, 2019","Sun, Jan 20, 2019"
3749,Lea County Regional,Hobbs,United States,HOB,KHOB,32.687528,-103.217028,3661,-7,A,"Hobbs, NM",58,58,58,58,4.810344827586205,15.896551724137943,10.0,42.0,"Thu, Jan 10, 2019","Fri, Jan 25, 2019"
3566,William P. Hobby,Houston,United States,HOU,KHOU,29.645419,-95.278889,46,-6,A,"Houston, TX",4920,4926,5002,4998,5.246951219512216,10.799634591961043,59.0,116.0,"Wed, Jan  2, 2019","Wed, Jan 23, 2019"
3589,Westchester County,White Plains,United States,HPN,KHPN,41.066959,-73.707575,439,-5,A,"White Plains, NY",847,850,919,910,4.266824085005895,14.503529411764704,35.0,70.0,"Mon, Jan 28, 2019","Fri, Jan 18, 2019"
3560,Valley International,Harlingen,United States,HRL,KHRL,26.2285,-97.654389,36,-6,A,"Harlingen/San Benito, TX",329,328,330,330,3.504559270516718,11.246951219512198,23.0,59.0,"Thu, Jan 24, 2019","Thu, Jan 31, 2019"
4113,Huntsville International Airport-Carl T. Jones Field,Huntsville,United States,HSV,KHSV,34.6371944,-86.7750556,629,-6,A,"Huntsville, AL",690,690,712,712,5.366666666666663,16.689855072463793,37.0,106.0,"Fri, Jan 18, 2019","Wed, Jan 23, 2019"
5742,TriState-Milton J. Ferguson Field,Huntington,United States,HTS,KHTS,38.3667,-82.558,828,-5,A,"Ashland, WV",20,20,20,20,5.7,8.5,7.0,31.0,"Fri, Jan 25, 2019","Mon, Jan 14, 2019"
4006,Tweed-New Haven Airport,New Haven,United States,HVN,KHVN,41.26375,-72.886806,14,-5,A,"New Haven, CT",63,65,69,69,2.6507936507936503,15.64615384615385,7.0,65.0,"Wed, Jan  2, 2019","Sun, Jan 20, 2019"
7014,Hays Regional Airport,Hays,United States,HYS,KHYS,38.8422,-99.2732,1998,-5,A,"Hays, KS",94,94,107,107,4.361702127659574,18.468085106382993,21.0,123.0,"Wed, Jan  2, 2019","Fri, Jan 11, 2019"
3714,Washington Dulles International,Washington,United States,IAD,KIAD,38.944533,-77.455811,313,-5,A,"Washington, DC",5069,5091,5215,5237,5.907674097455129,20.77312905126693,81.0,165.0,"Sun, Jan 13, 2019","Sun, Jan 13, 2019"
3630,Niagara Falls International,Niagara Falls,United States,IAG,KIAG,43.107333,-78.946194,589,-5,A,"Niagara Falls, NY",45,45,48,48,8.688888888888886,15.311111111111112,24.0,49.0,"Fri, Jan  4, 2019","Fri, Jan 18, 2019"
3550,George Bush Intercontinental Houston,Houston,United States,IAH,KIAH,29.984433,-95.341442,97,-6,A,"Houston, TX",14445,14502,14586,14598,8.634544825199063,19.329540752999545,56.0,122.0,"Sun, Jan 27, 2019","Tue, Jan 22, 2019"
3457,Wichita Mid Continent,Wichita,United States,ICT,KICT,37.649944,-97.433056,1333,-6,A,"Wichita, KS",778,778,814,814,4.5269922879177305,16.59768637532133,32.0,149.0,"Wed, Jan 16, 2019","Wed, Jan 23, 2019"
4100,Idaho Falls Regional,Idaho Falls,United States,IDA,KIDA,43.514556,-112.07075,4744,-7,A,"Idaho Falls, ID",134,134,134,134,4.24626865671642,18.48507462686566,23.0,64.0,"Thu, Jan  3, 2019","Tue, Jan  1, 2019"
3845,Wilmington International,Wilmington,United States,ILM,KILM,34.270615,-77.902569,32,-5,A,"Wilmington, NC",543,539,549,548,4.246777163904237,16.65862708719851,38.0,91.0,"Fri, Jan 18, 2019","Wed, Jan 23, 2019"
6837,Ford Airport,Iron Mountain,United States,IMT,KIMT,45.8183611,-88.1145556,1182,-5,A,"Iron Mountain/Kingsfd, MI",57,57,58,58,4.947368421052631,19.33333333333333,9.0,101.0,"Mon, Jan  7, 2019","Thu, Jan 17, 2019"
3585,Indianapolis International,Indianapolis,United States,IND,KIND,39.717331,-86.294383,797,-5,A,"Indianapolis, IN",3675,3690,3867,3867,6.400544217687089,18.60379403794042,52.0,142.0,"Mon, Jan 28, 2019","Sat, Jan 12, 2019"
3535,Falls International,International Falls,United States,INL,KINL,48.566186,-93.403067,1185,-6,A,"International Falls, MN",53,53,53,53,4.716981132075473,19.49056603773584,9.0,53.0,"Mon, Jan  7, 2019","Tue, Jan 15, 2019"
3659,Sloulin Field International,Williston,United States,ISN,KISN,48.177939,-103.642347,1982,-7,A,"Williston, ND",65,65,65,65,6.707692307692308,32.19999999999999,28.0,67.0,"Sun, Jan  6, 2019","Thu, Jan 31, 2019"
3857,Long Island MacArthur,Islip,United States,ISP,KISP,40.79525,-73.100222,99,-5,A,"Islip, NY",466,467,473,474,4.714592274678117,12.0406852248394,57.0,99.0,"Thu, Jan 24, 2019","Fri, Jan 18, 2019"
3947,Ithaca Tompkins Regional,Ithaca,United States,ITH,KITH,42.491028,-76.458444,1099,-5,A,"Ithaca/Cortland, NY",69,69,70,70,3.1449275362318843,27.92753623188406,11.0,111.0,"Wed, Jan 23, 2019","Thu, Jan 24, 2019"
3415,Hilo International,Hilo,United States,ITO,PHTO,19.721375,-155.048469,38,-10,N,"Hilo, HI",479,478,479,479,5.463465553235903,8.96443514644351,9.0,20.0,"Wed, Jan 16, 2019","Sat, Jan 19, 2019"
4027,Jackson Hole Airport,Jacksn Hole,United States,JAC,KJAC,43.60733333,-110.73775,6451,-7,A,"Jackson, WY",405,405,414,416,5.525925925925927,24.9432098765432,104.0,139.0,"Tue, Jan 22, 2019","Sat, Jan 26, 2019"
3580,Jackson Evers International,Jackson,United States,JAN,KJAN,32.311167,-90.075889,346,-6,A,"Jackson/Vicksburg, MS",649,648,657,658,4.878274268104779,16.04012345679013,24.0,97.0,"Sun, Jan  6, 2019","Wed, Jan 23, 2019"
3712,Jacksonville International,Jacksonville,United States,JAX,KJAX,30.494056,-81.687861,30,-5,A,"Jacksonville, FL",2653,2641,2702,2701,5.133810780248766,14.071563801590301,39.0,95.0,"Sun, Jan  6, 2019","Wed, Jan 30, 2019"
3797,John F. Kennedy International,New York,United States,JFK,KJFK,40.639751,-73.778925,13,-5,A,"New York, NY",10263,10281,10483,10485,9.526941440124716,26.313782705962456,77.0,137.0,"Sat, Jan 12, 2019","Wed, Jan 30, 2019"
4354,Joplin Regional,Joplin,United States,JLN,KJLN,37.151814,-94.498269,981,-6,A,"Joplin, MO",60,60,62,62,4.783333333333333,24.85,10.0,68.0,"Sun, Jan  6, 2019","Thu, Jan 17, 2019"
5745,Jamestown Regional Airport,Jamestown,United States,JMS,KJMS,46.9297,-98.6782,1498,-6,A,"Jamestown, ND",76,75,84,84,4.631578947368421,17.97333333333334,8.0,48.0,"Wed, Jan  9, 2019","Wed, Jan 23, 2019"
3492,Juneau International,Juneau,United States,JNU,PAJN,58.354972,-134.576278,21,-9,A,"Juneau, AK",284,288,321,321,4.084507042253522,18.392361111111107,14.0,136.0,"Thu, Jan 10, 2019","Thu, Jan 10, 2019"
3514,Kona International At Keahole,Kona,United States,KOA,PHKO,19.738767,-156.045631,47,-10,N,"Kona, HI",1195,1191,1196,1196,5.980753138075313,11.550797649034433,87.0,38.0,"Tue, Jan  1, 2019","Thu, Jan  3, 2019"
3808,Ketchikan International,Ketchikan,United States,KTN,PAKT,55.355556,-131.71375,88,-9,A,"Ketchikan, AK",169,170,177,177,4.473372781065089,13.917647058823526,12.0,52.0,"Wed, Jan  9, 2019","Wed, Jan  9, 2019"
3544,Capital City,Lansing,United States,LAN,KLAN,42.7787,-84.587357,861,-5,A,"Lansing, MI",238,237,255,255,3.827731092436975,24.691983122362867,26.0,104.0,"Sun, Jan 27, 2019","Sun, Jan 27, 2019"
5746,Laramie Regional Airport,Laramie,United States,LAR,KLAR,41.3121,-105.675,7284,-7,A,"Laramie, WY",53,52,54,53,4.9245283018867925,23.596153846153843,8.0,48.0,"Mon, Jan  7, 2019","Sat, Jan 12, 2019"
3877,McCarran International,Las Vegas,United States,LAS,KLAS,36.080056,-115.15225,2141,-8,A,"Las Vegas, NV",13063,13057,13219,13209,6.797979024726319,16.31638201730872,62.0,136.0,"Thu, Jan  3, 2019","Thu, Jan 10, 2019"
4256,Lawton-Fort Sill Regional Airport,Lawton,United States,LAW,KLAW,34.5677144,-98.4166367,1110,-6,A,"Lawton/Fort Sill, OK",97,97,105,105,3.6804123711340195,19.402061855670112,35.0,48.0,"Sun, Jan  6, 2019","Thu, Jan 10, 2019"
3484,Los Angeles International,Los Angeles,United States,LAX,KLAX,33.942536,-118.408075,126,-8,A,"Los Angeles, CA",17684,17730,17977,17988,10.978511648948233,18.716469261139313,115.0,145.0,"Wed, Jan  2, 2019","Thu, Jan 10, 2019"
3829,Lubbock Preston Smith International,Lubbock,United States,LBB,KLBB,33.663639,-101.822778,3282,-6,A,"Lubbock, TX",538,535,542,539,4.050185873605948,13.345794392523368,24.0,59.0,"Fri, Jan 11, 2019","Sat, Jan 26, 2019"
5747,Arnold Palmer Regional Airport,Latrobe,United States,LBE,KLBE,40.2759,-79.4048,1185,-5,A,"Latrobe, PA",78,78,81,81,6.0,16.423076923076927,10.0,49.0,"Sun, Jan 27, 2019","Sun, Jan 20, 2019"
5748,North Platte Regional Airport-Lee Bird Field,North Platte,United States,LBF,KLBF,41.1262,-100.684,2776,-6,A,"North Platte, NE",52,51,54,53,4.4230769230769225,17.647058823529413,20.0,45.0,"Sun, Jan 13, 2019","Wed, Jan 16, 2019"
4341,Liberal Municipal,Liberal,United States,LBL,KLBL,37.044222,-100.95986,2885,-6,A,"Liberal, KS",54,53,54,53,4.629629629629628,21.622641509433958,18.0,71.0,"Fri, Jan 11, 2019","Fri, Jan 11, 2019"
3513,Lake Charles Regional,Lake Charles,United States,LCH,KLCH,30.126112,-93.223335,15,-6,A,"Lake Charles, LA",167,167,169,169,4.856287425149705,14.311377245508977,8.0,55.0,"Sat, Jan  5, 2019","Fri, Jan 25, 2019"
3674,Rickenbacker International,Columbus,United States,LCK,KLCK,39.813786,-82.927822,744,-5,A,"Columbus, OH",41,41,41,41,5.2926829268292686,12.585365853658537,9.0,29.0,"Sun, Jan 20, 2019","Tue, Jan  1, 2019"
4017,Blue Grass,Lexington KY,United States,LEX,KLEX,38.0365,-84.605889,979,-5,A,"Lexington, KY",739,740,782,778,4.742895805142086,20.247297297297298,24.0,121.0,"Thu, Jan 24, 2019","Mon, Jan 21, 2019"
3493,Lafayette Regional,Lafayette,United States,LFT,KLFT,30.205278,-91.987611,43,-6,A,"Lafayette, LA",415,415,419,418,6.02409638554217,17.7879518072289,26.0,59.0,"Wed, Jan 23, 2019","Thu, Jan 31, 2019"
3697,LaGuardia Airport,New York,United States,LGA,KLGA,40.777245,-73.872608,22,-5,A,"New York, NY",13372,13378,13882,13872,8.704980556386438,27.849155329645697,136.0,143.0,"Fri, Jan 18, 2019","Mon, Jan 28, 2019"
3582,Long Beach,Long Beach,United States,LGB,KLGB,33.817722,-118.151611,60,-8,A,"Long Beach, CA",1201,1202,1208,1210,4.476269775187345,13.03161397670547,37.0,64.0,"Mon, Jan  7, 2019","Tue, Jan 15, 2019"
3602,Lihue,Lihue,United States,LIH,PHLI,21.975983,-159.338958,153,-10,N,"Lihue, HI",1136,1134,1136,1136,6.01408450704225,10.027336860670196,44.0,59.0,"Wed, Jan  2, 2019","Wed, Jan  2, 2019"
3660,Adams Field,Little Rock,United States,LIT,KLIT,34.729444,-92.224306,262,-6,A,"Little Rock, AR",1014,1013,1035,1035,4.723865877712033,14.658440276406717,55.0,96.0,"Wed, Jan 23, 2019","Tue, Jan 15, 2019"
3543,Lincoln,Lincoln,United States,LNK,KLNK,40.850971,-96.75925,1219,-6,A,"Lincoln, NE",123,123,123,123,4.065040650406503,25.260162601626018,10.0,80.0,"Fri, Jan 11, 2019","Sat, Jan 12, 2019"
3691,Laredo International,Laredo,United States,LRD,KLRD,27.54375,-99.461556,508,-6,A,"Laredo, TX",191,190,193,193,4.827225130890052,14.48421052631579,18.0,53.0,"Thu, Jan  3, 2019","Mon, Jan 21, 2019"
4044,LaCrosse Municipal,LaCrosse,United States,LSE,KLSE,43.878986,-91.256711,654,-6,A,"La Crosse, WI",139,137,152,152,3.8489208633093526,21.350364963503647,20.0,80.0,"Mon, Jan  7, 2019","Tue, Jan 22, 2019"
6958,Greenbrier Valley Airport,Lewisburg,United States,LWB,KLWB,37.858333,-80.399444,2302,-5,U,"Lewisburg, WV",43,43,52,52,3.5813953488372094,18.11627906976744,6.0,65.0,"Thu, Jan 24, 2019","Wed, Jan  9, 2019"
3945,Lewiston Nez Perce County,Lewiston,United States,LWS,KLWS,46.3745,-117.015389,1442,-8,A,"Lewiston, ID",64,64,64,64,3.875,13.9375,7.0,30.0,"Thu, Jan 10, 2019","Mon, Jan 14, 2019"
5753,Lynchburg Regional-Preston Glenn Field,Lynchburg,United States,LYH,KLYH,37.3267,-79.2004,938,-5,A,"Lynchburg, VA",47,46,49,48,3.5531914893617023,14.608695652173912,8.0,36.0,"Sun, Jan  6, 2019","Mon, Jan 14, 2019"
3652,Midland International,Midland,United States,MAF,KMAF,31.942528,-102.201914,2871,-6,A,"Midland/Odessa, TX",721,717,722,721,4.098474341192788,14.382147838214786,36.0,78.0,"Fri, Jan 25, 2019","Wed, Jan  2, 2019"
4128,MBS International,Saginaw,United States,MBS,KMBS,43.532913,-84.079647,668,-5,A,"Saginaw/Bay City/Midland, MI",174,173,192,191,4.609195402298853,22.572254335260098,18.0,56.0,"Wed, Jan 30, 2019","Mon, Jan  7, 2019"
3458,Kansas City International,Kansas City,United States,MCI,KMCI,39.297606,-94.713905,1026,-6,A,"Kansas City, MO",4318,4308,4462,4458,5.628994905048633,16.074048282265547,53.0,157.0,"Sat, Jan 19, 2019","Sat, Jan 12, 2019"
3878,Orlando International,Orlando,United States,MCO,KMCO,28.429394,-81.308994,96,-5,A,"Orlando, FL",11857,11861,12042,12045,9.347052374124939,15.047635106652049,73.0,106.0,"Sat, Jan  5, 2019","Wed, Jan 23, 2019"
3542,Harrisburg International,Harrisburg,United States,MDT,KMDT,40.193494,-76.763403,310,-5,A,"Harrisburg, PA",470,473,499,499,5.280851063829783,18.528541226215633,24.0,101.0,"Wed, Jan 30, 2019","Fri, Jan 18, 2019"
3747,Chicago Midway International,Chicago,United States,MDW,KMDW,41.785972,-87.752417,620,-6,A,"Chicago, IL",5609,5631,6412,6410,6.832947049384916,15.60522109749605,77.0,114.0,"Fri, Jan 25, 2019","Tue, Jan 22, 2019"
4335,Key Field,Meridian,United States,MEI,KMEI,32.332624,-88.751868,297,-6,A,"Meridian, MS",88,87,93,93,4.909090909090913,15.080459770114942,9.0,62.0,"Thu, Jan 17, 2019","Fri, Jan 25, 2019"
3473,Memphis International,Memphis,United States,MEM,KMEM,35.042417,-89.976667,341,-6,A,"Memphis, TN",1894,1891,1936,1936,4.940337909186898,15.825489159175033,27.0,112.0,"Sun, Jan  6, 2019","Wed, Jan 23, 2019"
3826,McAllen Miller International,Mcallen,United States,MFE,KMFE,26.175833,-98.238611,107,-6,A,"Mission/McAllen/Edinburg, TX",403,402,409,408,3.9106699751861043,12.368159203980099,42.0,60.0,"Sun, Jan  6, 2019","Thu, Jan 31, 2019"
4101,Rogue Valley International Medford,Medford,United States,MFR,KMFR,42.374228,-122.8735,1335,-8,A,"Medford, OR",336,335,347,349,4.720238095238099,19.107462686567157,32.0,104.0,"Fri, Jan  4, 2019","Wed, Jan  2, 2019"
4115,Montgomery Regional Airport ,MONTGOMERY,United States,MGM,KMGM,32.3006389,-86.3939722,221,-6,A,"Montgomery, AL",290,292,295,295,3.4172413793103438,17.986301369863025,14.0,56.0,"Sun, Jan  6, 2019","Sat, Jan 12, 2019"
4050,Manhattan Regional,Manhattan,United States,MHK,KMHK,39.140972,-96.670833,1057,-6,A,"Manhattan/Ft. Riley, KS",125,126,139,139,4.503999999999998,18.75396825396825,28.0,64.0,"Tue, Jan  1, 2019","Sat, Jan 12, 2019"
4011,Manchester Regional Airport,Manchester NH,United States,MHT,KMHT,42.932556,-71.435667,266,-5,A,"Manchester, NH",577,574,615,617,4.235701906412476,14.609756097560975,20.0,102.0,"Fri, Jan 25, 2019","Thu, Jan 24, 2019"
3576,Miami International,Miami,United States,MIA,KMIA,25.79325,-80.290556,8,-5,A,"Miami, FL",7818,7836,7894,7901,9.621002814018928,20.234558448187816,96.0,121.0,"Sun, Jan 13, 2019","Thu, Jan 24, 2019"
3717,General Mitchell International,Milwaukee,United States,MKE,KMKE,42.947222,-87.896583,723,-6,A,"Milwaukee, WI",2331,2327,2495,2495,5.91162591162592,18.581005586592223,74.0,138.0,"Mon, Jan 28, 2019","Wed, Jan 23, 2019"
5754,Muskegon County Airport,Muskegon,United States,MKG,KMKG,43.1695,-86.2382,628,-5,A,"Muskegon, MI",47,48,62,62,4.382978723404254,23.770833333333332,10.0,79.0,"Fri, Jan 25, 2019","Thu, Jan 24, 2019"
3671,Melbourne International,Melbourne,United States,MLB,KMLB,28.102753,-80.645258,33,-5,A,"Melbourne, FL",210,209,211,211,3.876190476190476,13.645933014354068,8.0,33.0,"Tue, Jan  8, 2019","Fri, Jan 25, 2019"
4072,Quad City International,Moline,United States,MLI,KMLI,41.448528,-90.507539,590,-6,A,"Moline, IL",393,390,426,426,7.1679389312977095,24.246153846153845,67.0,142.0,"Fri, Jan 25, 2019","Wed, Jan 23, 2019"
3732,Monroe Regional,Monroe,United States,MLU,KMLU,32.510864,-92.037689,79,-6,A,"Monroe, LA",231,228,234,233,4.350649350649349,15.728070175438589,22.0,72.0,"Tue, Jan 22, 2019","Thu, Jan 24, 2019"
7081,Mammoth Yosemite Airport,Mammoth Lakes,United States,MMH,KMMH,37.624049,-118.837772,7128,-8,A,"Mammoth Lakes, CA",75,74,93,93,4.2266666666666675,23.04054054054054,18.0,62.0,"Sun, Jan 13, 2019","Fri, Jan  4, 2019"
3782,Mobile Regional,Mobile,United States,MOB,KMOB,30.691231,-88.242814,219,-6,A,"Mobile, AL",429,431,436,438,5.032634032634036,14.547563805104408,35.0,49.0,"Sat, Jan  5, 2019","Wed, Jan  2, 2019"
3498,Minot International,Minot,United States,MOT,KMOT,48.259378,-101.280333,1716,-6,A,"Minot, ND",138,138,143,143,6.253623188405797,24.5,35.0,71.0,"Mon, Jan 28, 2019","Mon, Jan  7, 2019"
6838,Sawyer International Airport,Marquette,United States,MQT,KMQT,46.353611,-87.395278,1221,-5,A,"Marquette, MI",88,89,93,93,5.318181818181818,24.629213483146067,10.0,97.0,"Mon, Jan  7, 2019","Sat, Jan 19, 2019"
3948,Monterey Peninsula,Monterey,United States,MRY,KMRY,36.587,-121.842944,257,-8,A,"Monterey, CA",351,352,365,365,3.4188034188034186,16.065340909090917,8.0,67.0,"Wed, Jan  2, 2019","Sat, Jan 12, 2019"
3459,Dane County Regional-Truax Field,Madison,United States,MSN,KMSN,43.139858,-89.337514,887,-6,A,"Madison, WI",985,982,1027,1027,5.159390862944166,19.765784114052956,54.0,106.0,"Mon, Jan 28, 2019","Fri, Jan 25, 2019"
4216,Missoula International,Missoula,United States,MSO,KMSO,46.916306,-114.090556,3205,-7,A,"Missoula, MT",213,213,213,213,4.863849765258218,20.957746478873247,18.0,72.0,"Sun, Jan 20, 2019","Sun, Jan 20, 2019"
3858,Minneapolis St. Paul International,Minneapolis,United States,MSP,KMSP,44.881956,-93.221767,841,-6,A,"Minneapolis, MN",11954,11960,12184,12180,6.029362556466457,21.776505016722407,103.0,122.0,"Wed, Jan 30, 2019","Wed, Jan 23, 2019"
3861,Louis Armstrong New Orleans International,New Orleans,United States,MSY,KMSY,29.993389,-90.258028,4,-6,A,"New Orleans, LA",4538,4545,4595,4597,5.13662406346407,11.705390539053896,49.0,83.0,"Fri, Jan  4, 2019","Tue, Jan  8, 2019"
6880,Montrose Regional Airport,Montrose CO,United States,MTJ,KMTJ,38.509794,-107.894242,5759,-7,A,"Montrose/Delta, CO",208,208,212,212,8.346153846153852,16.23557692307691,77.0,53.0,"Tue, Jan  1, 2019","Wed, Jan  2, 2019"
3515,Myrtle Beach International,Myrtle Beach,United States,MYR,KMYR,33.67975,-78.928333,25,-5,A,"Myrtle Beach, SC",567,568,571,571,3.962962962962963,13.98591549295775,24.0,75.0,"Tue, Jan  1, 2019","Thu, Jan 24, 2019"
4386,Albert J. Ellis,Jacksonville NC,United States,OAJ,KOAJ,34.829164,-77.612139,94,-5,A,"Jacksonville/Camp Lejeune, NC",260,260,262,262,3.4692307692307693,17.738461538461532,9.0,50.0,"Tue, Jan  1, 2019","Wed, Jan  2, 2019"
3453,Metropolitan Oakland International,Oakland,United States,OAK,KOAK,37.721278,-122.220722,9,-8,A,"Oakland, CA",4116,4124,4182,4186,6.093537414965978,12.96750727449078,79.0,76.0,"Sun, Jan  6, 2019","Thu, Jan 31, 2019"
3456,Kahului,Kahului,United States,OGG,PHOG,20.89865,-156.430458,54,-10,N,"Kahului, HI",2092,2092,2093,2094,7.054493307839385,10.467495219885274,84.0,70.0,"Tue, Jan  1, 2019","Thu, Jan 10, 2019"
3724,Ogdensburg International,Ogdensburg,United States,OGS,KOGS,44.681854,-75.4655,297,-5,A,"Ogdensburg, NY",10,10,11,11,7.2,21.6,13.0,57.0,"Sun, Jan 27, 2019","Thu, Jan  3, 2019"
3863,Will Rogers World,Oklahoma City,United States,OKC,KOKC,35.393089,-97.600733,1295,-6,A,"Oklahoma City, OK",1817,1824,1884,1883,4.931755641166764,15.858004385964913,43.0,166.0,"Tue, Jan 22, 2019","Thu, Jan  3, 2019"
3454,Eppley Airfield,Omaha,United States,OMA,KOMA,41.303167,-95.894069,984,-6,A,"Omaha, NE",1953,1955,2036,2038,4.744495647721446,18.75549872122756,91.0,130.0,"Fri, Jan 18, 2019","Fri, Jan 18, 2019"
3615,Nome,Nome,United States,OME,PAOM,64.512203,-165.445247,37,-9,A,"Nome, AK",61,61,62,62,4.114754098360655,9.491803278688524,18.0,26.0,"Mon, Jan 14, 2019","Mon, Jan 14, 2019"
3734,Ontario International,Ontario,United States,ONT,KONT,34.056,-117.601194,944,-8,A,"Ontario, CA",1633,1633,1662,1662,4.383343539497868,11.34537660747093,27.0,83.0,"Thu, Jan 10, 2019","Mon, Jan  7, 2019"
3830,Chicago O'Hare International,Chicago,United States,ORD,KORD,41.978603,-87.904842,668,-6,A,"Chicago, IL",23330,23407,26212,26216,14.169609944277749,24.830264450805224,173.0,145.0,"Mon, Jan 28, 2019","Mon, Jan 28, 2019"
3611,Norfolk International,Norfolk,United States,ORF,KORF,36.894611,-76.201222,26,-5,A,"Norfolk, VA",1877,1876,1927,1928,4.38145977623868,16.27078891257991,39.0,112.0,"Mon, Jan 21, 2019","Fri, Jan 11, 2019"
6426,Worcester Regional Airport,Worcester,United States,ORH,KORH,42.2673,-71.8757,1009,-5,U,"Worcester, MA",88,88,93,93,4.670454545454546,12.545454545454545,18.0,49.0,"Fri, Jan  4, 2019","Wed, Jan 30, 2019"
5757,Southwest Oregon Regional Airport,North Bend,United States,OTH,KOTH,43.4171,-124.246,17,-8,A,"North Bend/Coos Bay, OR",25,25,31,31,3.72,14.0,5.0,26.0,"Sat, Jan 19, 2019","Tue, Jan 15, 2019"
3693,Ralph Wien Memorial,Kotzebue,United States,OTZ,PAOT,66.884678,-162.59855,11,-9,A,"Kotzebue, AK",62,62,62,62,3.661290322580645,7.822580645161289,5.0,21.0,"Sat, Jan 26, 2019","Sat, Jan 26, 2019"
5758,Owensboro Daviess County Airport,Owensboro,United States,OWB,KOWB,37.7401,-87.1668,406,-6,A,"Owensboro, KY",9,9,9,9,7.111111111111111,5.777777777777778,13.0,7.0,"Mon, Jan 21, 2019","Wed, Jan  2, 2019"
4117,Barkley Regional Airport,PADUCAH,United States,PAH,KPAH,37.0602875,-88.7729583,410,-6,A,"Paducah, KY",90,88,106,107,4.111111111111113,14.5,6.0,45.0,"Sat, Jan  5, 2019","Tue, Jan 29, 2019"
3771,Plattsburgh International,Plattsburgh,United States,PBG,KPBG,44.650944,-73.468139,234,-5,A,"Plattsburgh, NY",108,107,112,112,5.6296296296296315,18.766355140186917,14.0,73.0,"Thu, Jan 10, 2019","Wed, Jan 23, 2019"
3722,Palm Beach International,West Palm Beach,United States,PBI,KPBI,26.683161,-80.095589,19,-5,A,"West Palm Beach/Palm Beach, FL",2407,2408,2455,2462,4.705027004569995,15.086378737541528,36.0,101.0,"Tue, Jan 15, 2019","Sun, Jan 27, 2019"
3720,Portland International,Portland,United States,PDX,KPDX,45.588722,-122.5975,30,-8,A,"Portland, OR",4709,4710,4770,4767,4.766192397536623,13.094479830148632,54.0,109.0,"Sun, Jan  6, 2019","Thu, Jan 10, 2019"
7056,Charlotte County-Punta Gorda Airport,Punta Gorda,United States,PGD,KPGD,26.919722,-81.990556,26,-5,A,"Punta Gorda, FL",421,422,423,423,5.897862232779096,10.687203791469196,19.0,54.0,"Thu, Jan  3, 2019","Tue, Jan  1, 2019"
3633,Newport News Williamsburg International,Newport News,United States,PHF,KPHF,37.131894,-76.492989,43,-5,A,"Newport News/Williamsburg, VA",117,117,117,117,4.17094017094017,15.23076923076923,8.0,37.0,"Sun, Jan  6, 2019","Wed, Jan 16, 2019"
3752,Philadelphia International,Philadelphia,United States,PHL,KPHL,39.871944,-75.241139,36,-5,A,"Philadelphia, PA",8889,8902,9085,9087,7.070761615479798,19.97775780723429,58.0,136.0,"Tue, Jan 29, 2019","Sun, Jan 13, 2019"
3462,Phoenix Sky Harbor International,Phoenix,United States,PHX,KPHX,33.434278,-112.011583,1135,-7,N,"Phoenix, AZ",14561,14577,14764,14761,7.720280200535645,14.770460314193597,90.0,131.0,"Thu, Jan  3, 2019","Thu, Jan  3, 2019"
4046,Peoria Regional,Peoria,United States,PIA,KPIA,40.664203,-89.693258,660,-6,A,"Peoria, IL",335,334,367,367,6.316417910447761,21.25149700598803,49.0,140.0,"Wed, Jan 23, 2019","Sat, Jan 12, 2019"
5759,Hattiesburg Laurel Regional Airport,Hattiesburg/Laurel,United States,PIB,KPIB,31.4671,-89.3371,298,-6,A,"Hattiesburg/Laurel, MS",60,59,62,62,4.816666666666666,15.54237288135593,22.0,60.0,"Sun, Jan  6, 2019","Fri, Jan 18, 2019"
3617,St. Petersburg Clearwater International,St. Petersburg,United States,PIE,KPIE,27.910167,-82.687389,10,-5,A,"St. Petersburg, FL",542,542,548,548,5.808118081180809,12.339483394833948,17.0,58.0,"Sat, Jan  5, 2019","Fri, Jan  4, 2019"
5760,Pocatello Regional Airport,Pocatello,United States,PIH,KPIH,42.9098,-112.596,4452,-7,A,"Pocatello, ID",93,93,93,93,3.3225806451612905,17.505376344086027,7.0,46.0,"Sat, Jan  5, 2019","Thu, Jan 10, 2019"
3570,Pittsburgh International,Pittsburgh (pennsylva),United States,PIT,KPIT,40.491467,-80.232872,1204,-5,A,"Pittsburgh, PA",3858,3860,3968,3970,6.044064282011407,20.729792746114004,46.0,172.0,"Thu, Jan  3, 2019","Sun, Jan 20, 2019"
5762,Pellston Regional Airport of Emmet County Airport,Pellston,United States,PLN,KPLN,45.5709,-84.7967,720,-5,A,"Pellston, MI",69,70,75,76,6.27536231884058,22.514285714285716,11.0,52.0,"Wed, Jan  2, 2019","Tue, Jan 29, 2019"
3564,Pensacola Regional,Pensacola,United States,PNS,KPNS,30.473425,-87.186611,121,-6,A,"Pensacola, FL",892,893,904,906,4.565022421524656,13.868980963045908,51.0,64.0,"Wed, Jan  2, 2019","Mon, Jan 21, 2019"
3446,Ernest A. Love Field,Prescott,United States,PRC,KPRC,34.654472,-112.419583,5045,-7,A,"Prescott, AZ",62,62,62,62,3.774193548387097,18.27419354838709,8.0,37.0,"Wed, Jan 30, 2019","Sun, Jan 13, 2019"
6133,Tri Cities Airport,Pasco,United States,PSC,PSC,46.2647,-119.119,410,-8,A,"Pasco/Kennewick/Richland, WA",137,138,141,142,4.992700729927007,14.630434782608695,19.0,49.0,"Wed, Jan  9, 2019","Tue, Jan  1, 2019"
4147,Petersburg James A. Johnson,Petersburg,United States,PSG,PAPG,56.801667,-132.945278,105,-9,A,"Petersburg, AK",53,55,62,62,4.075471698113209,11.854545454545455,7.0,42.0,"Wed, Jan  2, 2019","Sat, Jan 26, 2019"
5763,Pease International Tradeport,Portsmouth,United States,PSM,KPSM,43.0779,-70.8233,100,-5,A,"Portsmouth, NH",32,31,33,33,6.15625,14.67741935483871,12.0,42.0,"Thu, Jan  3, 2019","Sun, Jan 20, 2019"
3839,Palm Springs International,Palm Springs,United States,PSP,KPSP,33.829667,-116.506694,477,-8,A,"Palm Springs, CA",1283,1282,1320,1321,5.95557287607171,15.127145085803434,53.0,113.0,"Thu, Jan 17, 2019","Sat, Jan  5, 2019"
3527,Pueblo Memorial,Pueblo Memorial,United States,PUB,KPUB,38.289085,-104.496572,4726,-7,A,"Pueblo, CO",79,79,80,80,4.4177215189873404,15.670886075949367,9.0,41.0,"Tue, Jan 22, 2019","Sun, Jan 13, 2019"
3641,Theodore Francis Green State,Providence,United States,PVD,KPVD,41.732581,-71.420383,55,-5,A,"Providence, RI",1301,1294,1355,1355,4.500384319754034,12.976816074188573,63.0,69.0,"Mon, Jan 21, 2019","Thu, Jan 31, 2019"
7579,Provo Municipal Airport,Provo,United States,PVU,KPVU,40.21805555,-111.7222222,4497,-6,A,"Provo, UT",46,46,46,46,5.565217391304347,11.891304347826088,22.0,40.0,"Fri, Jan 25, 2019","Mon, Jan 21, 2019"
3862,Portland International Jetport,Portland,United States,PWM,KPWM,43.646161,-70.309281,77,-5,A,"Portland, ME",700,701,733,737,3.7714285714285714,16.877318116975744,36.0,101.0,"Sat, Jan  5, 2019","Wed, Jan 30, 2019"
4087,Rapid City Regional Airport,Rapid City,United States,RAP,KRAP,44.045278,-103.057222,3204,-7,A,"Rapid City, SD",261,259,268,266,6.417624521072797,20.61776061776061,120.0,65.0,"Wed, Jan  2, 2019","Fri, Jan 18, 2019"
4098,Redding Municipal,Redding,United States,RDD,KRDD,40.509,-122.293389,504,-8,A,"Redding, CA",89,85,96,96,4.370786516853933,16.6,7.0,91.0,"Thu, Jan  3, 2019","Sun, Jan  6, 2019"
4103,Roberts Field,Redmond-Bend,United States,RDM,KRDM,44.254066,-121.149964,3077,-8,A,"Bend/Redmond, OR",249,251,270,270,4.971887550200802,18.70916334661354,33.0,101.0,"Sat, Jan  5, 2019","Sun, Jan 20, 2019"
3626,Raleigh Durham International,Raleigh-durham,United States,RDU,KRDU,35.877639,-78.787472,435,-5,A,"Raleigh/Durham, NC",4676,4678,4766,4769,5.320145423438854,17.37174005985466,74.0,120.0,"Mon, Jan 21, 2019","Thu, Jan 10, 2019"
4028,Chicago Rockford International Airport ,Rockford,United States,RFD,KRFD,42.1953611,-89.0972222,742,-6,A,"Rockford, IL",48,48,48,48,6.1875,15.0625,12.0,49.0,"Thu, Jan 24, 2019","Thu, Jan 31, 2019"
5765,Rhinelander Oneida County Airport,Rhinelander,United States,RHI,KRHI,45.6312,-89.4675,1624,-6,A,"Rhinelander, WI",61,61,62,62,4.426229508196721,26.147540983606557,10.0,79.0,"Tue, Jan 15, 2019","Mon, Jan 28, 2019"
3608,Richmond International,Richmond,United States,RIC,KRIC,37.505167,-77.319667,167,-5,A,"Richmond, VA",1867,1859,1937,1932,6.046598821638991,19.46476600322757,35.0,129.0,"Sun, Jan 13, 2019","Mon, Jan 28, 2019"
5766,Rock Springs Sweetwater County Airport,Rock Springs,United States,RKS,KRKS,41.5942,-109.065,6760,-7,A,"Rock Springs, WY",61,61,62,62,3.4754098360655736,21.524590163934427,13.0,48.0,"Mon, Jan 21, 2019","Thu, Jan 17, 2019"
3807,Reno Tahoe International,Reno,United States,RNO,KRNO,39.499108,-119.768108,4415,-8,A,"Reno, NV",1534,1528,1544,1545,4.947848761408087,15.764397905759163,61.0,107.0,"Tue, Jan 15, 2019","Tue, Jan 15, 2019"
4016,Roanoke Regional,Roanoke VA,United States,ROA,KROA,37.325472,-79.975417,1175,-5,A,"Roanoke, VA",207,205,210,209,5.0772946859903385,22.24390243902438,14.0,134.0,"Mon, Jan 28, 2019","Sun, Jan 13, 2019"
3622,Greater Rochester International,Rochester,United States,ROC,KROC,43.118866,-77.672389,559,-5,A,"Rochester, NY",1032,1025,1113,1111,6.636627906976743,18.904390243902427,103.0,120.0,"Wed, Jan  9, 2019","Thu, Jan 31, 2019"
3736,Roswell International Air Center,Roswell,United States,ROW,KROW,33.301556,-104.530556,3671,-7,A,"Roswell, NM",109,109,109,109,5.522935779816514,14.477064220183486,35.0,54.0,"Thu, Jan 24, 2019","Wed, Jan  2, 2019"
4048,Rochester,Rochester,United States,RST,KRST,43.908283,-92.500014,1317,-6,A,"Rochester, MN",271,271,307,308,4.154981549815496,24.70848708487085,22.0,115.0,"Mon, Jan 21, 2019","Sun, Jan 20, 2019"
3793,Southwest Florida International,Fort Myers,United States,RSW,KRSW,26.536167,-81.755167,30,-5,A,"Fort Myers, FL",3721,3710,3821,3823,5.482665950013427,12.936927223719676,76.0,83.0,"Thu, Jan 24, 2019","Wed, Jan 30, 2019"
3784,Santa Fe Municipal,Santa Fe,United States,SAF,KSAF,35.617108,-106.089422,6348,-7,A,"Santa Fe, NM",109,109,114,114,4.779816513761468,20.47706422018349,34.0,56.0,"Mon, Jan 28, 2019","Tue, Jan  1, 2019"
3731,San Diego International,San Diego,United States,SAN,KSAN,32.733556,-117.189667,17,-8,A,"San Diego, CA",7376,7382,7491,7493,4.549349240780901,17.100243836358704,54.0,122.0,"Wed, Jan  2, 2019","Sat, Jan 19, 2019"
3621,San Antonio International,San Antonio,United States,SAT,KSAT,29.533694,-98.469778,809,-6,A,"San Antonio, TX",3223,3216,3261,3258,4.31833695314924,11.917288557213919,28.0,108.0,"Mon, Jan 28, 2019","Sat, Jan  5, 2019"
3613,Savannah Hilton Head International,Savannah,United States,SAV,KSAV,32.127583,-81.202139,51,-5,A,"Savannah, GA",1136,1134,1164,1164,5.095950704225351,15.991181657848331,36.0,120.0,"Sat, Jan  5, 2019","Wed, Jan 30, 2019"
3949,Santa Barbara Municipal,Santa Barbara,United States,SBA,KSBA,34.426211,-119.840372,10,-8,A,"Santa Barbara, CA",534,532,554,551,4.861423220973784,16.8421052631579,25.0,100.0,"Sun, Jan 27, 2019","Tue, Jan 15, 2019"
4359,South Bend Regional,South Bend,United States,SBN,KSBN,41.708661,-86.31725,799,-5,A,"South Bend, IN",520,516,569,569,5.2711538461538465,25.922480620155053,36.0,95.0,"Tue, Jan 22, 2019","Sun, Jan 27, 2019"
5768,San Luis County Regional Airport,San Luis Obispo,United States,SBP,KSBP,35.2368,-120.642,212,-8,A,"San Luis Obispo, CA",388,388,413,411,4.301546391752574,17.664948453608233,32.0,67.0,"Sun, Jan  6, 2019","Mon, Jan 14, 2019"
3620,Deadhorse,Deadhorse,United States,SCC,PASC,70.19475,-148.465167,64,-9,A,"Deadhorse, AK",82,82,85,85,3.951219512195122,7.012195121951219,14.0,36.0,"Thu, Jan 24, 2019","Tue, Jan 22, 2019"
4318,University Park Airport,State College Pennsylvania,United States,SCE,KUNV,40.849278,-77.848694,1239,-5,A,"State College, PA",75,76,90,89,3.7733333333333334,24.30263157894737,6.0,77.0,"Fri, Jan  4, 2019","Fri, Jan 18, 2019"
3805,Stockton Metropolitan,Stockton,United States,SCK,KSCK,37.894167,-121.238306,33,-8,A,"Stockton, CA",52,52,52,52,6.403846153846154,6.461538461538462,20.0,12.0,"Mon, Jan 28, 2019","Mon, Jan  7, 2019"
4014,Louisville International Airport,Louisville,United States,SDF,KSDF,38.1740858,-85.7364989,501,-5,A,"Louisville, KY",1746,1745,1788,1787,7.496563573883162,17.640687679083054,52.0,104.0,"Mon, Jan 28, 2019","Thu, Jan 24, 2019"
3577,Seattle Tacoma International,Seattle,United States,SEA,KSEA,47.449,-122.309306,433,-8,A,"Seattle, WA",10136,10158,10227,10230,9.490035516969172,19.26865524709595,74.0,125.0,"Wed, Jan 23, 2019","Thu, Jan 10, 2019"
4167,Orlando Sanford International,Sanford,United States,SFB,KSFB,28.777639,-81.237489,55,-5,A,"Sanford, FL",692,692,698,697,5.686416184971099,13.878612716763005,75.0,38.0,"Tue, Jan  1, 2019","Thu, Jan 24, 2019"
3469,San Francisco International,San Francisco,United States,SFO,KSFO,37.618972,-122.374889,13,-8,A,"San Francisco, CA",13110,13119,13702,13689,8.986651411136487,24.24849454988943,96.0,122.0,"Sat, Jan  5, 2019","Sun, Jan  6, 2019"
4348,Springfield Branson National,Springfield,United States,SGF,KSGF,37.245667,-93.388639,1268,-6,A,"Springfield, MO",652,651,668,668,6.271472392638041,20.94623655913978,29.0,128.0,"Mon, Jan  7, 2019","Wed, Jan 23, 2019"
4064,St. George Municipal,Saint George,United States,SGU,KSGU,37.090583,-113.593056,2941,-7,A,"St. George, UT",300,301,301,301,3.619999999999999,17.734219269103,14.0,63.0,"Thu, Jan 24, 2019","Fri, Jan 11, 2019"
7062,Shenandoah Valley Regional Airport,Weyers Cave,United States,SHD,KSHD,38.263889,-78.896389,1201,-5,A,"Staunton, VA",50,50,58,58,4.08,19.140000000000004,6.0,67.0,"Sun, Jan 13, 2019","Wed, Jan 23, 2019"
3609,Shreveport Regional,Shreveport,United States,SHV,KSHV,32.446629,-93.8256,258,-6,A,"Shreveport, LA",512,511,516,516,4.964843749999999,16.47553816046967,38.0,87.0,"Wed, Jan 23, 2019","Fri, Jan 25, 2019"
3856,Sitka Rocky Gutierrez,Sitka,United States,SIT,PASI,57.047138,-135.361611,21,-9,A,"Sitka, AK",80,86,87,87,4.212499999999999,13.686046511627907,8.0,51.0,"Thu, Jan 17, 2019","Tue, Jan  8, 2019"
3748,Norman Y. Mineta San Jose International,San Jose,United States,SJC,KSJC,37.3626,-121.929022,62,-8,A,"San Jose, CA",4834,4845,4904,4925,4.64253206454282,13.29514963880289,50.0,143.0,"Sun, Jan  6, 2019","Thu, Jan 10, 2019"
3708,San Angelo Regional-Mathis Field,San Angelo,United States,SJT,KSJT,31.35775,-100.496306,1919,-6,A,"San Angelo, TX",133,131,135,134,3.338345864661654,13.236641221374043,18.0,57.0,"Mon, Jan  7, 2019","Tue, Jan  1, 2019"
3536,Salt Lake City International,Salt Lake City,United States,SLC,KSLC,40.788389,-111.977772,4227,-7,A,"Salt Lake City, UT",9285,9290,9360,9339,7.0340333871836425,20.706889128094755,83.0,152.0,"Mon, Jan 21, 2019","Mon, Jan 21, 2019"
5771,Salina Municipal Airport,Salina,United States,SLN,KSLN,38.791,-97.6522,1288,-6,A,"Salina, KS",71,71,81,80,5.633802816901408,20.73239436619719,24.0,59.0,"Fri, Jan 25, 2019","Fri, Jan 25, 2019"
3817,Sacramento International,Sacramento,United States,SMF,KSMF,38.695417,-121.590778,27,-8,A,"Sacramento, CA",3940,3932,3989,3983,4.780710659898478,12.439979654120034,49.0,74.0,"Fri, Jan  4, 2019","Sat, Jan  5, 2019"
5772,Santa Maria Public-Captain G. Allan Hancock Airport,Santa Maria,United States,SMX,KSMX,34.8989,-120.457,261,-8,A,"Santa Maria, CA",17,17,17,17,5.9411764705882355,6.529411764705882,13.0,24.0,"Sun, Jan 27, 2019","Mon, Jan  7, 2019"
3867,John Wayne Airport Orange County,Santa Ana,United States,SNA,KSNA,33.675667,-117.868222,56,-8,A,"Santa Ana, CA",3382,3383,3425,3416,5.307806031933758,14.136269583210177,62.0,89.0,"Thu, Jan 31, 2019","Mon, Jan 28, 2019"
4336,Abraham Lincoln Capital,Springfield,United States,SPI,KSPI,39.8441,-89.677889,597,-6,A,"Springfield, IL",113,113,129,129,4.5663716814159265,22.610619469026542,9.0,85.0,"Fri, Jan 11, 2019","Sat, Jan  5, 2019"
3680,Sheppard AFB Wichita Falls Municipal,Wichita Falls,United States,SPS,KSPS,33.988797,-98.491894,1019,-6,A,"Wichita Falls, TX",82,82,88,88,7.024390243902439,14.378048780487806,16.0,38.0,"Wed, Jan  2, 2019","Fri, Jan  4, 2019"
4067,Sarasota Bradenton International,Sarasota,United States,SRQ,KSRQ,27.395444,-82.554389,30,-5,A,"Sarasota/Bradenton, FL",663,663,677,677,4.546003016591259,14.487179487179487,37.0,93.0,"Wed, Jan  2, 2019","Thu, Jan 24, 2019"
4271,Saint Cloud Regional Airport,Saint Cloud,United States,STC,KSTC,45.546556,-94.059889,1031,-6,A,"St. Cloud, MN",18,18,18,18,8.555555555555555,12.222222222222221,9.0,32.0,"Sat, Jan 26, 2019","Sat, Jan 26, 2019"
3678,Lambert St. Louis International,St. Louis,United States,STL,KSTL,38.748697,-90.370028,618,-6,A,"St. Louis, MO",5089,5093,5347,5349,4.946354883081155,14.11211466719025,79.0,105.0,"Fri, Jan 11, 2019","Wed, Jan 30, 2019"
6992,Charles M. Schulz Sonoma County,Santa Rosa,United States,STS,KSTS,38.508978,-122.81288,125,-8,A,"Santa Rosa, CA",150,148,154,153,4.986666666666668,15.716216216216216,34.0,50.0,"Thu, Jan 24, 2019","Thu, Jan 31, 2019"
6494,Friedman Memorial,Hailey,United States,SUN,KSUN,43.504444,-114.296194,5320,-7,A,"Sun Valley/Hailey/Ketchum, ID",147,147,193,193,2.9183673469387754,16.972789115646265,8.0,59.0,"Tue, Jan  1, 2019","Tue, Jan  1, 2019"
3753,Sioux Gateway-Colonel Bud Day Field,Sioux City,United States,SUX,KSUX,42.402603,-96.384367,1098,-6,A,"Sioux City, IA",100,100,116,116,4.339999999999999,13.74,12.0,82.0,"Thu, Jan 10, 2019","Wed, Jan 23, 2019"
3661,Stewart International,Newburgh,United States,SWF,KSWF,41.504094,-74.104839,491,-5,A,"Newburgh/Poughkeepsie, NY",116,116,119,119,5.974137931034485,15.198275862068966,16.0,69.0,"Tue, Jan  1, 2019","Tue, Jan 29, 2019"
3745,Syracuse Hancock International,Syracuse,United States,SYR,KSYR,43.111187,-76.106311,421,-5,A,"Syracuse, NY",1049,1043,1124,1124,5.229742612011444,24.019175455417066,33.0,116.0,"Wed, Jan 23, 2019","Mon, Jan 21, 2019"
3698,Tallahassee Regional,Tallahassee,United States,TLH,KTLH,30.396528,-84.350333,81,-5,A,"Tallahassee, FL",486,483,492,491,4.687242798353904,14.304347826086957,27.0,45.0,"Sun, Jan 27, 2019","Thu, Jan 17, 2019"
4040,Toledo,Toledo,United States,TOL,KTOL,41.586806,-83.807833,684,-5,A,"Toledo, OH",150,150,171,172,4.02,12.226666666666668,17.0,51.0,"Sun, Jan 27, 2019","Sat, Jan 26, 2019"
3646,Tampa International,Tampa,United States,TPA,KTPA,27.975472,-82.53325,26,-5,A,"Tampa, FL",6496,6506,6616,6626,4.964901477832506,13.683676606209662,70.0,78.0,"Thu, Jan 17, 2019","Wed, Jan 23, 2019"
4116,Tri-Cities Regional Airport,BRISTOL,United States,TRI,KTRI,36.4752222,-82.4074167,1519,-5,A,"Bristol/Johnson City/Kingsport, TN",174,174,176,176,4.258620689655172,16.810344827586203,12.0,92.0,"Sun, Jan  6, 2019","Wed, Jan 23, 2019"
3447,Trenton Mercer,Trenton,United States,TTN,KTTN,40.276692,-74.813469,213,-5,A,"Trenton, NJ",202,202,204,204,7.524752475247524,15.396039603960396,17.0,54.0,"Thu, Jan 17, 2019","Fri, Jan 18, 2019"
3855,Tulsa International,Tulsa,United States,TUL,KTUL,36.198389,-95.888111,677,-6,A,"Tulsa, OK",1384,1380,1410,1408,4.311416184971101,14.565942028985507,27.0,97.0,"Fri, Jan 18, 2019","Thu, Jan  3, 2019"
3636,Tucson International,Tucson,United States,TUS,KTUS,32.116083,-110.941028,2643,-7,N,"Tucson, AZ",1756,1754,1774,1772,4.470387243735744,14.219498289623717,43.0,99.0,"Fri, Jan 11, 2019","Thu, Jan 31, 2019"
4023,Cherry Capital Airport,Traverse City,United States,TVC,KTVC,44.741445,-85.582235,624,-5,A,"Traverse City, MI",210,206,231,231,4.523809523809523,25.873786407767,39.0,71.0,"Tue, Jan 29, 2019","Tue, Jan  8, 2019"
4263,Magic Valley Regional Airport,Twin Falls,United States,TWF,KTWF,42.481803,-114.487733,4151,-7,A,"Twin Falls, ID",89,127,89,127,2.943820224719101,14.858267716535437,5.0,72.0,"Sat, Jan  5, 2019","Thu, Jan 17, 2019"
3770,Texarkana Regional-Webb Field,Texarkana,United States,TXK,KTXK,33.453722,-93.991028,390,-6,A,"Texarkana, AR",87,87,87,87,3.4022988505747125,12.689655172413794,7.0,41.0,"Wed, Jan 30, 2019","Thu, Jan 24, 2019"
3848,Tyler Pounds Regional,Tyler,United States,TYR,KTYR,32.354139,-95.402386,544,-6,A,"Tyler, TX",115,113,116,116,4.269565217391308,16.008849557522122,9.0,40.0,"Tue, Jan  1, 2019","Tue, Jan  8, 2019"
3676,McGhee Tyson,Knoxville,United States,TYS,KTYS,35.810972,-83.994028,981,-5,A,"Knoxville, TN",1320,1319,1350,1350,4.534848484848481,17.023502653525387,54.0,118.0,"Tue, Jan 29, 2019","Tue, Jan 29, 2019"
5774,Quincy Regional-Baldwin Field,Quincy,United States,UIN,KUIN,39.9427,-91.1946,769,-6,A,"Quincy, IL",45,45,59,58,3.8,22.933333333333334,7.0,127.0,"Wed, Jan  9, 2019","Mon, Jan 28, 2019"
7076,Vernal Regional Airport,Vernal,United States,VEL,KVEL,40.440833,-109.51,5278,-7,A,"Vernal, UT",46,46,53,53,3.956521739130433,16.217391304347824,13.0,36.0,"Wed, Jan 23, 2019","Mon, Jan 14, 2019"
5776,Valdosta Regional Airport,Valdosta,United States,VLD,KVLD,30.7825,-83.2767,203,-5,A,"Valdosta, GA",86,86,87,87,4.023255813953489,14.69767441860465,10.0,40.0,"Tue, Jan  1, 2019","Thu, Jan  3, 2019"
3873,Eglin AFB,Valparaiso,United States,VPS,KVPS,30.48325,-86.5254,87,-6,A,"Valparaiso, FL",487,489,494,494,7.049281314168379,16.163599182004077,23.0,92.0,"Wed, Jan  2, 2019","Mon, Jan 21, 2019"
5969,Wrangell Airport,Wrangell,United States,WRG,PAWG,56.4843,-132.37,44,-9,A,"Wrangell, AK",54,58,62,62,3.759259259259259,10.241379310344824,6.0,38.0,"Thu, Jan  3, 2019","Wed, Jan 16, 2019"
4356,NW Arkansas Regional,Bentonville,United States,XNA,KXNA,36.2818694,-94.3068111,1287,-6,A,"Fayetteville, AR",1017,1013,1049,1048,5.929203539823007,17.997038499506402,40.0,141.0,"Sat, Jan 19, 2019","Wed, Jan 23, 2019"
6803,Yakutat,Yakutat,United States,YAK,PAYA,59.3012,-139.3937,33,-9,A,"Yakutat, AK",53,55,60,60,4.962264150943398,10.909090909090914,33.0,33.0,"Mon, Jan  7, 2019","Sun, Jan  6, 2019"
3596,Yuma MCAS Yuma International,Yuma,United States,YUM,KYUM,32.656578,-114.60598,216,-7,N,"Yuma, AZ",115,115,115,115,3.173913043478261,13.773913043478261,6.0,48.0,"Sun, Jan  6, 2019","Sun, Jan  6, 2019"
2883,Cyril E. King,St. Thomas,Virgin Islands,STT,TIST,18.337306,-64.973361,23,-4,U,"Charlotte Amalie, VI",348,348,349,349,4.2672413793103425,13.919540229885058,13.0,53.0,"Tue, Jan 22, 2019","Sat, Jan 26, 2019"
2884,Henry E. Rohlsen,St. Croix Island,Virgin Islands,STX,TISX,17.701889,-64.798556,74,-4,U,"Christiansted, VI",88,88,88,88,3.3863636363636362,14.261363636363637,8.0,29.0,"Tue, Jan 22, 2019","Mon, Jan  7, 2019"
1970,Pago Pago Internatonal,Pago Pago,American Samoa,PPG,NSTU,-14.331,-170.7105,32,-11,U,"Pago Pago, TT",11,11,11,11,13.272727272727273,15.636363636363637,15.0,21.0,"Mon, Jan 28, 2019","Mon, Jan  7, 2019"
2246,Guam International,Agana,Guam,GUM,PGUM,13.48345,144.795983,298,10,U,"Guam, TT",71,71,72,72,3.084507042253521,13.267605633802818,5.0,27.0,"Fri, Jan 18, 2019","Sun, Jan  6, 2019"
2885,Rafael Hernndez,Aguadilla,Puerto Rico,BQN,TJBQ,18.494861,-67.129444,237,-4,U,"Aguadilla, PR",194,195,195,196,7.247422680412371,12.020512820512815,18.0,40.0,"Wed, Jan  9, 2019","Fri, Jan 25, 2019"
2889,Aeropuerto Mercedita,Ponce,Puerto Rico,PSE,TJPS,18.008306,-66.563028,29,-4,U,"Ponce, PR",62,64,63,65,6.758064516129032,12.8125,41.0,31.0,"Tue, Jan  8, 2019","Sun, Jan  6, 2019"
2890,Luis Muoz Marn International,San Juan,Puerto Rico,SJU,TJSJ,18.439417,-66.001833,9,-4,U,"San Juan, PR",2285,2293,2301,2308,6.499343544857767,14.382468382032267,43.0,65.0,"Mon, Jan 14, 2019","Mon, Jan 21, 2019"
2244,Francisco C. Ada Saipan International,Saipan,Northern Mariana Islands,SPN,PGSN,15.119003,145.729356,215,10,U,"Saipan, TT",41,41,41,41,3.5609756097560976,10.902439024390244,5.0,20.0,"Sat, Jan 26, 2019","Tue, Jan  1, 2019"
